{
      "results": [
            {
                  "distance": 785,
                  "location": {
                        "address": "5703B de la Cote-Des-Neiges Ch",
                        "country": "CA",
                        "cross_street": "C\u00f4te-St-Catherine",
                        "formatted_address": "5703B de la Cote-Des-Neiges Ch (C\u00f4te-St-Catherine), Montr\u00e9al QC H3S 1Y7",
                        "locality": "Montreal",
                        "postcode": "H3S 1Y7",
                        "region": "QC"
                  },
                  "name": "Restaurant Pho Lien",
                  "popularity": 0.9779523088569265,
                  "price": 2,
                  "rating": 8.4
            },
            {
                  "distance": 587,
                  "location": {
                        "address": "6565 Ch de la Cote-Des-Neiges",
                        "country": "CA",
                        "cross_street": "Barclay",
                        "formatted_address": "6565 Ch de la Cote-Des-Neiges (Barclay), Montr\u00e9al QC H3S 2A5",
                        "locality": "Montreal",
                        "postcode": "H3S 2A5",
                        "region": "QC"
                  },
                  "name": "Kum Mon Restaurant",
                  "popularity": 0.9859836298258895,
                  "price": 1,
                  "rating": 7.9
            },
            {
                  "distance": 802,
                  "location": {
                        "address": "5685 Ch C\u00f4te-Des-Neiges",
                        "country": "CA",
                        "cross_street": "",
                        "formatted_address": "5685 Ch C\u00f4te-Des-Neiges, Montr\u00e9al QC H3T 1Y8",
                        "locality": "Montreal",
                        "postcode": "H3T 1Y8",
                        "region": "QC"
                  },
                  "name": "All\u00f4! Mon Coco",
                  "popularity": 0.9823523845571537,
                  "price": 1,
                  "rating": 7.6
            },
            {
                  "distance": 905,
                  "location": {
                        "address": "5595 Cote des Neiges",
                        "country": "CA",
                        "cross_street": "",
                        "formatted_address": "5595 Cote des Neiges, Montr\u00e9al QC H3T 1Y8",
                        "locality": "Montreal",
                        "postcode": "H3T 1Y8",
                        "region": "QC"
                  },
                  "name": "Grillades Farhat",
                  "popularity": 0.2131316237698713,
                  "price": 2,
                  "rating": 7.3
            },
            {
                  "distance": 577,
                  "location": {
                        "address": "6260 ch. de la C\u00f4te-des-Neiges",
                        "country": "CA",
                        "formatted_address": "6260 ch. de la C\u00f4te-des-Neiges, Montr\u00e9al QC H3S 2A3",
                        "locality": "Montreal",
                        "postcode": "H3S 2A3",
                        "region": "QC"
                  },
                  "name": "Restaurant Nguyen Phi",
                  "popularity": 0.9791824375473126,
                  "price": 2,
                  "rating": 7.1
            },
            {
                  "distance": 592,
                  "location": {
                        "address": "5985 Ch de la Cote-des-neiges",
                        "country": "CA",
                        "cross_street": "Linton",
                        "formatted_address": "5985 Ch de la Cote-des-neiges (Linton), Montr\u00e9al QC H3S 1Z2",
                        "locality": "Montreal",
                        "postcode": "H3S 1Z2",
                        "region": "QC"
                  },
                  "name": "Tim Hortons",
                  "popularity": 0.9952450794852384,
                  "price": 1,
                  "rating": 7.0
            },
            {
                  "distance": 970,
                  "location": {
                        "address": "5540-A C\u00f4TE-DES-NEIGES",
                        "country": "CA",
                        "cross_street": "",
                        "formatted_address": "5540-A C\u00f4TE-DES-NEIGES, Montr\u00e9al QC",
                        "locality": "Montreal",
                        "region": "QC"
                  },
                  "name": "Ngan Dinh",
                  "popularity": 0.9620670893262679,
                  "price": 2,
                  "rating": 6.7
            },
            {
                  "distance": 573,
                  "location": {
                        "address": "6185 Ch de la C\u00f4te-des-Neiges",
                        "country": "CA",
                        "formatted_address": "6185 Ch de la C\u00f4te-des-Neiges, Montr\u00e9al QC H3S 1Z9",
                        "locality": "Montreal",
                        "postcode": "H3S 1Z9",
                        "region": "QC"
                  },
                  "name": "Pizza Pizza",
                  "popularity": 0.9545916919000756,
                  "price": 1,
                  "rating": 6.7,
                  "store_id": "307"
            },
            {
                  "distance": 694,
                  "location": {
                        "address": "6767A de la Cote des Neiges Ch",
                        "country": "CA",
                        "cross_street": "",
                        "formatted_address": "6767A de la Cote des Neiges Ch, Montr\u00e9al QC H3S 2A8",
                        "locality": "Montreal",
                        "postcode": "H3S 2A8",
                        "region": "QC"
                  },
                  "name": "Kam Shing Chinese Restaurant",
                  "popularity": 0.9756339894019682,
                  "price": 1,
                  "rating": 6.7
            },
            {
                  "distance": 790,
                  "location": {
                        "address": "6700 Ch de la C\u00f4te-des-Neiges",
                        "country": "CA",
                        "cross_street": "Barclay",
                        "formatted_address": "6700 Ch de la C\u00f4te-des-Neiges (Barclay), Montr\u00e9al QC H3S 2B2",
                        "locality": "Montreal",
                        "postcode": "H3S 2B2",
                        "region": "QC"
                  },
                  "name": "Cine Starz Inc Cotes des Neiges",
                  "popularity": 0.991353614685844,
                  "rating": 6.5
            },
            {
                  "distance": 561,
                  "location": {
                        "address": "2707 Van Horne Ave",
                        "address_extended": "# 2615",
                        "country": "CA",
                        "cross_street": "",
                        "formatted_address": "2707 Van Horne Ave, Montr\u00e9al QC H3S 1P6",
                        "locality": "Montreal",
                        "postcode": "H3S 1P6",
                        "region": "QC"
                  },
                  "name": "Subway",
                  "popularity": 0.8892056207418623,
                  "price": 1,
                  "rating": 6.4
            },
            {
                  "distance": 930,
                  "location": {
                        "address": "5567A de la Cote des Neiges Ch",
                        "country": "CA",
                        "cross_street": "",
                        "formatted_address": "5567A de la Cote des Neiges Ch, Montr\u00e9al QC H3T 1Y8",
                        "locality": "Montreal",
                        "postcode": "H3T 1Y8",
                        "region": "QC"
                  },
                  "name": "Restaurant Kebab Express",
                  "popularity": 0.9039671650264951,
                  "price": 2,
                  "rating": 6.4
            },
            {
                  "distance": 632,
                  "location": {
                        "address": "6000 Ch de la C\u00f4te-des-Neiges",
                        "country": "CA",
                        "cross_street": "Avenue Linton",
                        "formatted_address": "6000 Ch de la C\u00f4te-des-Neiges (Avenue Linton), Montr\u00e9al QC H3S 1Z8",
                        "locality": "Montreal",
                        "postcode": "H3S 1Z8",
                        "region": "QC"
                  },
                  "name": "Second Cup",
                  "popularity": 0.9513507759273278,
                  "price": 1,
                  "rating": 6.3
            },
            {
                  "distance": 847,
                  "location": {
                        "address": "3700 Ch de la C\u00f4te-sainte-catherine",
                        "country": "CA",
                        "cross_street": "",
                        "formatted_address": "3700 Ch de la C\u00f4te-sainte-catherine, Montr\u00e9al QC H3T 1E1",
                        "locality": "Montreal",
                        "postcode": "H3T 1E1",
                        "region": "QC"
                  },
                  "name": "Tim Hortons",
                  "popularity": 0.9728543716881151,
                  "price": 1,
                  "rating": 6.2
            },
            {
                  "distance": 575,
                  "location": {
                        "address": "6025 Blvd de la C\u00f4te-Des-Neiges",
                        "country": "CA",
                        "cross_street": "coin Van Horne",
                        "formatted_address": "6025 Blvd de la C\u00f4te-Des-Neiges (coin Van Horne), Montr\u00e9al QC H3S 1Z9",
                        "locality": "Montreal",
                        "postcode": "H3S 1Z9",
                        "region": "QC"
                  },
                  "name": "McDonald's",
                  "popularity": 0.9968537093111279,
                  "price": 1,
                  "rating": 5.4,
                  "store_id": "3312"
            },
            {
                  "distance": 575,
                  "location": {
                        "address": "6080 Ch de la C\u00f4te-des-Neiges",
                        "country": "CA",
                        "formatted_address": "6080 Ch de la C\u00f4te-des-Neiges, Montr\u00e9al QC H3S 1Z7",
                        "locality": "Montreal",
                        "postcode": "H3S 1Z7",
                        "region": "QC"
                  },
                  "name": "Restaurant Riz et Nouilles",
                  "popularity": 0.43615158970476914,
                  "price": 2
            },
            {
                  "distance": 685,
                  "location": {
                        "address": "6700 Ch. de la C\u00f4te-des-Neiges",
                        "country": "CA",
                        "cross_street": "",
                        "formatted_address": "6700 Ch. de la C\u00f4te-des-Neiges, Montr\u00e9al QC H3S 2B2",
                        "locality": "Montreal",
                        "postcode": "H3S 2B2",
                        "region": "QC"
                  },
                  "name": "Uncle Tetsu",
                  "popularity": 0.8627815102195306,
                  "price": 1
            },
            {
                  "distance": 691,
                  "location": {
                        "address": "6700 ch de la C\u00f4te-des-Neiges",
                        "country": "CA",
                        "cross_street": "",
                        "formatted_address": "6700 ch de la C\u00f4te-des-Neiges, Montr\u00e9al QC H3S 2B2",
                        "locality": "Montreal",
                        "postcode": "H3S 2B2",
                        "region": "QC"
                  },
                  "name": "Pita Burger",
                  "popularity": 0.957300340651022,
                  "price": 2
            },
            {
                  "distance": 748,
                  "location": {
                        "address": "5711 Ch de la Cote des Neiges",
                        "country": "CA",
                        "cross_street": "",
                        "formatted_address": "5711 Ch de la Cote des Neiges, Montreal QC H3S 1Y7",
                        "locality": "Montreal",
                        "postcode": "H3S 1Y7",
                        "region": "QC"
                  },
                  "name": "Neos",
                  "popularity": 0.35991909538228617
            },
            {
                  "distance": 751,
                  "location": {
                        "address": "6700 ch de la C\u00f4te-des-Neiges",
                        "country": "CA",
                        "cross_street": "",
                        "formatted_address": "6700 ch de la C\u00f4te-des-Neiges, Montreal QC H3S 2B2",
                        "locality": "Montreal",
                        "postcode": "H3S 2B2",
                        "region": "QC"
                  },
                  "name": "Bar Vegas Lounge",
                  "popularity": 0.8900335919757759,
                  "price": 2
            },
            {
                  "distance": 786,
                  "location": {
                        "address": "5693 ch de la cote-des-Neiges",
                        "country": "CA",
                        "cross_street": "C\u00f4te des Neiges",
                        "formatted_address": "5693 ch de la cote-des-Neiges (C\u00f4te des Neiges), Montr\u00e9al QC H3S 1Y7",
                        "locality": "Montreal",
                        "postcode": "H3S 1Y7",
                        "region": "QC"
                  },
                  "name": "Caf\u00e9 Nido",
                  "popularity": 0.8397402535957608,
                  "price": 2
            },
            {
                  "distance": 821,
                  "location": {
                        "address": "5647 Ch de la C\u00f4te-des-Neiges",
                        "country": "CA",
                        "cross_street": "",
                        "formatted_address": "5647 Ch de la C\u00f4te-des-Neiges, Montr\u00e9al QC H3T 1Y8",
                        "locality": "Montreal",
                        "postcode": "H3T 1Y8",
                        "region": "QC"
                  },
                  "name": "La Diperie",
                  "popularity": 0.9308998864496594,
                  "price": 1
            },
            {
                  "distance": 822,
                  "location": {
                        "address": "3680 Ch de la C\u00f4te-Sainte-Catherine",
                        "country": "CA",
                        "cross_street": "",
                        "formatted_address": "3680 Ch de la C\u00f4te-Sainte-Catherine, Montr\u00e9al QC H3T 1E1",
                        "locality": "Montreal",
                        "postcode": "H3T 1E1",
                        "region": "QC"
                  },
                  "name": "Quesada Burritos and Tacos",
                  "popularity": 0.977964137017411
            },
            {
                  "distance": 834,
                  "location": {
                        "address": "5701 Ch de la Cote-des-Neiges",
                        "country": "CA",
                        "cross_street": "",
                        "formatted_address": "5701 Ch de la Cote-des-Neiges, Montr\u00e9al QC H3S 1Y7",
                        "locality": "Montreal",
                        "postcode": "H3S 1Y7",
                        "region": "QC"
                  },
                  "name": "Le Royal Madurai",
                  "popularity": 0.5793551286903861,
                  "price": 2
            },
            {
                  "distance": 841,
                  "location": {
                        "address": "5655 ch de la cote-des-Neiges",
                        "country": "CA",
                        "cross_street": "",
                        "formatted_address": "5655 ch de la cote-des-Neiges, Montreal QC H3T 1Y8",
                        "locality": "Montreal",
                        "postcode": "H3T 1Y8",
                        "region": "QC"
                  },
                  "name": "R\u00f4tisserie Poulet-Technique",
                  "popularity": 0.45301854655563967,
                  "price": 1
            },
            {
                  "distance": 848,
                  "location": {
                        "address": "90 Vincent d'Indy",
                        "country": "CA",
                        "cross_street": "",
                        "formatted_address": "90 Vincent d'Indy, Montr\u00e9al QC H3T 1Y8",
                        "locality": "Montreal",
                        "postcode": "H3T 1Y8",
                        "region": "QC"
                  },
                  "name": "La Retenue",
                  "popularity": 0.9414151211203634,
                  "price": 2
            },
            {
                  "distance": 922,
                  "location": {
                        "address": "5711 Ch de la Cote-des-Neiges",
                        "country": "CA",
                        "cross_street": "",
                        "formatted_address": "5711 Ch de la Cote-des-Neiges, Montr\u00e9al QC H3S 1Y7",
                        "locality": "Montreal",
                        "postcode": "H3S 1Y7",
                        "region": "QC"
                  },
                  "name": "La Republika",
                  "popularity": 0.4669757759273278,
                  "price": 2
            },
            {
                  "distance": 990,
                  "location": {
                        "address": "5536A de la Cote-Des-Neiges Ch",
                        "country": "CA",
                        "cross_street": "rue St-Laurent",
                        "formatted_address": "5536A de la Cote-Des-Neiges Ch (rue St-Laurent), Montr\u00e9al QC H3T 1Y9",
                        "locality": "Montreal",
                        "postcode": "H3T 1Y9",
                        "region": "QC"
                  },
                  "name": "Le Petit Vibe",
                  "popularity": 0.9580336866010598,
                  "price": 2
            },
            {
                  "distance": 466,
                  "location": {
                        "address": "6685 Ave de Darlington",
                        "country": "CA",
                        "formatted_address": "6685 Ave de Darlington, Montreal QC H3S 2J6",
                        "locality": "Montreal",
                        "postcode": "H3S 2J6",
                        "region": "QC"
                  },
                  "name": "Boulangerie Sindidab"
            },
            {
                  "distance": 539,
                  "location": {
                        "address": "3175 ch de la cote-Sainte-Catherine",
                        "country": "CA",
                        "formatted_address": "3175 ch de la cote-Sainte-Catherine, Montreal QC H3T 1C5",
                        "locality": "Montreal",
                        "postcode": "H3T 1C5",
                        "region": "QC"
                  },
                  "name": "Van Houtte"
            },
            {
                  "distance": 561,
                  "location": {
                        "address": "1904 Thimens Blvd",
                        "country": "CA",
                        "formatted_address": "1904 Thimens Blvd, Saint-Laurent QC H4R 2K2",
                        "locality": "Saint-Laurent",
                        "postcode": "H4R 2K2",
                        "region": "QC"
                  },
                  "name": "Restaurant et Poisonnerie la Mer Rouge"
            },
            {
                  "distance": 595,
                  "location": {
                        "address": "2720 Pl de Darlington",
                        "country": "CA",
                        "formatted_address": "2720 Pl de Darlington, Montreal QC H3S 1L5",
                        "locality": "Montreal",
                        "postcode": "H3S 1L5",
                        "region": "QC"
                  },
                  "name": "Joaquin's Cigar Lounge"
            },
            {
                  "distance": 598,
                  "location": {
                        "address": "6615 Ch de la Cote-Des-Neiges",
                        "country": "CA",
                        "formatted_address": "6615 Ch de la Cote-Des-Neiges, Montreal QC H3S 2B3",
                        "locality": "Montreal",
                        "postcode": "H3S 2B3",
                        "region": "QC"
                  },
                  "name": "Cafe Lan-Anh"
            },
            {
                  "distance": 616,
                  "location": {
                        "address": "5847 Ch de la C\u00f4te-Des-Neiges",
                        "country": "CA",
                        "formatted_address": "5847 Ch de la C\u00f4te-Des-Neiges, Montreal QC H3S 1Z2",
                        "locality": "Montreal",
                        "postcode": "H3S 1Z2",
                        "region": "QC"
                  },
                  "name": "Restaurant le Trooper - Pinoy Artisanal"
            },
            {
                  "distance": 646,
                  "location": {
                        "address": "5821 ch de la cote-des-Neiges",
                        "country": "CA",
                        "formatted_address": "5821 ch de la cote-des-Neiges, Montreal QC H3S 1Z2",
                        "locality": "Montreal",
                        "postcode": "H3S 1Z2",
                        "region": "QC"
                  },
                  "name": "Walima Restaurant"
            }
      ],
      "context": {
            "geo_bounds": {
                  "circle": {
                        "center": {
                              "latitude": 45.50572093,
                              "longitude": -73.62945914
                        },
                        "radius": 1000
                  }
            }
      }
}