{
      "results": [
            {
                  "distance": 978,
                  "location": {
                        "address": "3353 Masson Rue",
                        "country": "CA",
                        "cross_street": "",
                        "formatted_address": "3353 Masson Rue, Montr\u00e9al QC H1X 1R5",
                        "locality": "Montreal",
                        "postcode": "H1X 1R5",
                        "region": "QC"
                  },
                  "name": "Maesmi",
                  "popularity": 0.9623154806964421,
                  "price": 1,
                  "rating": 8.9
            },
            {
                  "distance": 650,
                  "location": {
                        "address": "3974 Pierre de Coubertin Ave",
                        "country": "CA",
                        "cross_street": "",
                        "formatted_address": "3974 Pierre de Coubertin Ave, Montr\u00e9al QC H1W 1E7",
                        "locality": "Montreal",
                        "postcode": "H1W 1E7",
                        "region": "QC"
                  },
                  "name": "Fusion Express",
                  "popularity": 0.9321300151400455,
                  "price": 2,
                  "rating": 8.0
            },
            {
                  "distance": 920,
                  "location": {
                        "address": "3971 Hochelaga Rue",
                        "country": "CA",
                        "cross_street": "",
                        "formatted_address": "3971 Hochelaga Rue, Montr\u00e9al QC H1W 1K2",
                        "locality": "Montreal",
                        "postcode": "H1W 1K2",
                        "region": "QC"
                  },
                  "name": "Poutine Centrale",
                  "popularity": 0.9448807721423165,
                  "price": 2,
                  "rating": 7.9
            },
            {
                  "distance": 845,
                  "location": {
                        "address": "4028 Masson Rue",
                        "country": "CA",
                        "cross_street": "Btw Jean-d'Arc & Pie-IX",
                        "formatted_address": "4028 Masson Rue (Btw Jean-d'Arc & Pie-IX), Montr\u00e9al QC H1X 1T8",
                        "locality": "Montreal",
                        "postcode": "H1X 1T8",
                        "region": "QC"
                  },
                  "name": "Restaurant Chez la M\u00e8re",
                  "popularity": 0.9612036336109009,
                  "price": 1,
                  "rating": 7.4
            },
            {
                  "distance": 384,
                  "location": {
                        "address": "4101 Sherbrooke Rue E",
                        "country": "CA",
                        "cross_street": "",
                        "formatted_address": "4101 Sherbrooke Rue E, Montr\u00e9al QC H1X 2B2",
                        "locality": "Montreal",
                        "postcode": "H1X 2B2",
                        "region": "QC"
                  },
                  "name": "Restaurant du Jardin Botanique",
                  "popularity": 0.9286880204390613,
                  "price": 2,
                  "rating": 7.4
            },
            {
                  "distance": 966,
                  "location": {
                        "address": "3165 Rachel Rue E",
                        "country": "CA",
                        "cross_street": "Avenue du Midway",
                        "formatted_address": "3165 Rachel Rue E (Avenue du Midway), Montr\u00e9al QC H1W 1A3",
                        "locality": "Montreal",
                        "postcode": "H1W 1A3",
                        "region": "QC"
                  },
                  "name": "Labarake",
                  "popularity": 0.9237320211960636,
                  "price": 3,
                  "rating": 6.6
            },
            {
                  "distance": 447,
                  "location": {
                        "address": "3929 Sherbrooke Rue E",
                        "country": "CA",
                        "cross_street": "Orleans",
                        "formatted_address": "3929 Sherbrooke Rue E (Orleans), Montr\u00e9al QC H1X 3E3",
                        "locality": "Montreal",
                        "postcode": "H1X 3E3",
                        "region": "QC"
                  },
                  "name": "Restaurant la Belle Province",
                  "popularity": 0.9721091975775927,
                  "price": 1,
                  "rating": 6.3
            },
            {
                  "distance": 452,
                  "location": {
                        "address": "3881 Sherbrooke Rue E",
                        "country": "CA",
                        "cross_street": "coin Av. Bourbonni\u00e8re",
                        "formatted_address": "3881 Sherbrooke Rue E (coin Av. Bourbonni\u00e8re), Montr\u00e9al QC H1X 2A5",
                        "locality": "Montreal",
                        "postcode": "H1X 2A5",
                        "region": "QC"
                  },
                  "name": "Tim Hortons",
                  "popularity": 0.9890116389099167,
                  "price": 1,
                  "rating": 6.2
            },
            {
                  "distance": 949,
                  "location": {
                        "address": "3924 Hochelaga Rue",
                        "country": "CA",
                        "cross_street": "coin Orleans",
                        "formatted_address": "3924 Hochelaga Rue (coin Orleans), Montr\u00e9al QC H1W 1J9",
                        "locality": "Montreal",
                        "postcode": "H1W 1J9",
                        "region": "QC"
                  },
                  "name": "Jimmy Restaurant",
                  "popularity": 0.9504518357305072,
                  "price": 2,
                  "rating": 5.9
            },
            {
                  "distance": 338,
                  "location": {
                        "address": "3881 Rachel Rue E",
                        "country": "CA",
                        "cross_street": "Bourbonni\u00e8re",
                        "formatted_address": "3881 Rachel Rue E (Bourbonni\u00e8re), Montr\u00e9al QC H1X 1Z2",
                        "locality": "Montreal",
                        "postcode": "H1X 1Z2",
                        "region": "QC"
                  },
                  "name": "Le Botocoin",
                  "popularity": 0.9011757191521574,
                  "price": 1
            },
            {
                  "distance": 538,
                  "location": {
                        "address": "3537 Rachel Rue E",
                        "country": "CA",
                        "cross_street": "",
                        "formatted_address": "3537 Rachel Rue E, Montr\u00e9al QC H1W 1A8",
                        "locality": "Montreal",
                        "postcode": "H1W 1A8",
                        "region": "QC"
                  },
                  "name": "Jardin des Delices",
                  "popularity": 0.9223599545798638,
                  "price": 2
            },
            {
                  "distance": 635,
                  "location": {
                        "address": "3800 Sherbrooke Rue E",
                        "country": "CA",
                        "cross_street": "",
                        "formatted_address": "3800 Sherbrooke Rue E, Montr\u00e9al QC H1X 2A2",
                        "locality": "Montreal",
                        "postcode": "H1X 2A2",
                        "region": "QC"
                  },
                  "name": "Caf\u00e9 l'Escale",
                  "popularity": 0.9066403292959879,
                  "price": 1
            },
            {
                  "distance": 767,
                  "location": {
                        "address": "3790 Masson Rue",
                        "country": "CA",
                        "cross_street": "",
                        "formatted_address": "3790 Masson Rue, Montr\u00e9al QC H1X 1S6",
                        "locality": "Montreal",
                        "postcode": "H1X 1S6",
                        "region": "QC"
                  },
                  "name": "Cafeopolis Bistro",
                  "popularity": 0.8884722747918243
            },
            {
                  "distance": 807,
                  "location": {
                        "address": "3738 Masson Rue",
                        "country": "CA",
                        "cross_street": "17e",
                        "formatted_address": "3738 Masson Rue (17e), Montr\u00e9al QC H1X 1S6",
                        "locality": "Montreal",
                        "postcode": "H1X 1S6",
                        "region": "QC"
                  },
                  "name": "Les Plats Cuisin\u00e9s B.V.M",
                  "popularity": 0.37813446252838756,
                  "price": 1
            },
            {
                  "distance": 820,
                  "location": {
                        "address": "3756 Masson Rue",
                        "country": "CA",
                        "cross_street": "17eme avenue",
                        "formatted_address": "3756 Masson Rue (17eme avenue), Montr\u00e9al QC H1X 1S6",
                        "locality": "Montreal",
                        "postcode": "H1X 1S6",
                        "region": "QC"
                  },
                  "name": "La Tasse Rouge",
                  "popularity": 0.8086321915215746,
                  "price": 1
            },
            {
                  "distance": 851,
                  "location": {
                        "address": "3560 Masson Rue",
                        "country": "CA",
                        "cross_street": "15e Ave",
                        "formatted_address": "3560 Masson Rue (15e Ave), Montr\u00e9al QC H1X 1R9",
                        "locality": "Montreal",
                        "postcode": "H1X 1R9",
                        "region": "QC"
                  },
                  "name": "Bar U-Turn",
                  "popularity": 0.8883776495079485,
                  "price": 2
            },
            {
                  "distance": 896,
                  "location": {
                        "address": "3240 Rachel Rue E",
                        "country": "CA",
                        "cross_street": "Saint-Germain",
                        "formatted_address": "3240 Rachel Rue E (Saint-Germain), Montr\u00e9al QC H1W 1A4",
                        "locality": "Montreal",
                        "postcode": "H1W 1A4",
                        "region": "QC"
                  },
                  "name": "Caf\u00e9 Imp\u00e9rial Microtorr\u00e9facteur",
                  "popularity": 0.8643309992429977,
                  "price": 1
            },
            {
                  "distance": 989,
                  "location": {
                        "address": "3667 Hochelaga Rue",
                        "country": "CA",
                        "cross_street": "Chambly",
                        "formatted_address": "3667 Hochelaga Rue (Chambly), Montr\u00e9al QC H1W 1J2",
                        "locality": "Montreal",
                        "postcode": "H1W 1J2",
                        "region": "QC"
                  },
                  "name": "Bistro King Creole",
                  "popularity": 0.007901211203633612,
                  "price": 2
            },
            {
                  "distance": 657,
                  "location": {
                        "address": "3645 Sherbrooke Rue E",
                        "country": "CA",
                        "formatted_address": "3645 Sherbrooke Rue E, Montreal QC H1W 1E5",
                        "locality": "Montreal",
                        "postcode": "H1W 1E5",
                        "region": "QC"
                  },
                  "name": "Sandwich Par-Ici"
            },
            {
                  "distance": 659,
                  "location": {
                        "address": "4115 Pierre de Coubertin",
                        "country": "CA",
                        "formatted_address": "4115 Pierre de Coubertin, Montreal QC",
                        "locality": "Montreal",
                        "region": "QC"
                  },
                  "name": "Hivernale"
            },
            {
                  "distance": 732,
                  "location": {
                        "address": "4141 Pierre-De Coubertin Ave",
                        "country": "CA",
                        "formatted_address": "4141 Pierre-De Coubertin Ave, Montreal QC H1V 3N7",
                        "locality": "Montreal",
                        "postcode": "H1V 3N7",
                        "region": "QC"
                  },
                  "name": "Les Dimanches Salsa Folie"
            },
            {
                  "distance": 801,
                  "location": {
                        "address": "3750 Masson Rue",
                        "country": "CA",
                        "formatted_address": "3750 Masson Rue, Montreal QC H1X 1S6",
                        "locality": "Montreal",
                        "postcode": "H1X 1S6",
                        "region": "QC"
                  },
                  "name": "Sr Vinho"
            },
            {
                  "distance": 832,
                  "location": {
                        "address": "4030 Masson Rue",
                        "country": "CA",
                        "formatted_address": "4030 Masson Rue, Montreal QC H1X 1T8",
                        "locality": "Montreal",
                        "postcode": "H1X 1T8",
                        "region": "QC"
                  },
                  "name": "Cafe Sport Alex"
            },
            {
                  "distance": 835,
                  "location": {
                        "address": "3775 Masson Rue",
                        "country": "CA",
                        "formatted_address": "3775 Masson Rue, Montreal QC H1X 1S7",
                        "locality": "Montreal",
                        "postcode": "H1X 1S7",
                        "region": "QC"
                  },
                  "name": "Banh Mi Ngon"
            },
            {
                  "distance": 858,
                  "location": {
                        "address": "3545 Masson Rue",
                        "country": "CA",
                        "formatted_address": "3545 Masson Rue, Montreal QC H1X 1S1",
                        "locality": "Montreal",
                        "postcode": "H1X 1S1",
                        "region": "QC"
                  },
                  "name": "John Knot"
            },
            {
                  "distance": 895,
                  "location": {
                        "address": "3240 Rachel Rue E",
                        "country": "CA",
                        "formatted_address": "3240 Rachel Rue E, Montreal QC H1W 1A4",
                        "locality": "Montreal",
                        "postcode": "H1W 1A4",
                        "region": "QC"
                  },
                  "name": "Pub Angus"
            },
            {
                  "distance": 958,
                  "location": {
                        "address": "4141 Pierre-De Coubertin Ave",
                        "country": "CA",
                        "formatted_address": "4141 Pierre-De Coubertin Ave, Montreal QC H1V 3N7",
                        "locality": "Montreal",
                        "postcode": "H1V 3N7",
                        "region": "QC"
                  },
                  "name": "Restaurant de la Tour Olympique"
            },
            {
                  "distance": 981,
                  "location": {
                        "address": "2925 Rachel Rue E",
                        "country": "CA",
                        "formatted_address": "2925 Rachel Rue E, Montreal QC H1W 3Z8",
                        "locality": "Montreal",
                        "postcode": "H1W 3Z8",
                        "region": "QC"
                  },
                  "name": "Starbucks",
                  "store_id": "65587-300003"
            }
      ],
      "context": {
            "geo_bounds": {
                  "circle": {
                        "center": {
                              "latitude": 45.55358456,
                              "longitude": -73.56052905
                        },
                        "radius": 1000
                  }
            }
      }
}