{
      "results": [
            {
                  "distance": 887,
                  "location": {
                        "address": "416 Bourke Ave",
                        "country": "CA",
                        "cross_street": "Bouchard",
                        "formatted_address": "416 Bourke Ave (Bouchard), Dorval QC H9S 3W8",
                        "locality": "Dorval",
                        "postcode": "H9S 3W8",
                        "region": "QC"
                  },
                  "name": "Restaurant Emeraude de Bangkok",
                  "popularity": 0.9538327526132404,
                  "price": 2,
                  "rating": 6.2
            },
            {
                  "distance": 833,
                  "location": {
                        "address": "15 Bouchard Blvd",
                        "address_extended": "at Bourke Ave",
                        "country": "CA",
                        "cross_street": "at Bourke Ave.",
                        "formatted_address": "15 Bouchard Blvd (at Bourke Ave.), Dorval QC H9S 5X2",
                        "locality": "Dorval",
                        "postcode": "H9S 5X2",
                        "region": "QC"
                  },
                  "name": "Barbie's",
                  "popularity": 0.9542682926829268,
                  "price": 3,
                  "rating": 5.4
            },
            {
                  "distance": 889,
                  "location": {
                        "address": "419 Bourke Ave",
                        "country": "CA",
                        "cross_street": "55 ave",
                        "formatted_address": "419 Bourke Ave (55 ave), Dorval QC H9S 3W8",
                        "locality": "Dorval",
                        "postcode": "H9S 3W8",
                        "region": "QC"
                  },
                  "name": "4M Resto Pizza",
                  "popularity": 0.9477351916376306,
                  "price": 1
            },
            {
                  "distance": 884,
                  "location": {
                        "address": "419A Bourke Ave",
                        "country": "CA",
                        "formatted_address": "419A Bourke Ave, Dorval QC H9S 3W8",
                        "locality": "Dorval",
                        "postcode": "H9S 3W8",
                        "region": "QC"
                  },
                  "name": "2M Pizza"
            }
      ],
      "context": {
            "geo_bounds": {
                  "circle": {
                        "center": {
                              "latitude": 45.43836714,
                              "longitude": -73.71546686
                        },
                        "radius": 1000
                  }
            }
      }
}