{
      "results": [
            {
                  "distance": 613,
                  "location": {
                        "address": "4028 Masson Rue",
                        "country": "CA",
                        "cross_street": "Btw Jean-d'Arc & Pie-IX",
                        "formatted_address": "4028 Masson Rue (Btw Jean-d'Arc & Pie-IX), Montr\u00e9al QC H1X 1T8",
                        "locality": "Montreal",
                        "postcode": "H1X 1T8",
                        "region": "QC"
                  },
                  "name": "Restaurant Chez la M\u00e8re",
                  "popularity": 0.9612036336109009,
                  "price": 1,
                  "rating": 7.4
            },
            {
                  "distance": 715,
                  "location": {
                        "address": "4023 Beaubien Rue E",
                        "country": "CA",
                        "formatted_address": "4023 Beaubien Rue E, Montr\u00e9al QC H1X 1H7",
                        "locality": "Montreal",
                        "postcode": "H1X 1H7",
                        "region": "QC"
                  },
                  "name": "Beaubien Deli",
                  "popularity": 0.9816072104466314,
                  "price": 2,
                  "rating": 7.2
            },
            {
                  "distance": 779,
                  "location": {
                        "address": "3975 Beaubien Rue E",
                        "address_extended": "Magasins Couche Tard C-Store",
                        "country": "CA",
                        "cross_street": "21e Avenue",
                        "formatted_address": "3975 Beaubien Rue E (21e Avenue), Montr\u00e9al QC H1X 1H5",
                        "locality": "Montreal",
                        "postcode": "H1X 1H5",
                        "region": "QC"
                  },
                  "name": "Subway",
                  "popularity": 0.8886496971990916,
                  "price": 1,
                  "rating": 6.2,
                  "store_id": "29727"
            },
            {
                  "distance": 294,
                  "location": {
                        "address": "4201 Rosemont Blvd",
                        "country": "CA",
                        "cross_street": "23e avenue",
                        "formatted_address": "4201 Rosemont Blvd (23e avenue), Montr\u00e9al QC H1T 2C6",
                        "locality": "Montreal",
                        "postcode": "H1T 2C6",
                        "region": "QC"
                  },
                  "name": "Aux Sept Bonheurs Restaurant",
                  "popularity": 0.8941497918243755,
                  "price": 1
            },
            {
                  "distance": 644,
                  "location": {
                        "address": "4111 Beaubien Rue E",
                        "country": "CA",
                        "cross_street": "",
                        "formatted_address": "4111 Beaubien Rue E, Montr\u00e9al QC H1T 1S3",
                        "locality": "Montreal",
                        "postcode": "H1T 1S3",
                        "region": "QC"
                  },
                  "name": "La Grotta del Mare",
                  "popularity": 0.30545041635124903,
                  "price": 2
            },
            {
                  "distance": 797,
                  "location": {
                        "address": "4931 Beaubien Rue E",
                        "country": "CA",
                        "cross_street": "coin Viau",
                        "formatted_address": "4931 Beaubien Rue E (coin Viau), Montr\u00e9al QC H1T 1V1",
                        "locality": "Montreal",
                        "postcode": "H1T 1V1",
                        "region": "QC"
                  },
                  "name": "Sachi Sushi",
                  "popularity": 0.8922099735049205,
                  "price": 2
            },
            {
                  "distance": 858,
                  "location": {
                        "address": "5076 rue de Bellechasse",
                        "country": "CA",
                        "cross_street": "39e avenue",
                        "formatted_address": "5076 rue de Bellechasse (39e avenue), Montr\u00e9al QC H1T 2A2",
                        "locality": "Montreal",
                        "postcode": "H1T 2A2",
                        "region": "QC"
                  },
                  "name": "Une nuit \u00e0 Bangkok",
                  "popularity": 0.9431065480696442,
                  "price": 2
            },
            {
                  "distance": 904,
                  "location": {
                        "address": "3790 Masson Rue",
                        "country": "CA",
                        "cross_street": "",
                        "formatted_address": "3790 Masson Rue, Montr\u00e9al QC H1X 1S6",
                        "locality": "Montreal",
                        "postcode": "H1X 1S6",
                        "region": "QC"
                  },
                  "name": "Cafeopolis Bistro",
                  "popularity": 0.8884722747918243
            },
            {
                  "distance": 925,
                  "location": {
                        "address": "3756 Masson Rue",
                        "country": "CA",
                        "cross_street": "17eme avenue",
                        "formatted_address": "3756 Masson Rue (17eme avenue), Montr\u00e9al QC H1X 1S6",
                        "locality": "Montreal",
                        "postcode": "H1X 1S6",
                        "region": "QC"
                  },
                  "name": "La Tasse Rouge",
                  "popularity": 0.8086321915215746,
                  "price": 1
            },
            {
                  "distance": 929,
                  "location": {
                        "address": "3738 Masson Rue",
                        "country": "CA",
                        "cross_street": "17e",
                        "formatted_address": "3738 Masson Rue (17e), Montr\u00e9al QC H1X 1S6",
                        "locality": "Montreal",
                        "postcode": "H1X 1S6",
                        "region": "QC"
                  },
                  "name": "Les Plats Cuisin\u00e9s B.V.M",
                  "popularity": 0.37813446252838756,
                  "price": 1
            },
            {
                  "distance": 948,
                  "location": {
                        "address": "3641A Dandurand Rue",
                        "country": "CA",
                        "cross_street": "16e avenue",
                        "formatted_address": "3641A Dandurand Rue (16e avenue), Montreal QC H1X 1N5",
                        "locality": "Mont\u00e9r\u00e9gie",
                        "postcode": "H1X 1N5",
                        "region": "QC"
                  },
                  "name": "La Bo\u00eete \u00e0 Vins",
                  "popularity": 0.10760077592732778,
                  "price": 1
            },
            {
                  "distance": 509,
                  "location": {
                        "address": "4457 Beaubien Rue E",
                        "country": "CA",
                        "formatted_address": "4457 Beaubien Rue E, Montreal QC H1T 1T3",
                        "locality": "Montreal",
                        "postcode": "H1T 1T3",
                        "region": "QC"
                  },
                  "name": "Lourdie Gourmandise"
            },
            {
                  "distance": 513,
                  "location": {
                        "address": "4509 Beaubien Rue E",
                        "country": "CA",
                        "formatted_address": "4509 Beaubien Rue E, Montreal QC H1T 1T4",
                        "locality": "Montreal",
                        "postcode": "H1T 1T4",
                        "region": "QC"
                  },
                  "name": "Petit Ya Courtier"
            },
            {
                  "distance": 619,
                  "location": {
                        "address": "4030 Masson Rue",
                        "country": "CA",
                        "formatted_address": "4030 Masson Rue, Montreal QC H1X 1T8",
                        "locality": "Montreal",
                        "postcode": "H1X 1T8",
                        "region": "QC"
                  },
                  "name": "Cafe Sport Alex"
            },
            {
                  "distance": 649,
                  "location": {
                        "address": "4111 Beaubien Rue E",
                        "country": "CA",
                        "formatted_address": "4111 Beaubien Rue E, Montreal QC H1T 1S3",
                        "locality": "Montreal",
                        "postcode": "H1T 1S3",
                        "region": "QC"
                  },
                  "name": "Grotte de la Mer Inc"
            },
            {
                  "distance": 689,
                  "location": {
                        "address": "4933 Rosemont Blvd",
                        "country": "CA",
                        "formatted_address": "4933 Rosemont Blvd, Montreal QC H1T 2E6",
                        "locality": "Montreal",
                        "postcode": "H1T 2E6",
                        "region": "QC"
                  },
                  "name": "Dido Restaurant"
            },
            {
                  "distance": 711,
                  "location": {
                        "address": "4943 Rosemont Blvd",
                        "country": "CA",
                        "formatted_address": "4943 Rosemont Blvd, Montreal QC H1T 2E6",
                        "locality": "Montreal",
                        "postcode": "H1T 2E6",
                        "region": "QC"
                  },
                  "name": "Ryo Sushi"
            },
            {
                  "distance": 833,
                  "location": {
                        "address": "6510 Viau Rue",
                        "country": "CA",
                        "formatted_address": "6510 Viau Rue, Montreal QC H1T 2Y7",
                        "locality": "Montreal",
                        "postcode": "H1T 2Y7",
                        "region": "QC"
                  },
                  "name": "Meurtre et Mysteres"
            },
            {
                  "distance": 878,
                  "location": {
                        "address": "4975 Beaubien Rue E",
                        "country": "CA",
                        "formatted_address": "4975 Beaubien Rue E, Montreal QC H1T 1V3",
                        "locality": "Montreal",
                        "postcode": "H1T 1V3",
                        "region": "QC"
                  },
                  "name": "Brasserie Cannebiere Inc"
            },
            {
                  "distance": 883,
                  "location": {
                        "address": "3775 Masson Rue",
                        "country": "CA",
                        "formatted_address": "3775 Masson Rue, Montreal QC H1X 1S7",
                        "locality": "Montreal",
                        "postcode": "H1X 1S7",
                        "region": "QC"
                  },
                  "name": "Banh Mi Ngon"
            },
            {
                  "distance": 915,
                  "location": {
                        "address": "3750 Masson Rue",
                        "country": "CA",
                        "formatted_address": "3750 Masson Rue, Montreal QC H1X 1S6",
                        "locality": "Montreal",
                        "postcode": "H1X 1S6",
                        "region": "QC"
                  },
                  "name": "Sr Vinho"
            }
      ],
      "context": {
            "geo_bounds": {
                  "circle": {
                        "center": {
                              "latitude": 45.56370994,
                              "longitude": -73.57139468
                        },
                        "radius": 1000
                  }
            }
      }
}