{
      "results": [
            {
                  "distance": 727,
                  "location": {
                        "address": "3455 Saint-Martin Blvd W",
                        "country": "CA",
                        "cross_street": "Boulevard Chomedey",
                        "formatted_address": "3455 Saint-Martin Blvd W (Boulevard Chomedey), Laval QC H7T 1A2",
                        "locality": "Laval",
                        "postcode": "H7T 1A2",
                        "region": "QC"
                  },
                  "name": "Beroya",
                  "popularity": 0.9472462733196465,
                  "price": 2,
                  "rating": 7.8
            },
            {
                  "distance": 213,
                  "location": {
                        "address": "1510 Chomedey Blvd",
                        "country": "CA",
                        "cross_street": "",
                        "formatted_address": "1510 Chomedey Blvd, Laval QC H7V 3N8",
                        "locality": "Laval",
                        "postcode": "H7V 3N8",
                        "region": "QC"
                  },
                  "name": "Restaurant Toyo Grillades a la Japonaise",
                  "popularity": 0.8994912077122199,
                  "price": 2,
                  "rating": 7.3
            },
            {
                  "distance": 716,
                  "location": {
                        "address": "3467 St-Martin Blvd O",
                        "country": "CA",
                        "cross_street": "Chomedey Blvd.",
                        "formatted_address": "3467 St-Martin Blvd O (Chomedey Blvd.), Laval QC H7T 1A2",
                        "locality": "Laval",
                        "postcode": "H7T 1A2",
                        "region": "QC"
                  },
                  "name": "Arouch",
                  "popularity": 0.9711684370257967,
                  "price": 1,
                  "rating": 7.3
            },
            {
                  "distance": 622,
                  "location": {
                        "address": "1565 Daniel-Johnson Blvd",
                        "country": "CA",
                        "cross_street": "",
                        "formatted_address": "1565 Daniel-Johnson Blvd, Laval QC H7V 4C2",
                        "locality": "Laval",
                        "postcode": "H7V 4C2",
                        "region": "QC"
                  },
                  "name": "Casa Grecque",
                  "popularity": 0.8711059537623851,
                  "price": 2,
                  "rating": 7.1
            },
            {
                  "distance": 677,
                  "location": {
                        "address": "3325 Saint-Martin Blvd O",
                        "country": "CA",
                        "cross_street": "",
                        "formatted_address": "3325 Saint-Martin Blvd O, Laval QC H7T 1S2",
                        "locality": "Laval",
                        "postcode": "H7T 1S2",
                        "region": "QC"
                  },
                  "name": "R\u00f4tisserie St-Hubert",
                  "popularity": 0.9357315004909399,
                  "price": 2,
                  "rating": 6.8,
                  "store_id": "100092"
            },
            {
                  "distance": 966,
                  "location": {
                        "address": "2981 Saint-Martin Blvd O",
                        "country": "CA",
                        "cross_street": "Centropolis",
                        "formatted_address": "2981 Saint-Martin Blvd O (Centropolis), Laval QC H7T 2Y8",
                        "locality": "Laval",
                        "postcode": "H7T 2Y8",
                        "region": "QC"
                  },
                  "name": "Restaurant l'Aromate",
                  "popularity": 0.9060073194679996,
                  "price": 3,
                  "rating": 6.8
            },
            {
                  "distance": 995,
                  "location": {
                        "address": "1345 Cure-Labelle Blvd",
                        "country": "CA",
                        "formatted_address": "1345 Cure-Labelle Blvd, Laval QC H7V 2V9",
                        "locality": "Laval",
                        "postcode": "H7V 2V9",
                        "region": "QC"
                  },
                  "name": "Dic Ann's",
                  "popularity": 0.9822369008301348,
                  "price": 1,
                  "rating": 6.6
            },
            {
                  "distance": 739,
                  "location": {
                        "address": "3453 Saint-Martin Blvd O",
                        "country": "CA",
                        "formatted_address": "3453 Saint-Martin Blvd O, Laval QC H7T 1A2",
                        "locality": "Laval",
                        "postcode": "H7T 1A2",
                        "region": "QC"
                  },
                  "name": "Cafe Univers",
                  "popularity": 0.9045791305900205,
                  "price": 3,
                  "rating": 6.5
            },
            {
                  "distance": 999,
                  "location": {
                        "address": "1365 Cure-Labelle Blvd",
                        "country": "CA",
                        "formatted_address": "1365 Cure-Labelle Blvd, Laval QC H7V 2V9",
                        "locality": "Laval",
                        "postcode": "H7V 2V9",
                        "region": "QC"
                  },
                  "name": "Saverio",
                  "popularity": 0.8812817995179862,
                  "price": 3,
                  "rating": 6.4
            },
            {
                  "distance": 622,
                  "location": {
                        "address": "3370 Saint-Martin Blvd O",
                        "country": "CA",
                        "cross_street": "",
                        "formatted_address": "3370 Saint-Martin Blvd O, Laval QC H7T 1A1",
                        "locality": "Laval",
                        "postcode": "H7T 1A1",
                        "region": "QC"
                  },
                  "name": "R\u00f4tisserie Scores",
                  "popularity": 0.9376059983932875,
                  "price": 2,
                  "rating": 6.0,
                  "store_id": "SC_09"
            },
            {
                  "distance": 490,
                  "location": {
                        "address": "1550 Daniel-Johnson Blvd",
                        "country": "CA",
                        "cross_street": "",
                        "formatted_address": "1550 Daniel-Johnson Blvd, Laval QC H7V 3V7",
                        "locality": "Laval",
                        "postcode": "H7V 3V7",
                        "region": "QC"
                  },
                  "name": "Poissonnerie Sami",
                  "popularity": 0.9257341783450861,
                  "price": 1
            },
            {
                  "distance": 553,
                  "location": {
                        "address": "3236 Saint-Martin Blvd O",
                        "country": "CA",
                        "cross_street": "",
                        "formatted_address": "3236 Saint-Martin Blvd O, Laval QC H7T 1A1",
                        "locality": "Laval",
                        "postcode": "H7T 1A1",
                        "region": "QC"
                  },
                  "name": "Kojax Souflaki",
                  "popularity": 0.9369811657591717,
                  "price": 2
            },
            {
                  "distance": 580,
                  "location": {
                        "address": "3352 Saint-Martin Blvd O",
                        "country": "CA",
                        "cross_street": "",
                        "formatted_address": "3352 Saint-Martin Blvd O, Laval QC H7T 1A1",
                        "locality": "Laval",
                        "postcode": "H7T 1A1",
                        "region": "QC"
                  },
                  "name": "Cafe Milano",
                  "popularity": 0.9870570382933143,
                  "price": 1
            },
            {
                  "distance": 694,
                  "location": {
                        "address": "3010 Saint-Martin Blvd O",
                        "country": "CA",
                        "cross_street": "",
                        "formatted_address": "3010 Saint-Martin Blvd O, Laval QC H7T 2J2",
                        "locality": "Laval",
                        "postcode": "H7T 2J2",
                        "region": "QC"
                  },
                  "name": "Ocakbasi Mardin Palace",
                  "popularity": 0.9707221280014282,
                  "price": 2
            },
            {
                  "distance": 802,
                  "location": {
                        "address": "3600 Saint-Martin Blvd O",
                        "country": "CA",
                        "cross_street": "",
                        "formatted_address": "3600 Saint-Martin Blvd O, Laval QC H7T 1A5",
                        "locality": "Laval",
                        "postcode": "H7T 1A5",
                        "region": "QC"
                  },
                  "name": "Restaurant Oeuffruits D\u00e9jeuner-D\u00eener Inc",
                  "popularity": 0.9517093635633312,
                  "price": 1
            },
            {
                  "distance": 871,
                  "location": {
                        "address": "800 Chomedey Blvd",
                        "country": "CA",
                        "cross_street": "",
                        "formatted_address": "800 Chomedey Blvd, Laval QC H7V 3Y4",
                        "locality": "Laval",
                        "postcode": "H7V 3Y4",
                        "region": "QC"
                  },
                  "name": "Restaurant Akll\u00e9",
                  "popularity": 0.1978934214049808
            },
            {
                  "distance": 932,
                  "location": {
                        "address": "1205 Cure-Labelle Blvd",
                        "country": "CA",
                        "cross_street": "Rue L\u00e9pine",
                        "formatted_address": "1205 Cure-Labelle Blvd (Rue L\u00e9pine), Laval QC H7V 2V8",
                        "locality": "Laval",
                        "postcode": "H7V 2V8",
                        "region": "QC"
                  },
                  "name": "Allons Burger",
                  "popularity": 0.9765241453182183,
                  "price": 1
            },
            {
                  "distance": 953,
                  "location": {
                        "address": "1253 Cure-Labelle Blvd",
                        "country": "CA",
                        "cross_street": "",
                        "formatted_address": "1253 Cure-Labelle Blvd, Laval QC H7V 2V9",
                        "locality": "Laval",
                        "postcode": "H7V 2V9",
                        "region": "QC"
                  },
                  "name": "Centrale Bergham",
                  "popularity": 0.8768187092743015,
                  "price": 1
            },
            {
                  "distance": 962,
                  "location": {
                        "address": "2981 Saint-Martin Blvd O",
                        "country": "CA",
                        "cross_street": "",
                        "formatted_address": "2981 Saint-Martin Blvd O, Laval QC H7T 2Y8",
                        "locality": "Laval",
                        "postcode": "H7T 2Y8",
                        "region": "QC"
                  },
                  "name": "Restaurant Bistro l'Aromate",
                  "popularity": 0.5065607426582166,
                  "price": 2
            },
            {
                  "distance": 998,
                  "location": {
                        "address": "1769 Pierre-Peladeau Ave",
                        "country": "CA",
                        "cross_street": "",
                        "formatted_address": "1769 Pierre-Peladeau Ave, Laval QC H7T 2Y5",
                        "locality": "Laval",
                        "postcode": "H7T 2Y5",
                        "region": "QC"
                  },
                  "name": "Sharx",
                  "popularity": 0.5768097830938141,
                  "price": 2
            },
            {
                  "distance": 400,
                  "location": {
                        "address": "3577A du Souvenir Ch",
                        "country": "CA",
                        "formatted_address": "3577A du Souvenir Ch, Laval QC H7V 1X4",
                        "locality": "Laval",
                        "postcode": "H7V 1X4",
                        "region": "QC"
                  },
                  "name": "Patisserie Suze"
            },
            {
                  "distance": 446,
                  "location": {
                        "address": "1446 Daniel Johnson Blvd",
                        "country": "CA",
                        "formatted_address": "1446 Daniel Johnson Blvd, Laval QC H7V 4B5",
                        "locality": "Laval",
                        "postcode": "H7V 4B5",
                        "region": "QC"
                  },
                  "name": "Boulangerie Al Touras"
            },
            {
                  "distance": 530,
                  "location": {
                        "address": "1550 Daniel-Johnson Blvd",
                        "country": "CA",
                        "formatted_address": "1550 Daniel-Johnson Blvd, Laval QC H7V 3V7",
                        "locality": "Laval",
                        "postcode": "H7V 3V7",
                        "region": "QC"
                  },
                  "name": "ChoNeslya Bar Restaurant"
            },
            {
                  "distance": 555,
                  "location": {
                        "address": "3240 Saint-Martin Blvd O",
                        "country": "CA",
                        "formatted_address": "3240 Saint-Martin Blvd O, Laval QC H7T 1A1",
                        "locality": "Laval",
                        "postcode": "H7T 1A1",
                        "region": "QC"
                  },
                  "name": "Grand Burger Blvd"
            },
            {
                  "distance": 557,
                  "location": {
                        "address": "1625A Daniel Johnson Blvd",
                        "country": "CA",
                        "formatted_address": "1625A Daniel Johnson Blvd, Laval QC H7V 4C2",
                        "locality": "Laval",
                        "postcode": "H7V 4C2",
                        "region": "QC"
                  },
                  "name": "Tutti Frutti"
            },
            {
                  "distance": 576,
                  "location": {
                        "address": "3278 Saint-Martin Blvd O",
                        "country": "CA",
                        "formatted_address": "3278 Saint-Martin Blvd O, Laval QC H7T 1A1",
                        "locality": "Laval",
                        "postcode": "H7T 1A1",
                        "region": "QC"
                  },
                  "name": "Casse Cro\u00fbte Wilou Express"
            },
            {
                  "distance": 862,
                  "location": {
                        "address": "800 Chomedey Blvd",
                        "country": "CA",
                        "formatted_address": "800 Chomedey Blvd, Laval QC H7V 3Y4",
                        "locality": "Laval",
                        "postcode": "H7V 3Y4",
                        "region": "QC"
                  },
                  "name": "Boulangerie Restaurant Cantor"
            },
            {
                  "distance": 901,
                  "location": {
                        "address": "3840 Lepine Rue",
                        "country": "CA",
                        "formatted_address": "3840 Lepine Rue, Laval QC H7V 3S5",
                        "locality": "Laval",
                        "postcode": "H7V 3S5",
                        "region": "QC"
                  },
                  "name": "Poissonnerie El-Marino Laval"
            },
            {
                  "distance": 914,
                  "location": {
                        "address": "1033 Aut",
                        "country": "CA",
                        "formatted_address": "1033 Aut, Chomedey QC",
                        "locality": "Chomedey",
                        "region": "QC"
                  },
                  "name": "Les Caprices d'Al Adhba Inc"
            },
            {
                  "distance": 914,
                  "location": {
                        "address": "Cp 52031 Csp Fabreville",
                        "country": "CA",
                        "formatted_address": "Cp 52031 Csp Fabreville, Laval QC H7P 5S1",
                        "locality": "Laval",
                        "postcode": "H7P 5S1",
                        "region": "QC"
                  },
                  "name": "Groupe Fusion"
            },
            {
                  "distance": 958,
                  "location": {
                        "address": "2981 Saint-Martin Blvd O",
                        "country": "CA",
                        "formatted_address": "2981 Saint-Martin Blvd O, Laval QC H7T 2Y8",
                        "locality": "Laval",
                        "postcode": "H7T 2Y8",
                        "region": "QC"
                  },
                  "name": "L'Aromate Resto-Bar"
            },
            {
                  "distance": 962,
                  "location": {
                        "address": "1357 Cure-Labelle Blvd",
                        "country": "CA",
                        "formatted_address": "1357 Cure-Labelle Blvd, Laval QC H7V 2V9",
                        "locality": "Laval",
                        "postcode": "H7V 2V9",
                        "region": "QC"
                  },
                  "name": "Arahova Souvlaki"
            },
            {
                  "distance": 970,
                  "location": {
                        "address": "2981 Saint-Martin Blvd O",
                        "country": "CA",
                        "formatted_address": "2981 Saint-Martin Blvd O, Laval QC H7T 2Y8",
                        "locality": "Laval",
                        "postcode": "H7T 2Y8",
                        "region": "QC"
                  },
                  "name": "Restaurant Bistro l'Aromate"
            },
            {
                  "distance": 972,
                  "location": {
                        "address": "2981 Saint-Martin Blvd O",
                        "country": "CA",
                        "formatted_address": "2981 Saint-Martin Blvd O, Laval QC H7T 2Y8",
                        "locality": "Laval",
                        "postcode": "H7T 2Y8",
                        "region": "QC"
                  },
                  "name": "Louis & Jacob"
            },
            {
                  "distance": 977,
                  "location": {
                        "address": "2800 Saint-Martin Blvd O",
                        "country": "CA",
                        "formatted_address": "2800 Saint-Martin Blvd O, Laval QC H7T 2S9",
                        "locality": "Laval",
                        "postcode": "H7T 2S9",
                        "region": "QC"
                  },
                  "name": "Casse-Cro\u00fbte du Palais"
            }
      ],
      "context": {
            "geo_bounds": {
                  "circle": {
                        "center": {
                              "latitude": 45.55188644,
                              "longitude": -73.74444008
                        },
                        "radius": 1000
                  }
            }
      }
}