{
      "results": [
            {
                  "distance": 933,
                  "location": {
                        "address": "3180 Fleury Rue E",
                        "country": "CA",
                        "cross_street": "at boul Saint-Michel",
                        "formatted_address": "3180 Fleury Rue E (at boul Saint-Michel), Montr\u00e9al QC H1H 2R3",
                        "locality": "Montreal",
                        "postcode": "H1H 2R3",
                        "region": "QC"
                  },
                  "name": "Chez Ma Tante",
                  "popularity": 0.9907976911430735,
                  "price": 1,
                  "rating": 6.8
            },
            {
                  "distance": 810,
                  "location": {
                        "address": "3250 Henri-Bourassa Blvd E",
                        "address_extended": "Magasins Couche Tard C-Store",
                        "country": "CA",
                        "cross_street": "",
                        "formatted_address": "3250 Henri-Bourassa Blvd E, Montreal-Nord QC H1H 1H4",
                        "locality": "Montr\u00e9al-Nord",
                        "postcode": "H1H 1H4",
                        "region": "QC"
                  },
                  "name": "Subway",
                  "popularity": 0.8871238644965935,
                  "price": 1,
                  "rating": 6.4,
                  "store_id": "29728"
            },
            {
                  "distance": 561,
                  "location": {
                        "address": "10897 rue du Pont",
                        "country": "CA",
                        "cross_street": "",
                        "formatted_address": "10897 rue du Pont, Montr\u00e9al QC H2B 2H3",
                        "locality": "Montreal",
                        "postcode": "H2B 2H3",
                        "region": "QC"
                  },
                  "name": "Bistro des Moulins",
                  "popularity": 0.8467661809235427,
                  "price": 1,
                  "rating": 6.2
            },
            {
                  "distance": 412,
                  "location": {
                        "address": "2145 Gouin Blvd E",
                        "country": "CA",
                        "cross_street": "",
                        "formatted_address": "2145 Gouin Blvd E, Montr\u00e9al QC H2B 1X1",
                        "locality": "Montreal",
                        "postcode": "H2B 1X1",
                        "region": "QC"
                  },
                  "name": "Le Pressoir du Sault",
                  "popularity": 0.12643120741862227,
                  "price": 1
            },
            {
                  "distance": 467,
                  "location": {
                        "address": "2103 Gouin Blvd E",
                        "country": "CA",
                        "cross_street": "",
                        "formatted_address": "2103 Gouin Blvd E, Montr\u00e9al QC H2B 1X1",
                        "locality": "Montreal",
                        "postcode": "H2B 1X1",
                        "region": "QC"
                  },
                  "name": "Racer Caf\u00e9",
                  "popularity": 0.9679693414080243,
                  "price": 1
            },
            {
                  "distance": 717,
                  "location": {
                        "address": "2481 Fleury Rue E",
                        "country": "CA",
                        "cross_street": "Iberville",
                        "formatted_address": "2481 Fleury Rue E (Iberville), Montr\u00e9al QC H2B 1L4",
                        "locality": "Montreal",
                        "postcode": "H2B 1L4",
                        "region": "QC"
                  },
                  "name": "Gourmet d'Asie",
                  "popularity": 0.8302067562452687,
                  "price": 2
            },
            {
                  "distance": 732,
                  "location": {
                        "address": "2343 Fleury Rue E",
                        "country": "CA",
                        "cross_street": "",
                        "formatted_address": "2343 Fleury Rue E, Montreal QC H2B 1K8",
                        "locality": "Montreal",
                        "postcode": "H2B 1K8",
                        "region": "QC"
                  },
                  "name": "Sushi Fleury",
                  "popularity": 0.27330147615442846,
                  "price": 2
            },
            {
                  "distance": 742,
                  "location": {
                        "address": "2237 Fleury Rue E",
                        "country": "CA",
                        "cross_street": "Rue de Martigny",
                        "formatted_address": "2237 Fleury Rue E (Rue de Martigny), Montr\u00e9al QC H2B 1K5",
                        "locality": "Montreal",
                        "postcode": "H2B 1K5",
                        "region": "QC"
                  },
                  "name": "Le Jardin des Puits",
                  "popularity": 0.8476414647993944,
                  "price": 2
            },
            {
                  "distance": 747,
                  "location": {
                        "address": "2595 Fleury Rue E",
                        "country": "CA",
                        "cross_street": "Sackville",
                        "formatted_address": "2595 Fleury Rue E (Sackville), Montr\u00e9al QC H2B 1L7",
                        "locality": "Montreal",
                        "postcode": "H2B 1L7",
                        "region": "QC"
                  },
                  "name": "Domino's Pizza",
                  "popularity": 0.9432130015140046,
                  "price": 1,
                  "store_id": "10699"
            },
            {
                  "distance": 785,
                  "location": {
                        "address": "6491 Beaubien Rue E",
                        "country": "CA",
                        "cross_street": "",
                        "formatted_address": "6491 Beaubien Rue E, Montr\u00e9al QC H1M 1B1",
                        "locality": "Montreal",
                        "postcode": "H1M 1B1",
                        "region": "QC"
                  },
                  "name": "Le Nouveau Paragon",
                  "popularity": 0.3875023656320969,
                  "price": 2
            },
            {
                  "distance": 786,
                  "location": {
                        "address": "2201 Fleury Rue E",
                        "country": "CA",
                        "cross_street": "",
                        "formatted_address": "2201 Fleury Rue E, Montr\u00e9al QC H2B 1K5",
                        "locality": "Montreal",
                        "postcode": "H2B 1K5",
                        "region": "QC"
                  },
                  "name": "Les Deux Copains",
                  "popularity": 0.9913654428463285,
                  "price": 1
            },
            {
                  "distance": 815,
                  "location": {
                        "address": "1905 Henri-Bourassa Blvd E",
                        "country": "CA",
                        "cross_street": "",
                        "formatted_address": "1905 Henri-Bourassa Blvd E, Montr\u00e9al QC H2B 1R9",
                        "locality": "Montreal",
                        "postcode": "H2B 1R9",
                        "region": "QC"
                  },
                  "name": "Atlass",
                  "popularity": 0.9204674489023467,
                  "price": 2
            },
            {
                  "distance": 893,
                  "location": {
                        "address": "2070A Fleury Rue E",
                        "country": "CA",
                        "cross_street": "",
                        "formatted_address": "2070A Fleury Rue E, Montr\u00e9al QC H2B 1J3",
                        "locality": "Montreal",
                        "postcode": "H2B 1J3",
                        "region": "QC"
                  },
                  "name": "Bar Brewskis",
                  "popularity": 0.8230980317940954,
                  "price": 1
            },
            {
                  "distance": 916,
                  "location": {
                        "address": "2070 Fleury E",
                        "country": "CA",
                        "cross_street": "",
                        "formatted_address": "2070 Fleury E, Montr\u00e9al QC",
                        "locality": "Montreal",
                        "region": "QC"
                  },
                  "name": "Bar Laitier",
                  "popularity": 0.02467354277062831,
                  "price": 1
            },
            {
                  "distance": 922,
                  "location": {
                        "address": "2050 Fleury Rue E",
                        "country": "CA",
                        "cross_street": "",
                        "formatted_address": "2050 Fleury Rue E, Montr\u00e9al QC H2B 1J3",
                        "locality": "Montreal",
                        "postcode": "H2B 1J3",
                        "region": "QC"
                  },
                  "name": "Restaurant la Piccola",
                  "popularity": 0.9443485049205148,
                  "price": 2
            },
            {
                  "distance": 981,
                  "location": {
                        "address": "Desserte Sud Aut 440 Ouest",
                        "country": "CA",
                        "cross_street": "le Carrefour",
                        "formatted_address": "Desserte Sud Aut 440 Ouest (le Carrefour), Laval QC H7T 2H6",
                        "locality": "Laval",
                        "postcode": "H7T 2H6",
                        "region": "QC"
                  },
                  "name": "Broadway Cheesecake Co",
                  "popularity": 0.45649602573807724,
                  "price": 1
            },
            {
                  "distance": 196,
                  "location": {
                        "address": "2545 Henri-Bourassa Blvd E",
                        "country": "CA",
                        "formatted_address": "2545 Henri-Bourassa Blvd E, Montreal QC H2B 1V3",
                        "locality": "Montreal",
                        "postcode": "H2B 1V3",
                        "region": "QC"
                  },
                  "name": "Saveur Madou"
            },
            {
                  "distance": 226,
                  "location": {
                        "address": "2575 Henri-Bourassa Blvd E",
                        "country": "CA",
                        "formatted_address": "2575 Henri-Bourassa Blvd E, Montreal QC H2B 1V4",
                        "locality": "Montreal",
                        "postcode": "H2B 1V4",
                        "region": "QC"
                  },
                  "name": "C Carvelis"
            },
            {
                  "distance": 440,
                  "location": {
                        "address": "2827 Henri-Bourassa Blvd E",
                        "country": "CA",
                        "formatted_address": "2827 Henri-Bourassa Blvd E, Montreal QC H2B 1V9",
                        "locality": "Montreal",
                        "postcode": "H2B 1V9",
                        "region": "QC"
                  },
                  "name": "Cafe Versace"
            },
            {
                  "distance": 461,
                  "location": {
                        "address": "10580 Vianney Ave",
                        "country": "CA",
                        "formatted_address": "10580 Vianney Ave, Montreal QC H2B 2X9",
                        "locality": "Montreal",
                        "postcode": "H2B 2X9",
                        "region": "QC"
                  },
                  "name": "Yuukai"
            },
            {
                  "distance": 704,
                  "location": {
                        "address": "2476 Fleury Rue E",
                        "country": "CA",
                        "formatted_address": "2476 Fleury Rue E, Montreal QC H2B 1L3",
                        "locality": "Montreal",
                        "postcode": "H2B 1L3",
                        "region": "QC"
                  },
                  "name": "Pizza Resto Charito"
            },
            {
                  "distance": 743,
                  "location": {
                        "address": "2440 Fleury Rue E",
                        "country": "CA",
                        "formatted_address": "2440 Fleury Rue E, Montreal QC H2B 1L3",
                        "locality": "Montreal",
                        "postcode": "H2B 1L3",
                        "region": "QC"
                  },
                  "name": "Bar Rosso Nero"
            },
            {
                  "distance": 775,
                  "location": {
                        "address": "2260 Fleury Rue E",
                        "country": "CA",
                        "formatted_address": "2260 Fleury Rue E, Montreal QC H2B 1K6",
                        "locality": "Montreal",
                        "postcode": "H2B 1K6",
                        "region": "QC"
                  },
                  "name": "Resto Bistro l'Antidote"
            },
            {
                  "distance": 777,
                  "location": {
                        "address": "2260 Fleury Rue E",
                        "country": "CA",
                        "formatted_address": "2260 Fleury Rue E, Montreal QC H2B 1K6",
                        "locality": "Montreal",
                        "postcode": "H2B 1K6",
                        "region": "QC"
                  },
                  "name": "Resto-Pizzeria DZ Taouk"
            },
            {
                  "distance": 795,
                  "location": {
                        "address": "3251 Henri-Bourassa Blvd E",
                        "country": "CA",
                        "formatted_address": "3251 Henri-Bourassa Blvd E, Montreal-Nord QC H1H 1H3",
                        "locality": "Montreal-Nord",
                        "postcode": "H1H 1H3",
                        "region": "QC"
                  },
                  "name": "Nouveau Paragon II"
            },
            {
                  "distance": 799,
                  "location": {
                        "address": "2179 Fleury Rue E",
                        "country": "CA",
                        "formatted_address": "2179 Fleury Rue E, Montreal QC H2B 1J9",
                        "locality": "Montreal",
                        "postcode": "H2B 1J9",
                        "region": "QC"
                  },
                  "name": "Resto-Bar Gelbison"
            },
            {
                  "distance": 808,
                  "location": {
                        "address": "1905 Henri-Bourassa Blvd E",
                        "country": "CA",
                        "formatted_address": "1905 Henri-Bourassa Blvd E, Montreal QC H2B 1R9",
                        "locality": "Montreal",
                        "postcode": "H2B 1R9",
                        "region": "QC"
                  },
                  "name": "Boucherie et Grillades Atlas"
            },
            {
                  "distance": 821,
                  "location": {
                        "address": "2151 Fleury Rue E",
                        "country": "CA",
                        "formatted_address": "2151 Fleury Rue E, Montreal QC H2B 1J9",
                        "locality": "Montreal",
                        "postcode": "H2B 1J9",
                        "region": "QC"
                  },
                  "name": "Pasta Pizza"
            },
            {
                  "distance": 858,
                  "location": {
                        "address": "2895 Fleury Rue E",
                        "country": "CA",
                        "formatted_address": "2895 Fleury Rue E, Montreal QC H2B 1M1",
                        "locality": "Montreal",
                        "postcode": "H2B 1M1",
                        "region": "QC"
                  },
                  "name": "Trattoria Ii Ritrovo"
            },
            {
                  "distance": 858,
                  "location": {
                        "address": "2895 Fleury Rue E",
                        "country": "CA",
                        "formatted_address": "2895 Fleury Rue E, Montreal QC H2B 1M1",
                        "locality": "Montreal",
                        "postcode": "H2B 1M1",
                        "region": "QC"
                  },
                  "name": "Romcaffe Trattoria Gt"
            },
            {
                  "distance": 875,
                  "location": {
                        "address": "2905 Fleury Rue E",
                        "country": "CA",
                        "formatted_address": "2905 Fleury Rue E, Montreal QC H2B 1M3",
                        "locality": "Montreal",
                        "postcode": "H2B 1M3",
                        "region": "QC"
                  },
                  "name": "Maison du Cafe Terrasse Royal"
            },
            {
                  "distance": 899,
                  "location": {
                        "address": "3155 Fleury Rue E",
                        "country": "CA",
                        "formatted_address": "3155 Fleury Rue E, Montreal-Nord QC H1H 2R2",
                        "locality": "Montreal-Nord",
                        "postcode": "H1H 2R2",
                        "region": "QC"
                  },
                  "name": "Manguier de Montreal"
            },
            {
                  "distance": 910,
                  "location": {
                        "address": "10380 Saint-Michel Blvd",
                        "country": "CA",
                        "formatted_address": "10380 Saint-Michel Blvd, Montreal-Nord QC H1H 5H3",
                        "locality": "Montreal-Nord",
                        "postcode": "H1H 5H3",
                        "region": "QC"
                  },
                  "name": "Restorant Costa Berde Inc"
            },
            {
                  "distance": 931,
                  "location": {
                        "address": "3155 Fleury Rue E",
                        "country": "CA",
                        "formatted_address": "3155 Fleury Rue E, Montreal-Nord QC H1H 2R2",
                        "locality": "Montreal-Nord",
                        "postcode": "H1H 2R2",
                        "region": "QC"
                  },
                  "name": "L'oudaya Cafe Restaurant"
            },
            {
                  "distance": 934,
                  "location": {
                        "address": "3163 Fleury Rue E",
                        "country": "CA",
                        "formatted_address": "3163 Fleury Rue E, Montreal-Nord QC H1H 2R2",
                        "locality": "Montreal-Nord",
                        "postcode": "H1H 2R2",
                        "region": "QC"
                  },
                  "name": "Brasserie Chomar Lt\u00e9e"
            }
      ],
      "context": {
            "geo_bounds": {
                  "circle": {
                        "center": {
                              "latitude": 45.57833185,
                              "longitude": -73.655954
                        },
                        "radius": 1000
                  }
            }
      }
}