{
      "results": [
            {
                  "distance": 737,
                  "location": {
                        "address": "3632 Ontario Rue E",
                        "address_extended": "coin De Chambly",
                        "country": "CA",
                        "cross_street": "coin De Chambly",
                        "formatted_address": "3632 Ontario Rue E (coin De Chambly), Montr\u00e9al QC H1W 1R7",
                        "locality": "Montreal",
                        "postcode": "H1W 1R7",
                        "region": "QC"
                  },
                  "name": "L'Espace Public-Brasseurs de Quartier",
                  "popularity": 0.9611799772899319,
                  "price": 2,
                  "rating": 8.8
            },
            {
                  "distance": 712,
                  "location": {
                        "address": "3606 Ontario Rue E",
                        "country": "CA",
                        "cross_street": "entre Joliette & De Chambly",
                        "formatted_address": "3606 Ontario Rue E (entre Joliette & De Chambly), Montr\u00e9al QC H1W 1R7",
                        "locality": "Montreal",
                        "postcode": "H1W 1R7",
                        "region": "QC"
                  },
                  "name": "Atomic Cafe",
                  "popularity": 0.9511733535200606,
                  "price": 1,
                  "rating": 8.5
            },
            {
                  "distance": 912,
                  "location": {
                        "address": "25 Simon Valois Pl",
                        "country": "CA",
                        "cross_street": "coin Ontario",
                        "formatted_address": "25 Simon Valois Pl (coin Ontario), Montr\u00e9al QC H1W 0A6",
                        "locality": "Montreal",
                        "postcode": "H1W 0A6",
                        "region": "QC"
                  },
                  "name": "Le Valois",
                  "popularity": 0.8502436601059803,
                  "price": 2,
                  "rating": 7.4
            },
            {
                  "distance": 986,
                  "location": {
                        "address": "3882 Ontario Rue E",
                        "country": "CA",
                        "cross_street": "",
                        "formatted_address": "3882 Ontario Rue E, Montr\u00e9al QC H1W 1S6",
                        "locality": "Montreal",
                        "postcode": "H1W 1S6",
                        "region": "QC"
                  },
                  "name": "Le Blind Pig",
                  "popularity": 0.9555379447388342,
                  "price": 1,
                  "rating": 7.3
            },
            {
                  "distance": 971,
                  "location": {
                        "address": "3860 Ontario Rue E",
                        "country": "CA",
                        "cross_street": "Bourbonni\u00e8re",
                        "formatted_address": "3860 Ontario Rue E (Bourbonni\u00e8re), Montr\u00e9al QC H1W 1S4",
                        "locality": "Montreal",
                        "postcode": "H1W 1S4",
                        "region": "QC"
                  },
                  "name": "Restaurant la Pataterie Inc",
                  "popularity": 0.9558573050719152,
                  "price": 1,
                  "rating": 7.3
            },
            {
                  "distance": 646,
                  "location": {
                        "address": "3501 Ontario Rue E",
                        "country": "CA",
                        "cross_street": "Aylwin",
                        "formatted_address": "3501 Ontario Rue E (Aylwin), Montr\u00e9al QC H1W 1R4",
                        "locality": "Montreal",
                        "postcode": "H1W 1R4",
                        "region": "QC"
                  },
                  "name": "Subway",
                  "popularity": 0.927008421650265,
                  "price": 1,
                  "rating": 6.2,
                  "store_id": "14811"
            },
            {
                  "distance": 972,
                  "location": {
                        "address": "2700 Ontario Rue E",
                        "country": "CA",
                        "cross_street": "Bercy",
                        "formatted_address": "2700 Ontario Rue E (Bercy), Montr\u00e9al QC H2K 1W9",
                        "locality": "Montreal",
                        "postcode": "H2K 1W9",
                        "region": "QC"
                  },
                  "name": "Tim Hortons",
                  "popularity": 0.967791919000757,
                  "price": 1,
                  "rating": 5.6
            },
            {
                  "distance": 723,
                  "location": {
                        "address": "3634 Ontario Rue E",
                        "country": "CA",
                        "cross_street": "coin Chambly",
                        "formatted_address": "3634 Ontario Rue E (coin Chambly), Montr\u00e9al QC H1W 1R7",
                        "locality": "Montreal",
                        "postcode": "H1W 1R7",
                        "region": "QC"
                  },
                  "name": "Tim Hortons",
                  "popularity": 0.958873485995458,
                  "price": 1,
                  "rating": 5.4
            },
            {
                  "distance": 496,
                  "location": {
                        "address": "3637 Sainte-Catherine Rue E",
                        "country": "CA",
                        "cross_street": "",
                        "formatted_address": "3637 Sainte-Catherine Rue E, Montr\u00e9al QC H1W 2E6",
                        "locality": "Montreal",
                        "postcode": "H1W 2E6",
                        "region": "QC"
                  },
                  "name": "Caf\u00e9 \u00c9lice",
                  "popularity": 0.944549583648751,
                  "price": 1
            },
            {
                  "distance": 526,
                  "location": {
                        "address": "3485 Ontario Rue E",
                        "country": "CA",
                        "cross_street": "",
                        "formatted_address": "3485 Ontario Rue E, Montr\u00e9al QC H1W 1R4",
                        "locality": "Montreal",
                        "postcode": "H1W 1R4",
                        "region": "QC"
                  },
                  "name": "La Canoise",
                  "popularity": 0.43404617713853144,
                  "price": 1
            },
            {
                  "distance": 536,
                  "location": {
                        "address": "3179 Ontario Rue E",
                        "country": "CA",
                        "cross_street": "D\u00e9zery",
                        "formatted_address": "3179 Ontario Rue E (D\u00e9zery), Montr\u00e9al QC H1W 1P1",
                        "locality": "Montreal",
                        "postcode": "H1W 1P1",
                        "region": "QC"
                  },
                  "name": "Chez Sandrine",
                  "popularity": 0.6639856169568509,
                  "price": 1
            },
            {
                  "distance": 537,
                  "location": {
                        "address": "3328 Ontario Rue E",
                        "country": "CA",
                        "cross_street": "",
                        "formatted_address": "3328 Ontario Rue E, Montr\u00e9al QC H1W 1P7",
                        "locality": "Montreal",
                        "postcode": "H1W 1P7",
                        "region": "QC"
                  },
                  "name": "Blockhaus",
                  "popularity": 0.9533142505677517,
                  "price": 3
            },
            {
                  "distance": 541,
                  "location": {
                        "address": "3227 Ontario Rue E",
                        "country": "CA",
                        "cross_street": "",
                        "formatted_address": "3227 Ontario Rue E, Montr\u00e9al QC H1W 1P3",
                        "locality": "Montreal",
                        "postcode": "H1W 1P3",
                        "region": "QC"
                  },
                  "name": "3 Patapoufs",
                  "popularity": 0.961132664647994
            },
            {
                  "distance": 542,
                  "location": {
                        "address": "3213 Ontario Rue E",
                        "country": "CA",
                        "cross_street": "D\u00e9z\u00e9ry",
                        "formatted_address": "3213 Ontario Rue E (D\u00e9z\u00e9ry), Montr\u00e9al QC H1W 1P3",
                        "locality": "Montreal",
                        "postcode": "H1W 1P3",
                        "region": "QC"
                  },
                  "name": "Le Rond-Point",
                  "popularity": 0.9561766654049962,
                  "price": 1
            },
            {
                  "distance": 542,
                  "location": {
                        "address": "3213 Ontario Rue E",
                        "country": "CA",
                        "cross_street": "",
                        "formatted_address": "3213 Ontario Rue E, Montr\u00e9al QC H1W 1P3",
                        "locality": "Montreal",
                        "postcode": "H1W 1P3",
                        "region": "QC"
                  },
                  "name": "Coop\u00e9rative Rond-Point, caf\u00e9 autog\u00e9r\u00e9",
                  "popularity": 0.7255275359576079,
                  "price": 1
            },
            {
                  "distance": 545,
                  "location": {
                        "address": "3350 Ontario Rue E",
                        "country": "CA",
                        "cross_street": "Davidson",
                        "formatted_address": "3350 Ontario Rue E (Davidson), Montr\u00e9al QC H1W 1P7",
                        "locality": "Montreal",
                        "postcode": "H1W 1P7",
                        "region": "QC"
                  },
                  "name": "El Jumelgi",
                  "popularity": 0.6334216502649508
            },
            {
                  "distance": 569,
                  "location": {
                        "address": "3353 Ontario Rue E",
                        "country": "CA",
                        "cross_street": "",
                        "formatted_address": "3353 Ontario Rue E, Montr\u00e9al QC H1W 1P8",
                        "locality": "Montreal",
                        "postcode": "H1W 1P8",
                        "region": "QC"
                  },
                  "name": "Bistro 360",
                  "popularity": 0.1549134178652536,
                  "price": 1
            },
            {
                  "distance": 589,
                  "location": {
                        "address": "3417 Ontario Rue E",
                        "country": "CA",
                        "cross_street": "",
                        "formatted_address": "3417 Ontario Rue E, Montr\u00e9al QC H1W 1R1",
                        "locality": "Montreal",
                        "postcode": "H1W 1R1",
                        "region": "QC"
                  },
                  "name": "Boustan",
                  "popularity": 0.9085683194549584,
                  "price": 2
            },
            {
                  "distance": 598,
                  "location": {
                        "address": "3445 Ontario Rue E",
                        "country": "CA",
                        "formatted_address": "3445 Ontario Rue E, Montr\u00e9al QC H1W 1R1",
                        "locality": "Montreal",
                        "postcode": "H1W 1R1",
                        "region": "QC"
                  },
                  "name": "Pizza Piroz",
                  "popularity": 0.9594530658591975,
                  "price": 1
            },
            {
                  "distance": 702,
                  "location": {
                        "address": "3785 Sainte-Catherine Rue E",
                        "country": "CA",
                        "cross_street": "",
                        "formatted_address": "3785 Sainte-Catherine Rue E, Montr\u00e9al QC H1W 2E9",
                        "locality": "Montreal",
                        "postcode": "H1W 2E9",
                        "region": "QC"
                  },
                  "name": "Bar Chez Francoise",
                  "popularity": 0.24913654428463286,
                  "price": 2
            },
            {
                  "distance": 763,
                  "location": {
                        "address": "3668 Ontario Rue E",
                        "country": "CA",
                        "cross_street": "",
                        "formatted_address": "3668 Ontario Rue E, Montr\u00e9al QC H1W 1R9",
                        "locality": "Montreal",
                        "postcode": "H1W 1R9",
                        "region": "QC"
                  },
                  "name": "Sabor Del Sur",
                  "popularity": 0.8754494700984103,
                  "price": 1
            },
            {
                  "distance": 837,
                  "location": {
                        "address": "3739 Ontario Rue E",
                        "country": "CA",
                        "cross_street": "Nicolet",
                        "formatted_address": "3739 Ontario Rue E (Nicolet), Montr\u00e9al QC H1W 1S3",
                        "locality": "Montreal",
                        "postcode": "H1W 1S3",
                        "region": "QC"
                  },
                  "name": "Resto-Bar le Pick Up",
                  "popularity": 0.9295987887963664,
                  "price": 2
            },
            {
                  "distance": 917,
                  "location": {
                        "address": "5 Simon Valois Pl",
                        "country": "CA",
                        "cross_street": "Ontario",
                        "formatted_address": "5 Simon Valois Pl (Ontario), Montr\u00e9al QC H1W 0A6",
                        "locality": "Montreal",
                        "postcode": "H1W 0A6",
                        "region": "QC"
                  },
                  "name": "Bar Laitier",
                  "popularity": 0.4559637585162756,
                  "price": 1
            },
            {
                  "distance": 942,
                  "location": {
                        "address": "1717 rue du Havre",
                        "country": "CA",
                        "cross_street": "",
                        "formatted_address": "1717 rue du Havre, Montr\u00e9al QC H2K 2X3",
                        "locality": "Montreal",
                        "postcode": "H2K 2X3",
                        "region": "QC"
                  },
                  "name": "Gaz M\u00e9tro - Caf\u00e9teria",
                  "popularity": 0.3455951930355791
            },
            {
                  "distance": 984,
                  "location": {
                        "address": "2683 Ontario Rue E",
                        "country": "CA",
                        "cross_street": "",
                        "formatted_address": "2683 Ontario Rue E, Montr\u00e9al QC H2K 1X1",
                        "locality": "Montreal",
                        "postcode": "H2K 1X1",
                        "region": "QC"
                  },
                  "name": "Bar Sexe Mania",
                  "popularity": 0.9735995457986374,
                  "price": 3
            },
            {
                  "distance": 1003,
                  "location": {
                        "address": "3905 Ontario Rue E",
                        "country": "CA",
                        "cross_street": "",
                        "formatted_address": "3905 Ontario Rue E, Montr\u00e9al QC H1W 1S7",
                        "locality": "Montreal",
                        "postcode": "H1W 1S7",
                        "region": "QC"
                  },
                  "name": "Pizza Fugazzi",
                  "popularity": 0.8975563020439061,
                  "price": 1
            },
            {
                  "distance": 548,
                  "location": {
                        "address": "3213 Ontario Rue E",
                        "country": "CA",
                        "formatted_address": "3213 Ontario Rue E, Montreal QC H1W 1P3",
                        "locality": "Montreal",
                        "postcode": "H1W 1P3",
                        "region": "QC"
                  },
                  "name": "Rond-Point, caf\u00e9 autog\u00e9r\u00e9"
            },
            {
                  "distance": 697,
                  "location": {
                        "address": "3800 Notre-Dame Rue E",
                        "country": "CA",
                        "formatted_address": "3800 Notre-Dame Rue E, Montreal QC H1W 2J8",
                        "locality": "Montreal",
                        "postcode": "H1W 2J8",
                        "region": "QC"
                  },
                  "name": "ADM Milling"
            },
            {
                  "distance": 715,
                  "location": {
                        "address": "3599 Ontario Rue E",
                        "country": "CA",
                        "formatted_address": "3599 Ontario Rue E, Montreal QC H1W 1R8",
                        "locality": "Montreal",
                        "postcode": "H1W 1R8",
                        "region": "QC"
                  },
                  "name": "Restaurant Chez les Amis"
            },
            {
                  "distance": 764,
                  "location": {
                        "address": "2150 Moreau Rue",
                        "country": "CA",
                        "formatted_address": "2150 Moreau Rue, Montreal QC",
                        "locality": "Montreal",
                        "region": "QC"
                  },
                  "name": "Les Touriers"
            },
            {
                  "distance": 793,
                  "location": {
                        "address": "2150 Moreau Rue",
                        "country": "CA",
                        "formatted_address": "2150 Moreau Rue, Montreal QC H1W 2M3",
                        "locality": "Montreal",
                        "postcode": "H1W 2M3",
                        "region": "QC"
                  },
                  "name": "Fous de l'\u00cele Kombucha Inc"
            },
            {
                  "distance": 855,
                  "location": {
                        "address": "3770 Ontario Rue E",
                        "country": "CA",
                        "formatted_address": "3770 Ontario Rue E, Montreal QC H1W 1S2",
                        "locality": "Montreal",
                        "postcode": "H1W 1S2",
                        "region": "QC"
                  },
                  "name": "Le Salon Enchanth\u00e9"
            },
            {
                  "distance": 872,
                  "location": {
                        "address": "3901 Sainte-Catherine Rue E",
                        "country": "CA",
                        "formatted_address": "3901 Sainte-Catherine Rue E, Montreal QC H1W 2G5",
                        "locality": "Montreal",
                        "postcode": "H1W 2G5",
                        "region": "QC"
                  },
                  "name": "Argile Caf\u00e9 et Atelier"
            },
            {
                  "distance": 939,
                  "location": {
                        "address": "2727 Ontario Rue E",
                        "country": "CA",
                        "formatted_address": "2727 Ontario Rue E, Montreal QC H2K 1X2",
                        "locality": "Montreal",
                        "postcode": "H2K 1X2",
                        "region": "QC"
                  },
                  "name": "Shandmas"
            },
            {
                  "distance": 956,
                  "location": {
                        "address": "15 Simon-Valois Pl",
                        "country": "CA",
                        "formatted_address": "15 Simon-Valois Pl, Montreal QC H1W 0A6",
                        "locality": "Montreal",
                        "postcode": "H1W 0A6",
                        "region": "QC"
                  },
                  "name": "Arhoma Boulangerie Fromagerie Inc"
            }
      ],
      "context": {
            "geo_bounds": {
                  "circle": {
                        "center": {
                              "latitude": 45.53938508,
                              "longitude": -73.54099989
                        },
                        "radius": 1000
                  }
            }
      }
}