{
      "results": [
            {
                  "distance": 566,
                  "location": {
                        "address": "1940 rue du Ctr",
                        "country": "CA",
                        "cross_street": "rue Jardin",
                        "formatted_address": "1940 rue du Ctr (rue Jardin), Montr\u00e9al QC H3K 1J2",
                        "locality": "Montreal",
                        "postcode": "H3K 1J2",
                        "region": "QC"
                  },
                  "name": "Le Caf\u00e9 Bloom",
                  "popularity": 0.9499195685087055,
                  "price": 2,
                  "rating": 9.0
            },
            {
                  "distance": 617,
                  "location": {
                        "address": "1871 Rue du Ctr",
                        "country": "CA",
                        "cross_street": "Shearer",
                        "formatted_address": "1871 Rue du Ctr (Shearer), Montr\u00e9al QC H3K 1J1",
                        "locality": "Montreal",
                        "postcode": "H3K 1J1",
                        "region": "QC"
                  },
                  "name": "Knox Taverne",
                  "popularity": 0.9547572861468584,
                  "price": 2,
                  "rating": 8.3
            },
            {
                  "distance": 479,
                  "location": {
                        "address": "760 Charlevoix Rue",
                        "country": "CA",
                        "cross_street": "at Rue de Coleraine",
                        "formatted_address": "760 Charlevoix Rue (at Rue de Coleraine), Montr\u00e9al QC H3K 2Y2",
                        "locality": "Montreal",
                        "postcode": "H3K 2Y2",
                        "region": "QC"
                  },
                  "name": "Paul Patates Frites",
                  "popularity": 0.9733866389099167,
                  "price": 1,
                  "rating": 8.3
            },
            {
                  "distance": 572,
                  "location": {
                        "address": "1886 Rue du Ctr",
                        "country": "CA",
                        "cross_street": "Rue Shearer",
                        "formatted_address": "1886 Rue du Ctr (Rue Shearer), Montr\u00e9al QC H3K 1H9",
                        "locality": "Montreal",
                        "postcode": "H3K 1H9",
                        "region": "QC"
                  },
                  "name": "Milky Way Cocktail Bar",
                  "popularity": 0.9616176192278577,
                  "price": 3,
                  "rating": 8.2
            },
            {
                  "distance": 587,
                  "location": {
                        "address": "1906 rue du Ctr",
                        "country": "CA",
                        "cross_street": "",
                        "formatted_address": "1906 rue du Ctr, Montr\u00e9al QC H3K 1H9",
                        "locality": "Montreal",
                        "postcode": "H3K 1H9",
                        "region": "QC"
                  },
                  "name": "Cuisine Masala",
                  "popularity": 0.4322837812263437,
                  "price": 2,
                  "rating": 8.1
            },
            {
                  "distance": 591,
                  "location": {
                        "address": "1900 le Ber Rue",
                        "country": "CA",
                        "cross_street": "",
                        "formatted_address": "1900 le Ber Rue, Montr\u00e9al QC H3K 2A4",
                        "locality": "Montreal",
                        "postcode": "H3K 2A4",
                        "region": "QC"
                  },
                  "name": "Les Sans-Taverne",
                  "popularity": 0.9684779523088569,
                  "price": 2,
                  "rating": 8.0
            },
            {
                  "distance": 593,
                  "location": {
                        "address": "1870 rue du Ctr",
                        "country": "CA",
                        "cross_street": "",
                        "formatted_address": "1870 rue du Ctr, Montr\u00e9al QC H3K 1H9",
                        "locality": "Montreal",
                        "postcode": "H3K 1H9",
                        "region": "QC"
                  },
                  "name": "Le Petit Sao",
                  "popularity": 0.8894894965934897,
                  "price": 2,
                  "rating": 8.0
            },
            {
                  "distance": 735,
                  "location": {
                        "address": "2483 rue du Ctr",
                        "country": "CA",
                        "cross_street": "",
                        "formatted_address": "2483 rue du Ctr, Montr\u00e9al QC H3K 1J9",
                        "locality": "Montreal",
                        "postcode": "H3K 1J9",
                        "region": "QC"
                  },
                  "name": "Clarke Caf\u00e9",
                  "popularity": 0.9593111279333838,
                  "price": 1,
                  "rating": 7.6
            },
            {
                  "distance": 782,
                  "location": {
                        "address": "2556 rue du Ctr",
                        "country": "CA",
                        "cross_street": "Rue Charlevoix",
                        "formatted_address": "2556 rue du Ctr (Rue Charlevoix), Montr\u00e9al QC H3K 1J8",
                        "locality": "Montreal",
                        "postcode": "H3K 1J8",
                        "region": "QC"
                  },
                  "name": "Restaurant Cari Mela",
                  "popularity": 0.8533899507948524,
                  "price": 2,
                  "rating": 7.5
            },
            {
                  "distance": 115,
                  "location": {
                        "address": "2026 Wellington Rue",
                        "country": "CA",
                        "cross_street": "Ash Avenue",
                        "formatted_address": "2026 Wellington Rue (Ash Avenue), Montr\u00e9al QC H3K 1W8",
                        "locality": "Montreal",
                        "postcode": "H3K 1W8",
                        "region": "QC"
                  },
                  "name": "Boom J's Cuisine",
                  "popularity": 0.9342472558667676,
                  "price": 2,
                  "rating": 7.5
            },
            {
                  "distance": 800,
                  "location": {
                        "address": "2563 rue du Ctr",
                        "country": "CA",
                        "cross_street": "",
                        "formatted_address": "2563 rue du Ctr, Montr\u00e9al QC H3K 1J9",
                        "locality": "Montreal",
                        "postcode": "H3K 1J9",
                        "region": "QC"
                  },
                  "name": "Pizza Charlevoix",
                  "popularity": 0.950227100681302,
                  "price": 1,
                  "rating": 6.4
            },
            {
                  "distance": 830,
                  "location": {
                        "address": "2172 Saint Patrick Rue",
                        "country": "CA",
                        "cross_street": "",
                        "formatted_address": "2172 Saint Patrick Rue, Montr\u00e9al QC H3K 1B1",
                        "locality": "Montreal",
                        "postcode": "H3K 1B1",
                        "region": "QC"
                  },
                  "name": "Brasserie Capri",
                  "popularity": 0.8528103709311128,
                  "price": 1,
                  "rating": 5.9
            },
            {
                  "distance": 790,
                  "location": {
                        "address": "1187 Charlevoix Rue",
                        "country": "CA",
                        "cross_street": "at Charlevoix St.",
                        "formatted_address": "1187 Charlevoix Rue (at Charlevoix St.), Montr\u00e9al QC H3K 2Z6",
                        "locality": "Montreal",
                        "postcode": "H3K 2Z6",
                        "region": "QC"
                  },
                  "name": "Patisseries Goplana",
                  "popularity": 0.9575842165026495,
                  "price": 1,
                  "rating": 5.5
            },
            {
                  "distance": 38,
                  "location": {
                        "address": "2069 Wellington Rue",
                        "country": "CA",
                        "cross_street": "Fortune",
                        "formatted_address": "2069 Wellington Rue (Fortune), Montr\u00e9al QC H3K 1W7",
                        "locality": "Montreal",
                        "postcode": "H3K 1W7",
                        "region": "QC"
                  },
                  "name": "Mollo",
                  "popularity": 0.9784609197577593,
                  "price": 1
            },
            {
                  "distance": 460,
                  "location": {
                        "address": "801 Charlevoix Rue",
                        "country": "CA",
                        "cross_street": "",
                        "formatted_address": "801 Charlevoix Rue, Montr\u00e9al QC H3K 2Y5",
                        "locality": "Montreal",
                        "postcode": "H3K 2Y5",
                        "region": "QC"
                  },
                  "name": "Connie Pizza",
                  "popularity": 0.8321702308856926,
                  "price": 1
            },
            {
                  "distance": 567,
                  "location": {
                        "address": "2687 Wellington Rue",
                        "country": "CA",
                        "cross_street": "",
                        "formatted_address": "2687 Wellington Rue, Montreal QC H3K 1X8",
                        "locality": "Montreal",
                        "postcode": "H3K 1X8",
                        "region": "QC"
                  },
                  "name": "Pub St Charles",
                  "popularity": 0.9495055828917487,
                  "price": 2
            },
            {
                  "distance": 572,
                  "location": {
                        "address": "1900 Rue du Ctr",
                        "country": "CA",
                        "cross_street": "",
                        "formatted_address": "1900 Rue du Ctr, Montr\u00e9al QC H3K 1H9",
                        "locality": "Montreal",
                        "postcode": "H3K 1H9",
                        "region": "QC"
                  },
                  "name": "Restaurant Boca Boa Grill",
                  "popularity": 0.5995931112793338,
                  "price": 2
            },
            {
                  "distance": 578,
                  "location": {
                        "address": "1880 rue du Ctr",
                        "country": "CA",
                        "cross_street": "",
                        "formatted_address": "1880 rue du Ctr, Montr\u00e9al QC H3K 1H9",
                        "locality": "Montreal",
                        "postcode": "H3K 1H9",
                        "region": "QC"
                  },
                  "name": "Caf\u00e9 Cantina",
                  "popularity": 0.8396338001514004,
                  "price": 1
            },
            {
                  "distance": 583,
                  "location": {
                        "address": "2042 Center Rue",
                        "country": "CA",
                        "cross_street": "",
                        "formatted_address": "2042 Center Rue, Montr\u00e9al QC",
                        "locality": "Montreal",
                        "region": "QC"
                  },
                  "name": "Cr\u00e8merie du coin",
                  "popularity": 0.9050671839515518,
                  "price": 1
            },
            {
                  "distance": 587,
                  "location": {
                        "address": "1886 Rue Ctr",
                        "country": "CA",
                        "cross_street": "",
                        "formatted_address": "1886 Rue Ctr, Montr\u00e9al QC H3K 1H9",
                        "locality": "Montreal",
                        "postcode": "H3K 1H9",
                        "region": "QC"
                  },
                  "name": "Fugazzi Pizza",
                  "popularity": 0.9187168811506434,
                  "price": 1
            },
            {
                  "distance": 591,
                  "location": {
                        "address": "1889 Center",
                        "country": "CA",
                        "cross_street": "",
                        "formatted_address": "1889 Center, Montr\u00e9al QC",
                        "locality": "Montreal",
                        "region": "QC"
                  },
                  "name": "Nower: naturally smoked meats",
                  "popularity": 0.6735664269492808,
                  "price": 1
            },
            {
                  "distance": 606,
                  "location": {
                        "address": "1883 Rue du Ctr",
                        "country": "CA",
                        "cross_street": "Shearer",
                        "formatted_address": "1883 Rue du Ctr (Shearer), Montr\u00e9al QC H3K 1J1",
                        "locality": "Montreal",
                        "postcode": "H3K 1J1",
                        "region": "QC"
                  },
                  "name": "Caf\u00e9 Ton Quartier",
                  "popularity": 0.849522142316427,
                  "price": 1
            },
            {
                  "distance": 723,
                  "location": {
                        "address": "1751 Richardson",
                        "country": "CA",
                        "cross_street": "Shearer",
                        "formatted_address": "1751 Richardson (Shearer), Montr\u00e9al QC H3K 1G6",
                        "locality": "Montreal",
                        "postcode": "H3K 1G6",
                        "region": "QC"
                  },
                  "name": "Les Grillades du Cedre - Nordelec",
                  "popularity": 0.563434424678274
            },
            {
                  "distance": 768,
                  "location": {
                        "address": "2556 rue du Ctr",
                        "country": "CA",
                        "cross_street": "",
                        "formatted_address": "2556 rue du Ctr, Montr\u00e9al QC H3K 1J8",
                        "locality": "Montreal",
                        "postcode": "H3K 1J8",
                        "region": "QC"
                  },
                  "name": "Spice Bros",
                  "popularity": 0.7954556207418623,
                  "price": 2
            },
            {
                  "distance": 790,
                  "location": {
                        "address": "2537 Rue du Ctr",
                        "country": "CA",
                        "cross_street": "",
                        "formatted_address": "2537 Rue du Ctr, Montr\u00e9al QC H3K 1J9",
                        "locality": "Montreal",
                        "postcode": "H3K 1J9",
                        "region": "QC"
                  },
                  "name": "Station Berlin",
                  "popularity": 0.3367359008327025
            },
            {
                  "distance": 803,
                  "location": {
                        "address": "2567 Centre St",
                        "country": "CA",
                        "cross_street": "",
                        "formatted_address": "2567 Centre St, Montr\u00e9al QC H3K 1J9",
                        "locality": "Montreal",
                        "postcode": "H3K 1J9",
                        "region": "QC"
                  },
                  "name": "LaChicR\u00e9gal",
                  "popularity": 0.8318272142316427,
                  "price": 2
            },
            {
                  "distance": 805,
                  "location": {
                        "address": "2567 rue du Ctr",
                        "country": "CA",
                        "cross_street": "Coin Charlevoix",
                        "formatted_address": "2567 rue du Ctr (Coin Charlevoix), Montreal QC H3K 1J9",
                        "locality": "Montreal",
                        "postcode": "H3K 1J9",
                        "region": "QC"
                  },
                  "name": "Taverne Regal",
                  "popularity": 0.861953538985617,
                  "price": 2
            },
            {
                  "distance": 818,
                  "location": {
                        "address": "2601 Rue Ctr",
                        "country": "CA",
                        "cross_street": "",
                        "formatted_address": "2601 Rue Ctr, Montr\u00e9al QC H3K 1K2",
                        "locality": "Montreal",
                        "postcode": "H3K 1K2",
                        "region": "QC"
                  },
                  "name": "Sep Lai",
                  "popularity": 0.945484008327025,
                  "price": 2
            },
            {
                  "distance": 859,
                  "location": {
                        "address": "1720 Saint Patrick Rue",
                        "country": "CA",
                        "cross_street": "",
                        "formatted_address": "1720 Saint Patrick Rue, Montr\u00e9al QC H3K 1A7",
                        "locality": "Montreal",
                        "postcode": "H3K 1A7",
                        "region": "QC"
                  },
                  "name": "La Canting",
                  "popularity": 0.8580857305071915,
                  "price": 1
            },
            {
                  "distance": 957,
                  "location": {
                        "address": "14 Prince Arthur Rue",
                        "country": "CA",
                        "cross_street": "",
                        "formatted_address": "14 Prince Arthur Rue, Montr\u00e9al QC",
                        "locality": "Montreal",
                        "region": "QC"
                  },
                  "name": "Au 14",
                  "popularity": 0.2768972369417108,
                  "price": 2
            },
            {
                  "distance": 78,
                  "location": {
                        "address": "2035 Wellington Rue",
                        "country": "CA",
                        "formatted_address": "2035 Wellington Rue, Montreal QC",
                        "locality": "Montreal",
                        "region": "QC"
                  },
                  "name": "Wellington Ash"
            },
            {
                  "distance": 96,
                  "location": {
                        "address": "2026 Wellington Rue",
                        "country": "CA",
                        "formatted_address": "2026 Wellington Rue, Montreal QC H3K 1W8",
                        "locality": "Montreal",
                        "postcode": "H3K 1W8",
                        "region": "QC"
                  },
                  "name": "Mama Express"
            },
            {
                  "distance": 247,
                  "location": {
                        "address": "2251 Wellington Rue",
                        "country": "CA",
                        "formatted_address": "2251 Wellington Rue, Montreal QC H3K 1X4",
                        "locality": "Montreal",
                        "postcode": "H3K 1X4",
                        "region": "QC"
                  },
                  "name": "Alexander Resto"
            },
            {
                  "distance": 480,
                  "location": {
                        "address": "2606 rue de Coleraine",
                        "country": "CA",
                        "formatted_address": "2606 rue de Coleraine, Montreal QC H3K 1S7",
                        "locality": "Montreal",
                        "postcode": "H3K 1S7",
                        "region": "QC"
                  },
                  "name": "Paul Patate"
            },
            {
                  "distance": 571,
                  "location": {
                        "address": "1900 rue Ctr",
                        "country": "CA",
                        "formatted_address": "1900 rue Ctr, Montreal QC H3K 1H9",
                        "locality": "Montreal",
                        "postcode": "H3K 1H9",
                        "region": "QC"
                  },
                  "name": "Salle Amor Electrico"
            }
      ],
      "context": {
            "geo_bounds": {
                  "circle": {
                        "center": {
                              "latitude": 45.477923,
                              "longitude": -73.559038
                        },
                        "radius": 1000
                  }
            }
      }
}