{
      "results": [
            {
                  "distance": 594,
                  "location": {
                        "address": "1360 Rosemont Blvd",
                        "country": "CA",
                        "cross_street": "",
                        "formatted_address": "1360 Rosemont Blvd, Montr\u00e9al QC H2G 1V4",
                        "locality": "Montreal",
                        "postcode": "H2G 1V4",
                        "region": "QC"
                  },
                  "name": "Caf\u00e9 Dei Campi",
                  "popularity": 0.9428108440575321,
                  "price": 1,
                  "rating": 9.1
            },
            {
                  "distance": 979,
                  "location": {
                        "address": "16 Maguire Rue",
                        "country": "CA",
                        "cross_street": "@ Saint-Laurent",
                        "formatted_address": "16 Maguire Rue (@ Saint-Laurent), Montr\u00e9al QC H2T 1B8",
                        "locality": "Montreal",
                        "postcode": "H2T 1B8",
                        "region": "QC"
                  },
                  "name": "Pizzeria Magpie",
                  "popularity": 0.8841076835730507,
                  "price": 1,
                  "rating": 9.1
            },
            {
                  "distance": 966,
                  "location": {
                        "address": "4627 Saint-Denis Rue",
                        "country": "CA",
                        "cross_street": "",
                        "formatted_address": "4627 Saint-Denis Rue, Montr\u00e9al QC H2J 2L4",
                        "locality": "Montreal",
                        "postcode": "H2J 2L4",
                        "region": "QC"
                  },
                  "name": "Caf\u00e9 Myriade - le Plateau",
                  "popularity": 0.9432603141559425,
                  "price": 1,
                  "rating": 9.1
            },
            {
                  "distance": 424,
                  "location": {
                        "address": "809 Laurier Ave E",
                        "country": "CA",
                        "formatted_address": "809 Laurier Ave E, Montr\u00e9al QC H2J 1G2",
                        "locality": "Montreal",
                        "postcode": "H2J 1G2",
                        "region": "QC"
                  },
                  "name": "Fous Desserts",
                  "popularity": 0.9535389856169568,
                  "rating": 9.0
            },
            {
                  "distance": 906,
                  "location": {
                        "address": "4690 Saint-Denis Rue",
                        "country": "CA",
                        "formatted_address": "4690 Saint-Denis Rue, Montr\u00e9al QC H2J 2L3",
                        "locality": "Montreal",
                        "postcode": "H2J 2L3",
                        "region": "QC"
                  },
                  "name": "Ouzeri",
                  "popularity": 0.9096801665404997,
                  "price": 2,
                  "rating": 9.0
            },
            {
                  "distance": 837,
                  "location": {
                        "address": "6230 Saint-Hubert Rue",
                        "country": "CA",
                        "cross_street": "",
                        "formatted_address": "6230 Saint-Hubert Rue, Montr\u00e9al QC H2S 2M2",
                        "locality": "Montreal",
                        "postcode": "H2S 2M2",
                        "region": "QC"
                  },
                  "name": "Montreal Plaza",
                  "popularity": 0.9133350681302044,
                  "price": 2,
                  "rating": 8.8
            },
            {
                  "distance": 981,
                  "location": {
                        "address": "1127 Ave du Mont-Royal Est",
                        "country": "CA",
                        "cross_street": "coin Christophe-Colomb",
                        "formatted_address": "1127 Ave du Mont-Royal Est (coin Christophe-Colomb), Montr\u00e9al QC H2J 1X9",
                        "locality": "Montreal",
                        "postcode": "H2J 1X9",
                        "region": "QC"
                  },
                  "name": "St-Viateur Bagel & Cafe",
                  "popularity": 0.9727715745647237,
                  "price": 1,
                  "rating": 8.7
            },
            {
                  "distance": 793,
                  "location": {
                        "address": "5605 Ave de Gasp\u00e9",
                        "country": "CA",
                        "cross_street": "coin St-Viateur Est",
                        "formatted_address": "5605 Ave de Gasp\u00e9 (coin St-Viateur Est), Montr\u00e9al QC H2T 2A4",
                        "locality": "Montreal",
                        "postcode": "H2T 2A4",
                        "region": "QC"
                  },
                  "name": "Caf\u00e9 Falco",
                  "popularity": 0.942952781983346,
                  "price": 2,
                  "rating": 8.7
            },
            {
                  "distance": 707,
                  "location": {
                        "address": "1650 Laurier Ave E",
                        "country": "CA",
                        "cross_street": "Marquette",
                        "formatted_address": "1650 Laurier Ave E (Marquette), Montr\u00e9al QC H2J 1J2",
                        "locality": "Montreal",
                        "postcode": "H2J 1J2",
                        "region": "QC"
                  },
                  "name": "Sushi Tri Express",
                  "popularity": 0.8795656699470098,
                  "price": 2,
                  "rating": 8.5
            },
            {
                  "distance": 921,
                  "location": {
                        "address": "1995 Masson Rue",
                        "country": "CA",
                        "cross_street": "coin Bordeaux",
                        "formatted_address": "1995 Masson Rue (coin Bordeaux), Montr\u00e9al QC H2H 1A5",
                        "locality": "Montreal",
                        "postcode": "H2H 1A5",
                        "region": "QC"
                  },
                  "name": "L'Entre-Pots",
                  "popularity": 0.955679882664648,
                  "price": 1,
                  "rating": 8.5
            },
            {
                  "distance": 664,
                  "location": {
                        "address": "1059 Gilford Rue",
                        "country": "CA",
                        "cross_street": "Christophe-Colomb",
                        "formatted_address": "1059 Gilford Rue (Christophe-Colomb), Montr\u00e9al QC H2J 1P7",
                        "locality": "Montreal",
                        "postcode": "H2J 1P7",
                        "region": "QC"
                  },
                  "name": "Restaurant la Raclette",
                  "popularity": 0.9396527252081757,
                  "price": 3,
                  "rating": 8.5
            },
            {
                  "distance": 893,
                  "location": {
                        "address": "4720 Marquette Rue",
                        "country": "CA",
                        "cross_street": "coin Gilford",
                        "formatted_address": "4720 Marquette Rue (coin Gilford), Montr\u00e9al QC H2J 3Y6",
                        "locality": "Montreal",
                        "postcode": "H2J 3Y6",
                        "region": "QC"
                  },
                  "name": "Maison Publique",
                  "popularity": 0.9193674299772899,
                  "price": 3,
                  "rating": 8.4
            },
            {
                  "distance": 686,
                  "location": {
                        "address": "351 Laurier Ave E",
                        "country": "CA",
                        "cross_street": "coin Drolet",
                        "formatted_address": "351 Laurier Ave E (coin Drolet), Montr\u00e9al QC H2T 1G7",
                        "locality": "Montreal",
                        "postcode": "H2T 1G7",
                        "region": "QC"
                  },
                  "name": "Restaurant Chez Claudette",
                  "popularity": 0.9536454390613172,
                  "price": 1,
                  "rating": 8.3
            },
            {
                  "distance": 753,
                  "location": {
                        "address": "4710 rue de Lanaudi\u00e8re",
                        "country": "CA",
                        "cross_street": "coin Gilford",
                        "formatted_address": "4710 rue de Lanaudi\u00e8re (coin Gilford), Montr\u00e9al QC H2J 3P7",
                        "locality": "Montreal",
                        "postcode": "H2J 3P7",
                        "region": "QC"
                  },
                  "name": "Le Chien Fumant",
                  "popularity": 0.9083435844057532,
                  "price": 3,
                  "rating": 8.2
            },
            {
                  "distance": 635,
                  "location": {
                        "address": "1546 Laurier Ave E",
                        "country": "CA",
                        "cross_street": "Rue Fabre",
                        "formatted_address": "1546 Laurier Ave E (Rue Fabre), Montr\u00e9al QC H2J 1H9",
                        "locality": "Montreal",
                        "postcode": "H2J 1H9",
                        "region": "QC"
                  },
                  "name": "Caf\u00e9 M\u00e9chants Pinsons",
                  "popularity": 0.9265707797123391,
                  "price": 1,
                  "rating": 8.1
            },
            {
                  "distance": 654,
                  "location": {
                        "address": "5938 Saint-Hubert Rue",
                        "country": "CA",
                        "cross_street": "",
                        "formatted_address": "5938 Saint-Hubert Rue, Montr\u00e9al QC H2S 2L7",
                        "locality": "Montreal",
                        "postcode": "H2S 2L7",
                        "region": "QC"
                  },
                  "name": "Restaurant Casa Alentejo",
                  "popularity": 0.9143522899318698,
                  "price": 2,
                  "rating": 7.9
            },
            {
                  "distance": 963,
                  "location": {
                        "address": "351 Rue de Bellechasse",
                        "country": "CA",
                        "cross_street": "btwn Drolet & St-Denis",
                        "formatted_address": "351 Rue de Bellechasse (btwn Drolet & St-Denis), Montr\u00e9al QC H2S 1X1",
                        "locality": "Montreal",
                        "postcode": "H2S 1X1",
                        "region": "QC"
                  },
                  "name": "Elio Pizzeria",
                  "popularity": 0.9754683951551855,
                  "price": 1,
                  "rating": 7.9
            },
            {
                  "distance": 612,
                  "location": {
                        "address": "1499 Laurier Ave E",
                        "country": "CA",
                        "cross_street": "coin Fabre",
                        "formatted_address": "1499 Laurier Ave E (coin Fabre), Montr\u00e9al QC H2J 1H8",
                        "locality": "Montreal",
                        "postcode": "H2J 1H8",
                        "region": "QC"
                  },
                  "name": "Byblos le Petit Caf\u00e9",
                  "popularity": 0.8978046934140802,
                  "price": 2,
                  "rating": 7.8
            },
            {
                  "distance": 907,
                  "location": {
                        "address": "6289 Saint-Hubert Rue",
                        "country": "CA",
                        "cross_street": "",
                        "formatted_address": "6289 Saint-Hubert Rue, Montr\u00e9al QC H2S 2L9",
                        "locality": "Montreal",
                        "postcode": "H2S 2L9",
                        "region": "QC"
                  },
                  "name": "Nestor",
                  "popularity": 0.931160105980318,
                  "price": 2,
                  "rating": 7.8
            },
            {
                  "distance": 538,
                  "location": {
                        "address": "1389 Laurier Ave E",
                        "country": "CA",
                        "cross_street": "Garnier",
                        "formatted_address": "1389 Laurier Ave E (Garnier), Montr\u00e9al QC H2J 1H6",
                        "locality": "Montreal",
                        "postcode": "H2J 1H6",
                        "region": "QC"
                  },
                  "name": "Brulerie Saint-Denis",
                  "popularity": 0.9221115632096897,
                  "price": 1,
                  "rating": 7.7
            },
            {
                  "distance": 676,
                  "location": {
                        "address": "5368 Papineau Ave",
                        "country": "CA",
                        "cross_street": "",
                        "formatted_address": "5368 Papineau Ave, Montr\u00e9al QC H2H 1W2",
                        "locality": "Montreal",
                        "postcode": "H2H 1W2",
                        "region": "QC"
                  },
                  "name": "Caf\u00e9 Orr",
                  "popularity": 0.9599853330809992,
                  "price": 1,
                  "rating": 7.6
            },
            {
                  "distance": 934,
                  "location": {
                        "address": "4664 Saint-Denis Rue",
                        "country": "CA",
                        "cross_street": "",
                        "formatted_address": "4664 Saint-Denis Rue, Montr\u00e9al QC H2J 2L3",
                        "locality": "Montreal",
                        "postcode": "H2J 2L3",
                        "region": "QC"
                  },
                  "name": "Th\u00e9\u00e2tre du Rideau Vert",
                  "popularity": 0.9211179977289932,
                  "rating": 7.6
            },
            {
                  "distance": 476,
                  "location": {
                        "address": "5800 rue de la Roche",
                        "country": "CA",
                        "cross_street": "coin Rosemont",
                        "formatted_address": "5800 rue de la Roche (coin Rosemont), Montr\u00e9al QC H2S 2C7",
                        "locality": "Montreal",
                        "postcode": "H2S 2C7",
                        "region": "QC"
                  },
                  "name": "Le North End",
                  "popularity": 0.8863077214231643,
                  "price": 3,
                  "rating": 7.2
            },
            {
                  "distance": 348,
                  "location": {
                        "address": "540 Boucher Rue",
                        "country": "CA",
                        "cross_street": "coin Resther",
                        "formatted_address": "540 Boucher Rue (coin Resther), Montr\u00e9al QC H2J 1C2",
                        "locality": "Montreal",
                        "postcode": "H2J 1C2",
                        "region": "QC"
                  },
                  "name": "Taverne Bar la Remise Inc",
                  "popularity": 0.9550056775170326,
                  "price": 2,
                  "rating": 6.9
            },
            {
                  "distance": 534,
                  "location": {
                        "address": "5237 Saint-Denis Rue",
                        "country": "CA",
                        "cross_street": "",
                        "formatted_address": "5237 Saint-Denis Rue, Montr\u00e9al QC H2J 2M1",
                        "locality": "Montreal",
                        "postcode": "H2J 2M1",
                        "region": "QC"
                  },
                  "name": "Restaurant le Bleu Raisin",
                  "popularity": 0.8919497539742619,
                  "price": 3,
                  "rating": 6.6
            },
            {
                  "distance": 990,
                  "location": {
                        "address": "1045 Ave du Mont-Royal Est",
                        "country": "CA",
                        "cross_street": "coin Christophe-Colomb",
                        "formatted_address": "1045 Ave du Mont-Royal Est (coin Christophe-Colomb), Montr\u00e9al QC H2J 1X7",
                        "locality": "Montreal",
                        "postcode": "H2J 1X7",
                        "region": "QC"
                  },
                  "name": "Brasserie Chez Baptiste",
                  "popularity": 0.9606595382286147,
                  "price": 2,
                  "rating": 6.5
            },
            {
                  "distance": 499,
                  "location": {
                        "address": "5800 Christophe-Colomb Ave",
                        "country": "CA",
                        "cross_street": "Boulevard Rosemont",
                        "formatted_address": "5800 Christophe-Colomb Ave (Boulevard Rosemont), Montr\u00e9al QC H2S 2G2",
                        "locality": "Montreal",
                        "postcode": "H2S 2G2",
                        "region": "QC"
                  },
                  "name": "Tim Hortons",
                  "popularity": 0.8799559992429977,
                  "price": 1,
                  "rating": 6.3
            },
            {
                  "distance": 563,
                  "location": {
                        "address": "445 Laurier Ave E",
                        "country": "CA",
                        "formatted_address": "445 Laurier Ave E, Montr\u00e9al QC H2J 1E6",
                        "locality": "Montreal",
                        "postcode": "H2J 1E6",
                        "region": "QC"
                  },
                  "name": "La Boite Gourmande",
                  "popularity": 0.8986563209689629,
                  "price": 2,
                  "rating": 6.2
            },
            {
                  "distance": 1048,
                  "location": {
                        "address": "1251 Ave Mont-Royal Est",
                        "country": "CA",
                        "cross_street": "Br\u00e9beuf",
                        "formatted_address": "1251 Ave Mont-Royal Est (Br\u00e9beuf), Montr\u00e9al QC H2J 1Y4",
                        "locality": "Montreal",
                        "postcode": "H2J 1Y4",
                        "region": "QC"
                  },
                  "name": "Copper Branch",
                  "popularity": 0.8276873580620742,
                  "price": 2,
                  "rating": 5.9
            },
            {
                  "distance": 984,
                  "location": {
                        "address": "1001 Ave du Mont-Royal Est",
                        "country": "CA",
                        "cross_street": "coin Boyer",
                        "formatted_address": "1001 Ave du Mont-Royal Est (coin Boyer), Montr\u00e9al QC H2J 1X7",
                        "locality": "Montreal",
                        "postcode": "H2J 1X7",
                        "region": "QC"
                  },
                  "name": "Mont-Royal Hot Dog",
                  "popularity": 0.9374053747161242,
                  "price": 1,
                  "rating": 5.9
            },
            {
                  "distance": 538,
                  "location": {
                        "address": "1275 Rosemont Blvd",
                        "country": "CA",
                        "formatted_address": "1275 Rosemont Blvd, Montr\u00e9al QC H2S 3L9",
                        "locality": "Montreal",
                        "postcode": "H2S 3L9",
                        "region": "QC"
                  },
                  "name": "McDonald's",
                  "popularity": 0.9897449848599545,
                  "price": 1,
                  "rating": 5.4,
                  "store_id": "2964"
            },
            {
                  "distance": 488,
                  "location": {
                        "address": "824 Rosemont Blvd",
                        "country": "CA",
                        "cross_street": "Saint-Hubert",
                        "formatted_address": "824 Rosemont Blvd (Saint-Hubert), Montr\u00e9al QC H2S 1Z6",
                        "locality": "Montreal",
                        "postcode": "H2S 1Z6",
                        "region": "QC"
                  },
                  "name": "Le Comptoir Mael",
                  "popularity": 0.9000402157456472,
                  "price": 2
            },
            {
                  "distance": 718,
                  "location": {
                        "address": "5985 Saint-Hubert Rue",
                        "country": "CA",
                        "cross_street": "",
                        "formatted_address": "5985 Saint-Hubert Rue, Montr\u00e9al QC H2S 2L8",
                        "locality": "Montreal",
                        "postcode": "H2S 2L8",
                        "region": "QC"
                  },
                  "name": "Pichai",
                  "popularity": 0.9629660295230885,
                  "price": 2
            },
            {
                  "distance": 816,
                  "location": {
                        "address": "5161 Papineau Ave",
                        "country": "CA",
                        "cross_street": "",
                        "formatted_address": "5161 Papineau Ave, Montr\u00e9al QC H2H 1W1",
                        "locality": "Montreal",
                        "postcode": "H2H 1W1",
                        "region": "QC"
                  },
                  "name": "Chez Tomio",
                  "popularity": 0.8303723504920515,
                  "price": 2
            },
            {
                  "distance": 866,
                  "location": {
                        "address": "5477 Chabot Rue",
                        "country": "CA",
                        "cross_street": "",
                        "formatted_address": "5477 Chabot Rue, Montr\u00e9al QC H2H 1Z1",
                        "locality": "Montreal",
                        "postcode": "H2H 1Z1",
                        "region": "QC"
                  },
                  "name": "Maison Chabot",
                  "popularity": 0.9506765707797123,
                  "price": 1
            }
      ],
      "context": {
            "geo_bounds": {
                  "circle": {
                        "center": {
                              "latitude": 45.53259745,
                              "longitude": -73.59011114
                        },
                        "radius": 1000
                  }
            }
      }
}