{
      "results": [
            {
                  "distance": 715,
                  "location": {
                        "address": "1431 Saint-Laurent Blvd",
                        "country": "CA",
                        "cross_street": "entre De Maisonneuve & Ste-Catherine",
                        "formatted_address": "1431 Saint-Laurent Blvd (entre De Maisonneuve & Ste-Catherine), Montr\u00e9al QC H2X 2S8",
                        "locality": "Montreal",
                        "postcode": "H2X 2S8",
                        "region": "QC"
                  },
                  "name": "Cadet",
                  "popularity": 0.9538465177895533,
                  "price": 2,
                  "rating": 9.4
            },
            {
                  "distance": 704,
                  "location": {
                        "address": "1595 Saint-Laurent Blvd",
                        "country": "CA",
                        "cross_street": "entre De Maisonneuve & Ontario",
                        "formatted_address": "1595 Saint-Laurent Blvd (entre De Maisonneuve & Ontario), Montr\u00e9al QC H2X 2S9",
                        "locality": "Montreal",
                        "postcode": "H2X 2S9",
                        "region": "QC"
                  },
                  "name": "Bouillon Bilk",
                  "popularity": 0.962682153671461,
                  "price": 3,
                  "rating": 9.3
            },
            {
                  "distance": 504,
                  "location": {
                        "address": "1272 Sainte-Catherine Rue E",
                        "country": "CA",
                        "cross_street": "",
                        "formatted_address": "1272 Sainte-Catherine Rue E, Montr\u00e9al QC H2L 2H2",
                        "locality": "Montreal",
                        "postcode": "H2L 2H2",
                        "region": "QC"
                  },
                  "name": "Bar Renard",
                  "popularity": 0.9689274224072673,
                  "price": 2,
                  "rating": 9.0
            },
            {
                  "distance": 819,
                  "location": {
                        "address": "1106B Saint Laurent Blvd",
                        "country": "CA",
                        "cross_street": "coin Ren\u00e9-L\u00e9vesque",
                        "formatted_address": "1106B Saint Laurent Blvd (coin Ren\u00e9-L\u00e9vesque), Montr\u00e9al QC H2Z 1J5",
                        "locality": "Montreal",
                        "postcode": "H2Z 1J5",
                        "region": "QC"
                  },
                  "name": "Bar le Mal N\u00e9cessaire",
                  "popularity": 0.9491152535957608,
                  "price": 3,
                  "rating": 9.0
            },
            {
                  "distance": 982,
                  "location": {
                        "address": "380 Saint Paul Rue E",
                        "country": "CA",
                        "cross_street": "coin Bonsecours",
                        "formatted_address": "380 Saint Paul Rue E (coin Bonsecours), Montr\u00e9al QC H2Y 1H2",
                        "locality": "Montreal",
                        "postcode": "H2Y 1H2",
                        "region": "QC"
                  },
                  "name": "Pub BreWskey",
                  "popularity": 0.9748888152914459,
                  "price": 1,
                  "rating": 8.9
            },
            {
                  "distance": 453,
                  "location": {
                        "address": "300 Ontario Rue E",
                        "country": "CA",
                        "cross_street": "coin Sanguinet",
                        "formatted_address": "300 Ontario Rue E (coin Sanguinet), Montr\u00e9al QC H2X 1H6",
                        "locality": "Montreal",
                        "postcode": "H2X 1H6",
                        "region": "QC"
                  },
                  "name": "La Distillerie",
                  "popularity": 0.9436861279333838,
                  "price": 3,
                  "rating": 8.9
            },
            {
                  "distance": 771,
                  "location": {
                        "address": "3609 Saint-Denis Rue",
                        "address_extended": "Square St-Louis",
                        "country": "CA",
                        "cross_street": "Square St-Louis",
                        "formatted_address": "3609 Saint-Denis Rue (Square St-Louis), Montr\u00e9al QC H2X 3L6",
                        "locality": "Montreal",
                        "postcode": "H2X 3L6",
                        "region": "QC"
                  },
                  "name": "La Fabrique Bistrot",
                  "popularity": 0.9323547501892505,
                  "price": 4,
                  "rating": 8.6
            },
            {
                  "distance": 351,
                  "location": {
                        "address": "301 Emery Rue",
                        "country": "CA",
                        "cross_street": "entre St-Denis & Sanguinet",
                        "formatted_address": "301 Emery Rue (entre St-Denis & Sanguinet), Montr\u00e9al QC H2X 1J2",
                        "locality": "Montreal",
                        "postcode": "H2X 1J2",
                        "region": "QC"
                  },
                  "name": "Caf\u00e9 Saint-Henri Quartier Latin",
                  "popularity": 0.9289718962906889,
                  "price": 1,
                  "rating": 8.6
            },
            {
                  "distance": 820,
                  "location": {
                        "address": "1096 Saint-Laurent Blvd",
                        "country": "CA",
                        "cross_street": "entre Ren\u00e9-L\u00e9vesque & De la Gaucheti\u00e8re",
                        "formatted_address": "1096 Saint-Laurent Blvd (entre Ren\u00e9-L\u00e9vesque & De la Gaucheti\u00e8re), Montr\u00e9al QC H2Z 1J5",
                        "locality": "Montreal",
                        "postcode": "H2Z 1J5",
                        "region": "QC"
                  },
                  "name": "La Capital Tacos",
                  "popularity": 0.9445377554882665,
                  "price": 1,
                  "rating": 8.6
            },
            {
                  "distance": 875,
                  "location": {
                        "address": "350 Notre-Dame Rue E",
                        "address_extended": "Suite 1",
                        "country": "CA",
                        "cross_street": "Bonsecours",
                        "formatted_address": "350 Notre-Dame Rue E (Bonsecours), Montr\u00e9al QC H2Y 1C7",
                        "locality": "Montreal",
                        "postcode": "H2Y 1C7",
                        "region": "QC"
                  },
                  "name": "Caf\u00e9 de' Mercanti - Old Montreal",
                  "popularity": 0.9625993565480696,
                  "price": 1,
                  "rating": 8.6
            },
            {
                  "distance": 434,
                  "location": {
                        "address": "2021 Saint-Denis Rue",
                        "country": "CA",
                        "cross_street": "rue Ontario",
                        "formatted_address": "2021 Saint-Denis Rue (rue Ontario), Montr\u00e9al QC H2X 3K8",
                        "locality": "Montreal",
                        "postcode": "H2X 3K8",
                        "region": "QC"
                  },
                  "name": "Le 4e Mur",
                  "popularity": 0.9381860333080999,
                  "price": 3,
                  "rating": 8.6
            },
            {
                  "distance": 221,
                  "location": {
                        "address": "1579 Saint-Denis Rue",
                        "country": "CA",
                        "cross_street": "entre De Maisonneuve & \u00c9mery",
                        "formatted_address": "1579 Saint-Denis Rue (entre De Maisonneuve & \u00c9mery), Montr\u00e9al QC H2X 3K3",
                        "locality": "Montreal",
                        "postcode": "H2X 3K3",
                        "region": "QC"
                  },
                  "name": "Vua Sandwichs",
                  "popularity": 0.9491507380772143,
                  "price": 1,
                  "rating": 8.6
            },
            {
                  "distance": 822,
                  "location": {
                        "address": "8 Sherbrooke Rue E",
                        "country": "CA",
                        "cross_street": "Boukevard Saint-Laurent",
                        "formatted_address": "8 Sherbrooke Rue E (Boukevard Saint-Laurent), Montr\u00e9al QC H2X 1C2",
                        "locality": "Montreal",
                        "postcode": "H2X 1C2",
                        "region": "QC"
                  },
                  "name": "Cafe Origine",
                  "popularity": 0.9468324186222559,
                  "price": 1,
                  "rating": 8.5
            },
            {
                  "distance": 532,
                  "location": {
                        "address": "1310 Blvd de Maisonneuve Est",
                        "country": "CA",
                        "cross_street": "Visitation",
                        "formatted_address": "1310 Blvd de Maisonneuve Est (Visitation), Montr\u00e9al QC H2L 2A5",
                        "locality": "Montreal",
                        "postcode": "H2L 2A5",
                        "region": "QC"
                  },
                  "name": "Bistro le Passe Compose",
                  "popularity": 0.9547809424678274,
                  "price": 1,
                  "rating": 8.5
            },
            {
                  "distance": 306,
                  "location": {
                        "address": "1112 Blvd de Maisonneuve Est",
                        "country": "CA",
                        "cross_street": "btwn Amherst & Wolfe St.",
                        "formatted_address": "1112 Blvd de Maisonneuve Est (btwn Amherst & Wolfe St.), Montr\u00e9al QC H2L 1Z5",
                        "locality": "Montreal",
                        "postcode": "H2L 1Z5",
                        "region": "QC"
                  },
                  "name": "O'Thym",
                  "popularity": 0.9423613739591219,
                  "price": 3,
                  "rating": 8.5
            },
            {
                  "distance": 934,
                  "location": {
                        "address": "73 Prince Arthur Rue E",
                        "country": "CA",
                        "cross_street": "Coloniale",
                        "formatted_address": "73 Prince Arthur Rue E (Coloniale), Montr\u00e9al QC H2X 1B4",
                        "locality": "Montreal",
                        "postcode": "H2X 1B4",
                        "region": "QC"
                  },
                  "name": "Arepera",
                  "popularity": 0.925730980317941,
                  "price": 1,
                  "rating": 8.5
            },
            {
                  "distance": 356,
                  "location": {
                        "address": "1749 Saint-Denis Rue",
                        "country": "CA",
                        "cross_street": "coin Ontario",
                        "formatted_address": "1749 Saint-Denis Rue (coin Ontario), Montr\u00e9al QC H2X 3K4",
                        "locality": "Montreal",
                        "postcode": "H2X 3K4",
                        "region": "QC"
                  },
                  "name": "Le Saint Bock",
                  "popularity": 0.9721565102195306,
                  "price": 2,
                  "rating": 8.4
            },
            {
                  "distance": 282,
                  "location": {
                        "address": "1668 Saint-Denis Rue",
                        "country": "CA",
                        "cross_street": "coin de Maisonneuve",
                        "formatted_address": "1668 Saint-Denis Rue (coin de Maisonneuve), Montr\u00e9al QC H2X 3K6",
                        "locality": "Montreal",
                        "postcode": "H2X 3K6",
                        "region": "QC"
                  },
                  "name": "Pizzeria Dei Compari",
                  "popularity": 0.9388484102952309,
                  "price": 2,
                  "rating": 8.3
            },
            {
                  "distance": 893,
                  "location": {
                        "address": "1006 Saint-Laurent Blvd",
                        "country": "CA",
                        "cross_street": "",
                        "formatted_address": "1006 Saint-Laurent Blvd, Montr\u00e9al QC H2Z 1J3",
                        "locality": "Montreal",
                        "postcode": "H2Z 1J3",
                        "region": "QC"
                  },
                  "name": "Nouilles de Lan Zhou",
                  "popularity": 0.9843868281604845,
                  "price": 2,
                  "rating": 8.3
            },
            {
                  "distance": 893,
                  "location": {
                        "address": "51 Sherbrooke Rue O",
                        "country": "CA",
                        "cross_street": "coin Clark",
                        "formatted_address": "51 Sherbrooke Rue O (coin Clark), Montr\u00e9al QC H2X 1X2",
                        "locality": "Montreal",
                        "postcode": "H2X 1X2",
                        "region": "QC"
                  },
                  "name": "Caf\u00e9 OSMO",
                  "popularity": 0.9720027441332324,
                  "price": 1,
                  "rating": 8.2
            },
            {
                  "distance": 1001,
                  "location": {
                        "address": "150 St Catherine Rue W",
                        "address_extended": "Room 201C",
                        "country": "CA",
                        "cross_street": "",
                        "formatted_address": "150 St Catherine Rue W, Montr\u00e9al QC H2X 3Y2",
                        "locality": "Montreal",
                        "postcode": "H2X 3Y2",
                        "region": "QC"
                  },
                  "name": "La Cage",
                  "popularity": 0.9884202308856926,
                  "price": 2,
                  "rating": 8.2,
                  "store_id": "LC_08"
            },
            {
                  "distance": 220,
                  "location": {
                        "address": "1567 Saint-Denis Rue",
                        "country": "CA",
                        "cross_street": "coin De Maisonneuve",
                        "formatted_address": "1567 Saint-Denis Rue (coin De Maisonneuve), Montr\u00e9al QC H2X 3K3",
                        "locality": "Montreal",
                        "postcode": "H2X 3K3",
                        "region": "QC"
                  },
                  "name": "Saint-Houblon",
                  "popularity": 0.9718608062074187,
                  "price": 3,
                  "rating": 8.2
            },
            {
                  "distance": 917,
                  "location": {
                        "address": "3515 Saint-Laurent Blvd",
                        "country": "CA",
                        "cross_street": "entre Sherbrooke & Prince-Arthur",
                        "formatted_address": "3515 Saint-Laurent Blvd (entre Sherbrooke & Prince-Arthur), Montr\u00e9al QC H2X 2T6",
                        "locality": "Montreal",
                        "postcode": "H2X 2T6",
                        "region": "QC"
                  },
                  "name": "McKibbin's Irish Pub",
                  "popularity": 0.9739189061317184,
                  "price": 2,
                  "rating": 8.2
            },
            {
                  "distance": 716,
                  "location": {
                        "address": "1579 Saint-Laurent Blvd",
                        "country": "CA",
                        "cross_street": "",
                        "formatted_address": "1579 Saint-Laurent Blvd, Montr\u00e9al QC H2X 2S9",
                        "locality": "Montreal",
                        "postcode": "H2X 2S9",
                        "region": "QC"
                  },
                  "name": "Bar Pamplemousse",
                  "popularity": 0.9600563020439061,
                  "rating": 8.1
            },
            {
                  "distance": 462,
                  "location": {
                        "address": "2049 Saint-Denis Rue",
                        "country": "CA",
                        "cross_street": "entre Ontario & Sherbrooke",
                        "formatted_address": "2049 Saint-Denis Rue (entre Ontario & Sherbrooke), Montr\u00e9al QC H2X 3K8",
                        "locality": "Montreal",
                        "postcode": "H2X 3K8",
                        "region": "QC"
                  },
                  "name": "Brasserie Artisanale l'Am\u00e8re a Boire Inc",
                  "popularity": 0.9146479939439819,
                  "price": 2,
                  "rating": 7.9
            },
            {
                  "distance": 230,
                  "location": {
                        "address": "1615 Saint-Denis Rue",
                        "address_extended": "coin \u00c9mery",
                        "country": "CA",
                        "cross_street": "coin \u00c9mery",
                        "formatted_address": "1615 Saint-Denis Rue (coin \u00c9mery), Montr\u00e9al QC H2X 3K3",
                        "locality": "Montreal",
                        "postcode": "H2X 3K3",
                        "region": "QC"
                  },
                  "name": "Juliette et Chocolat",
                  "popularity": 0.9692112982588947,
                  "price": 2,
                  "rating": 7.9
            },
            {
                  "distance": 265,
                  "location": {
                        "address": "1649 Saint-Denis Rue",
                        "country": "CA",
                        "cross_street": "entre Emery & Ontario",
                        "formatted_address": "1649 Saint-Denis Rue (entre Emery & Ontario), Montr\u00e9al QC H2X 3K4",
                        "locality": "Montreal",
                        "postcode": "H2X 3K4",
                        "region": "QC"
                  },
                  "name": "Pub l'Ile Noire",
                  "popularity": 0.9520841218773657,
                  "price": 2,
                  "rating": 7.9
            },
            {
                  "distance": 560,
                  "location": {
                        "address": "1315 Sainte-Catherine Rue E",
                        "country": "CA",
                        "cross_street": "entre Visitation et Panet",
                        "formatted_address": "1315 Sainte-Catherine Rue E (entre Visitation et Panet), Montr\u00e9al QC H2L 2H4",
                        "locality": "Montreal",
                        "postcode": "H2L 2H4",
                        "region": "QC"
                  },
                  "name": "Bar l'aigle Noir",
                  "popularity": 0.9607778198334594,
                  "price": 2,
                  "rating": 7.9
            },
            {
                  "distance": 811,
                  "location": {
                        "address": "1365 Ontario Rue E",
                        "country": "CA",
                        "formatted_address": "1365 Ontario Rue E, Montr\u00e9al QC H2L 1S2",
                        "locality": "Montreal",
                        "postcode": "H2L 1S2",
                        "region": "QC"
                  },
                  "name": "Poutineville",
                  "popularity": 0.9661241483724451,
                  "price": 2,
                  "rating": 7.9
            },
            {
                  "distance": 335,
                  "location": {
                        "address": "1710 Saint-Denis Rue",
                        "country": "CA",
                        "cross_street": "entre Ontario et Emery",
                        "formatted_address": "1710 Saint-Denis Rue (entre Ontario et Emery), Montr\u00e9al QC H2X 3K6",
                        "locality": "Montreal",
                        "postcode": "H2X 3K6",
                        "region": "QC"
                  },
                  "name": "Frite Alors",
                  "popularity": 0.9397473504920515,
                  "price": 2,
                  "rating": 7.8
            },
            {
                  "distance": 851,
                  "location": {
                        "address": "43 Rue de la Gaucheti\u00e8re Est",
                        "country": "CA",
                        "cross_street": "coin St-Dominique",
                        "formatted_address": "43 Rue de la Gaucheti\u00e8re Est (coin St-Dominique), Montr\u00e9al QC H2X 1P4",
                        "locality": "Montreal",
                        "postcode": "H2X 1P4",
                        "region": "QC"
                  },
                  "name": "Restaurant Mon-Nan Cantonese Food Enr",
                  "popularity": 0.9700984102952309,
                  "price": 1,
                  "rating": 7.8
            },
            {
                  "distance": 204,
                  "location": {
                        "address": "921 Sainte-Catherine Rue E",
                        "country": "CA",
                        "cross_street": "entre St-Andr\u00e9 & St-Timoth\u00e9e",
                        "formatted_address": "921 Sainte-Catherine Rue E (entre St-Andr\u00e9 & St-Timoth\u00e9e), Montr\u00e9al QC H2L 2E5",
                        "locality": "Montreal",
                        "postcode": "H2L 2E5",
                        "region": "QC"
                  },
                  "name": "La graine br\u00fbl\u00e9e",
                  "popularity": 0.9593584405753217,
                  "price": 1,
                  "rating": 7.8
            },
            {
                  "distance": 593,
                  "location": {
                        "address": "87 Sainte-Catherine Rue E",
                        "country": "CA",
                        "formatted_address": "87 Sainte-Catherine Rue E, Montr\u00e9al QC H2X 1K5",
                        "locality": "Montreal",
                        "postcode": "H2X 1K5",
                        "region": "QC"
                  },
                  "name": "Foufounes Electriques",
                  "popularity": 0.9730672785768357,
                  "price": 1,
                  "rating": 7.8
            },
            {
                  "distance": 807,
                  "location": {
                        "address": "3635 Saint-Denis Rue",
                        "country": "CA",
                        "cross_street": "coin Cherrier",
                        "formatted_address": "3635 Saint-Denis Rue (coin Cherrier), Montr\u00e9al QC H2X 3L6",
                        "locality": "Montreal",
                        "postcode": "H2X 3L6",
                        "region": "QC"
                  },
                  "name": "Caf\u00e9 Cherrier",
                  "popularity": 0.9193082891748675,
                  "price": 3,
                  "rating": 7.7
            },
            {
                  "distance": 812,
                  "location": {
                        "address": "1030 Cherrier Rue",
                        "country": "CA",
                        "cross_street": "at Parc-Lafontaine Ave.",
                        "formatted_address": "1030 Cherrier Rue (at Parc-Lafontaine Ave.), Montr\u00e9al QC H2L 1H9",
                        "locality": "Montreal",
                        "postcode": "H2L 1H9",
                        "region": "QC"
                  },
                  "name": "Bistro T\u00f4t ou Tard",
                  "popularity": 0.9615821347464042,
                  "price": 1,
                  "rating": 7.7
            }
      ],
      "context": {
            "geo_bounds": {
                  "circle": {
                        "center": {
                              "latitude": 45.51586835,
                              "longitude": -73.56008381
                        },
                        "radius": 1000
                  }
            }
      }
}