{
      "results": [
            {
                  "distance": 914,
                  "location": {
                        "address": "7999 des Galeries d'Anjou Blvd",
                        "address_extended": "Galeries D'Anjou",
                        "country": "CA",
                        "cross_street": "",
                        "formatted_address": "7999 des Galeries d'Anjou Blvd, Anjou QC H1M 1W9",
                        "locality": "Anjou",
                        "postcode": "H1M 1W9",
                        "region": "QC"
                  },
                  "name": "La Belle & la Boeuf",
                  "popularity": 0.9904073618470856,
                  "price": 1,
                  "rating": 7.4
            },
            {
                  "distance": 770,
                  "location": {
                        "address": "6400 Jean-Talon Rue E",
                        "country": "CA",
                        "cross_street": "Boul. Langelier",
                        "formatted_address": "6400 Jean-Talon Rue E (Boul. Langelier), Montr\u00e9al QC H1S 1M8",
                        "locality": "Montreal",
                        "postcode": "H1S 1M8",
                        "region": "QC"
                  },
                  "name": "Dejeuner Eggcetera",
                  "popularity": 0.906545704012112,
                  "price": 1,
                  "rating": 7.2
            },
            {
                  "distance": 916,
                  "location": {
                        "address": "6675 Jean-Talon Rue E",
                        "country": "CA",
                        "cross_street": "",
                        "formatted_address": "6675 Jean-Talon Rue E, Montr\u00e9al QC H1S 1N2",
                        "locality": "Montreal",
                        "postcode": "H1S 1N2",
                        "region": "QC"
                  },
                  "name": "R\u00f4tisserie Scores",
                  "popularity": 0.9697199091597275,
                  "price": 2,
                  "rating": 7.2,
                  "store_id": "SC_14"
            },
            {
                  "distance": 634,
                  "location": {
                        "address": "7225 des Galeries d'Anjou Blvd",
                        "country": "CA",
                        "cross_street": "rue Saint-Zotique",
                        "formatted_address": "7225 des Galeries d'Anjou Blvd (rue Saint-Zotique), Anjou QC H1M 2W2",
                        "locality": "Anjou",
                        "postcode": "H1M 2W2",
                        "region": "QC"
                  },
                  "name": "Les 3 Brasseurs",
                  "popularity": 0.9852502838758517,
                  "price": 2,
                  "rating": 7.1
            },
            {
                  "distance": 506,
                  "location": {
                        "address": "7265 Langelier Blvd",
                        "country": "CA",
                        "cross_street": "B\u00e9langer",
                        "formatted_address": "7265 Langelier Blvd (B\u00e9langer), Montr\u00e9al QC H1S 1V6",
                        "locality": "Montreal",
                        "postcode": "H1S 1V6",
                        "region": "QC"
                  },
                  "name": "L'Oeuf Dor\u00e9",
                  "popularity": 0.9489141748675246,
                  "price": 1,
                  "rating": 7.1
            },
            {
                  "distance": 798,
                  "location": {
                        "address": "6836A7 Jean Talon Rue E",
                        "country": "CA",
                        "formatted_address": "6836A7 Jean Talon Rue E, Montr\u00e9al QC H1S 1N1",
                        "locality": "Montreal",
                        "postcode": "H1S 1N1",
                        "region": "QC"
                  },
                  "name": "Ottavio",
                  "popularity": 0.9963924110522332,
                  "price": 2,
                  "rating": 6.8
            },
            {
                  "distance": 679,
                  "location": {
                        "address": "7295 des Galeries-Danjou Blvd",
                        "country": "CA",
                        "formatted_address": "7295 des Galeries-Danjou Blvd, Anjou QC H1M 2W2",
                        "locality": "Anjou",
                        "postcode": "H1M 2W2",
                        "region": "QC"
                  },
                  "name": "Tim Hortons",
                  "popularity": 0.968773656320969,
                  "price": 1,
                  "rating": 6.6
            },
            {
                  "distance": 873,
                  "location": {
                        "address": "6420 Beaulieu Rue",
                        "country": "CA",
                        "cross_street": "",
                        "formatted_address": "6420 Beaulieu Rue, Montr\u00e9al QC H4E 3G1",
                        "locality": "Montreal",
                        "postcode": "H4E 3G1",
                        "region": "QC"
                  },
                  "name": "KFC",
                  "popularity": 0.9768641180923543,
                  "price": 1,
                  "rating": 6.2,
                  "store_id": "1112"
            },
            {
                  "distance": 667,
                  "location": {
                        "address": "7373 Langelier Blvd",
                        "address_extended": "Suite C-1",
                        "country": "CA",
                        "cross_street": "Jean-Talon",
                        "formatted_address": "7373 Langelier Blvd (Jean-Talon), Saint-Leonard QC H1S 1V7",
                        "locality": "Saint-L\u00e9onard",
                        "postcode": "H1S 1V7",
                        "region": "QC"
                  },
                  "name": "Subway",
                  "popularity": 0.9621853709311128,
                  "price": 1,
                  "rating": 6.1,
                  "store_id": "#16293"
            },
            {
                  "distance": 640,
                  "location": {
                        "address": "7275 des Galeries d'Anjou Blvd",
                        "country": "CA",
                        "cross_street": "",
                        "formatted_address": "7275 des Galeries d'Anjou Blvd, Anjou QC H1M 2W2",
                        "locality": "Anjou",
                        "postcode": "H1M 2W2",
                        "region": "QC"
                  },
                  "name": "Restaurant l'Acad\u00e9mie",
                  "popularity": 0.9766630393641181,
                  "price": 3,
                  "rating": 5.8
            },
            {
                  "distance": 627,
                  "location": {
                        "address": "7101 des Galeries d'Anjou Blvd",
                        "country": "CA",
                        "cross_street": "",
                        "formatted_address": "7101 des Galeries d'Anjou Blvd, Anjou QC H1M 2W2",
                        "locality": "Anjou",
                        "postcode": "H1M 2W2",
                        "region": "QC"
                  },
                  "name": "McDonald's",
                  "popularity": 0.9848717827403483,
                  "price": 1,
                  "rating": 5.2
            },
            {
                  "distance": 366,
                  "location": {
                        "address": "6600 Beaubien Rue E",
                        "country": "CA",
                        "cross_street": "Langelier",
                        "formatted_address": "6600 Beaubien Rue E (Langelier), Montreal QC",
                        "locality": "Montreal",
                        "region": "QC"
                  },
                  "name": "Pizza 4 Fr\u00e8res",
                  "popularity": 0.9765211014383043,
                  "price": 1
            },
            {
                  "distance": 514,
                  "location": {
                        "address": "6460 Beaubien Rue E",
                        "country": "CA",
                        "cross_street": "",
                        "formatted_address": "6460 Beaubien Rue E, Montr\u00e9al QC H1M 1A9",
                        "locality": "Montreal",
                        "postcode": "H1M 1A9",
                        "region": "QC"
                  },
                  "name": "Oishii Sushi",
                  "popularity": 0.8567254920514762,
                  "price": 2
            },
            {
                  "distance": 657,
                  "location": {
                        "address": "7270 Saint Zotique Rue E",
                        "country": "CA",
                        "cross_street": "",
                        "formatted_address": "7270 Saint Zotique Rue E, Anjou QC H1M 3A5",
                        "locality": "Anjou",
                        "postcode": "H1M 3A5",
                        "region": "QC"
                  },
                  "name": "Gringos",
                  "popularity": 0.06006339894019682,
                  "price": 2
            },
            {
                  "distance": 766,
                  "location": {
                        "address": "6878 Jean-Talon Rue E",
                        "country": "CA",
                        "cross_street": "",
                        "formatted_address": "6878 Jean-Talon Rue E, Montr\u00e9al QC H1S 1N1",
                        "locality": "Montreal",
                        "postcode": "H1S 1N1",
                        "region": "QC"
                  },
                  "name": "Maison Istanbul",
                  "popularity": 0.9453538985616957,
                  "price": 2
            },
            {
                  "distance": 811,
                  "location": {
                        "address": "6683 Jean-Talon Rue E",
                        "country": "CA",
                        "cross_street": "",
                        "formatted_address": "6683 Jean-Talon Rue E, Saint-Leonard QC H1S 0A5",
                        "locality": "Saint-L\u00e9onard",
                        "postcode": "H1S 0A5",
                        "region": "QC"
                  },
                  "name": "Bacaro Pizzeria",
                  "popularity": 0.7629518357305072,
                  "price": 2
            },
            {
                  "distance": 814,
                  "location": {
                        "address": "7500 des Galeries-Danjou Blvd",
                        "country": "CA",
                        "cross_street": "",
                        "formatted_address": "7500 des Galeries-Danjou Blvd, Anjou QC H1M 3M4",
                        "locality": "Anjou",
                        "postcode": "H1M 3M4",
                        "region": "QC"
                  },
                  "name": "Tim Hortons",
                  "popularity": 0.929172975018925,
                  "price": 2
            },
            {
                  "distance": 853,
                  "location": {
                        "address": "7500 des Galeries d'Anjou Blvd",
                        "address_extended": "Bureau 18",
                        "country": "CA",
                        "cross_street": "",
                        "formatted_address": "7500 des Galeries d'Anjou Blvd, Anjou QC H1M 3M4",
                        "locality": "Anjou",
                        "postcode": "H1M 3M4",
                        "region": "QC"
                  },
                  "name": "Pastafresca",
                  "popularity": 0.7110262112036336
            },
            {
                  "distance": 920,
                  "location": {
                        "address": "6683 Jean-Talon Rue E",
                        "country": "CA",
                        "cross_street": "",
                        "formatted_address": "6683 Jean-Talon Rue E, Montr\u00e9al QC H1S 0A5",
                        "locality": "Montreal",
                        "postcode": "H1S 0A5",
                        "region": "QC"
                  },
                  "name": "Sushi Shop",
                  "popularity": 0.11552564345193035,
                  "price": 2
            },
            {
                  "distance": 928,
                  "location": {
                        "address": "6669 Jean-Talon Rue E",
                        "country": "CA",
                        "cross_street": "",
                        "formatted_address": "6669 Jean-Talon Rue E, Saint-Leonard QC H1S 1N2",
                        "locality": "Saint-L\u00e9onard",
                        "postcode": "H1S 1N2",
                        "region": "QC"
                  },
                  "name": "Pizza Pizza",
                  "popularity": 0.22695874337623012,
                  "price": 1,
                  "store_id": "336"
            },
            {
                  "distance": 988,
                  "location": {
                        "address": "7999 des Galeries d'Anjou Blvd",
                        "address_extended": "Suite F001",
                        "country": "CA",
                        "cross_street": "",
                        "formatted_address": "7999 des Galeries d'Anjou Blvd, Anjou QC H1M 1W9",
                        "locality": "Anjou",
                        "postcode": "H1M 1W9",
                        "region": "QC"
                  },
                  "name": "Subway",
                  "popularity": 0.8240915972747919,
                  "price": 1,
                  "store_id": "18378"
            },
            {
                  "distance": 377,
                  "location": {
                        "address": "6589 Beaubien Rue E",
                        "country": "CA",
                        "formatted_address": "6589 Beaubien Rue E, Montreal QC H1M 1B1",
                        "locality": "Montreal",
                        "postcode": "H1M 1B1",
                        "region": "QC"
                  },
                  "name": "Gaufres & Glaces Beaubien"
            },
            {
                  "distance": 440,
                  "location": {
                        "address": "6530 Beaubien Rue E",
                        "country": "CA",
                        "formatted_address": "6530 Beaubien Rue E, Montreal QC H1M 1A9",
                        "locality": "Montreal",
                        "postcode": "H1M 1A9",
                        "region": "QC"
                  },
                  "name": "Tacos Nash"
            },
            {
                  "distance": 441,
                  "location": {
                        "address": "7065 Langelier Blvd",
                        "country": "CA",
                        "formatted_address": "7065 Langelier Blvd, Saint-Leonard QC H1S 1V6",
                        "locality": "Saint-Leonard",
                        "postcode": "H1S 1V6",
                        "region": "QC"
                  },
                  "name": "Pizza Hut"
            },
            {
                  "distance": 505,
                  "location": {
                        "address": "6488 Beaubien Rue E",
                        "country": "CA",
                        "formatted_address": "6488 Beaubien Rue E, Montreal QC H1M 1A9",
                        "locality": "Montreal",
                        "postcode": "H1M 1A9",
                        "region": "QC"
                  },
                  "name": "P\u00e2tisserie Lune de Miel"
            },
            {
                  "distance": 519,
                  "location": {
                        "address": "6459 Beaubien Rue E",
                        "country": "CA",
                        "formatted_address": "6459 Beaubien Rue E, Montreal QC H1M 1B1",
                        "locality": "Montreal",
                        "postcode": "H1M 1B1",
                        "region": "QC"
                  },
                  "name": "Charcuterie & Fromagerie Siena Canada Inc"
            },
            {
                  "distance": 623,
                  "location": {
                        "address": "7373 Langelier Blvd",
                        "country": "CA",
                        "formatted_address": "7373 Langelier Blvd, Saint-Leonard QC H1S 1V7",
                        "locality": "Saint-Leonard",
                        "postcode": "H1S 1V7",
                        "region": "QC"
                  },
                  "name": "Sultan Istanbul Kebab"
            },
            {
                  "distance": 635,
                  "location": {
                        "address": "6420 Beaulieu Rue",
                        "country": "CA",
                        "formatted_address": "6420 Beaulieu Rue, Montreal QC H4E 3G1",
                        "locality": "Montreal",
                        "postcode": "H4E 3G1",
                        "region": "QC"
                  },
                  "name": "Restaurant PFK"
            },
            {
                  "distance": 692,
                  "location": {
                        "address": "7373 Langelier Blvd",
                        "country": "CA",
                        "formatted_address": "7373 Langelier Blvd, Saint-Leonard QC H1S 1V7",
                        "locality": "Saint-Leonard",
                        "postcode": "H1S 1V7",
                        "region": "QC"
                  },
                  "name": "Cafe 2 M"
            },
            {
                  "distance": 695,
                  "location": {
                        "address": "6370 Beaubien Rue E",
                        "country": "CA",
                        "formatted_address": "6370 Beaubien Rue E, Montreal QC H1M 3G8",
                        "locality": "Montreal",
                        "postcode": "H1M 3G8",
                        "region": "QC"
                  },
                  "name": "Kaf\u00e9 Latt\u00e9"
            },
            {
                  "distance": 733,
                  "location": {
                        "address": "6872 Jean Talon Rue E",
                        "country": "CA",
                        "formatted_address": "6872 Jean Talon Rue E, Saint-Leonard QC H1S 1N1",
                        "locality": "Saint-Leonard",
                        "postcode": "H1S 1N1",
                        "region": "QC"
                  },
                  "name": "Restaurant Pesker\u00f4"
            },
            {
                  "distance": 764,
                  "location": {
                        "address": "7500 des Galeries d'Anjou Blvd",
                        "country": "CA",
                        "formatted_address": "7500 des Galeries d'Anjou Blvd, Anjou QC H1M 3M4",
                        "locality": "Anjou",
                        "postcode": "H1M 3M4",
                        "region": "QC"
                  },
                  "name": "Panetiere & Gourmet et Inc"
            },
            {
                  "distance": 764,
                  "location": {
                        "address": "7500 des Galeries d'Anjou Blvd",
                        "country": "CA",
                        "formatted_address": "7500 des Galeries d'Anjou Blvd, Anjou QC H1M 3M4",
                        "locality": "Anjou",
                        "postcode": "H1M 3M4",
                        "region": "QC"
                  },
                  "name": "le Panatiere et le Gourment E T Inc"
            },
            {
                  "distance": 764,
                  "location": {
                        "address": "H2Y Montreal",
                        "country": "CA",
                        "formatted_address": "H2Y Montreal, Montreal QC H1M 3M4",
                        "locality": "Montreal",
                        "postcode": "H1M 3M4",
                        "region": "QC"
                  },
                  "name": "D\u00e9li-Plus Express"
            },
            {
                  "distance": 782,
                  "location": {
                        "address": "7373 Langelier Blvd",
                        "country": "CA",
                        "formatted_address": "7373 Langelier Blvd, Saint-Leonard QC H1S 1V7",
                        "locality": "Saint-Leonard",
                        "postcode": "H1S 1V7",
                        "region": "QC"
                  },
                  "name": "Caf\u00e9 Langelier"
            }
      ],
      "context": {
            "geo_bounds": {
                  "circle": {
                        "center": {
                              "latitude": 45.59145499,
                              "longitude": -73.56275529
                        },
                        "radius": 1000
                  }
            }
      }
}