{
      "results": [
            {
                  "distance": 693,
                  "location": {
                        "address": "1228 Sherbrooke Rue O",
                        "country": "CA",
                        "cross_street": "entre Drummond & De la Montagne",
                        "formatted_address": "1228 Sherbrooke Rue O (entre Drummond & De la Montagne), Montr\u00e9al QC H3G 1H6",
                        "locality": "Montreal",
                        "postcode": "H3G 1H6",
                        "region": "QC"
                  },
                  "name": "Maison Boulud",
                  "popularity": 0.9380914080242241,
                  "price": 4,
                  "rating": 9.1
            },
            {
                  "distance": 503,
                  "location": {
                        "address": "2067 Crescent Rue",
                        "country": "CA",
                        "cross_street": "",
                        "formatted_address": "2067 Crescent Rue, Montr\u00e9al QC H3G 2C1",
                        "locality": "Montreal",
                        "postcode": "H3G 2C1",
                        "region": "QC"
                  },
                  "name": "Mandy's",
                  "popularity": 0.9813233345950038,
                  "price": 2,
                  "rating": 9.0
            },
            {
                  "distance": 755,
                  "location": {
                        "address": "1206 Stanley Rue",
                        "country": "CA",
                        "cross_street": "entre Ren\u00e9-L\u00e9vesque & Ste-Catherine",
                        "formatted_address": "1206 Stanley Rue (entre Ren\u00e9-L\u00e9vesque & Ste-Catherine), Montr\u00e9al QC H3B 2S7",
                        "locality": "Montreal",
                        "postcode": "H3B 2S7",
                        "region": "QC"
                  },
                  "name": "Melk Bar a Caf\u00e9",
                  "popularity": 0.9670704012112036,
                  "price": 2,
                  "rating": 9.0
            },
            {
                  "distance": 691,
                  "location": {
                        "address": "4006 Sainte-Catherine Rue O",
                        "country": "CA",
                        "cross_street": "coin Atwater",
                        "formatted_address": "4006 Sainte-Catherine Rue O (coin Atwater), Westmount QC H3Z 1P2",
                        "locality": "Westmount",
                        "postcode": "H3Z 1P2",
                        "region": "QC"
                  },
                  "name": "Imadake",
                  "popularity": 0.9621822690638562,
                  "price": 2,
                  "rating": 8.7
            },
            {
                  "distance": 587,
                  "location": {
                        "address": "2051 Rue de la Montagne",
                        "country": "CA",
                        "cross_street": "entre De Maisonneuve & Sherbrooke",
                        "formatted_address": "2051 Rue de la Montagne (entre De Maisonneuve & Sherbrooke), Montr\u00e9al QC H3G 1Z8",
                        "locality": "Montreal",
                        "postcode": "H3G 1Z8",
                        "region": "QC"
                  },
                  "name": "Leaves Cafe",
                  "popularity": 0.9357494322482968,
                  "price": 1,
                  "rating": 8.7
            },
            {
                  "distance": 806,
                  "location": {
                        "address": "1116 Sainte-Catherine Rue O",
                        "country": "CA",
                        "cross_street": "Peel",
                        "formatted_address": "1116 Sainte-Catherine Rue O (Peel), Montr\u00e9al QC H3B 1H4",
                        "locality": "Montreal",
                        "postcode": "H3B 1H4",
                        "region": "QC"
                  },
                  "name": "Reuben's Deli",
                  "popularity": 0.9828136828160484,
                  "price": 2,
                  "rating": 8.6
            },
            {
                  "distance": 381,
                  "location": {
                        "address": "1504 Sherbrooke Rue O",
                        "country": "CA",
                        "cross_street": "",
                        "formatted_address": "1504 Sherbrooke Rue O, Montr\u00e9al QC H3G 1L3",
                        "locality": "Montreal",
                        "postcode": "H3G 1L3",
                        "region": "QC"
                  },
                  "name": "Ristorante Beatrice",
                  "popularity": 0.9627058099924299,
                  "price": 3,
                  "rating": 8.6
            },
            {
                  "distance": 463,
                  "location": {
                        "address": "1255 Crescent Rue",
                        "country": "CA",
                        "cross_street": "Sainte-Catherine",
                        "formatted_address": "1255 Crescent Rue (Sainte-Catherine), Montr\u00e9al QC H3G 2B1",
                        "locality": "Montreal",
                        "postcode": "H3G 2B1",
                        "region": "QC"
                  },
                  "name": "Gyu-Kaku BBQ",
                  "popularity": 0.9762253974261923,
                  "price": 2,
                  "rating": 8.6,
                  "store_id": "14142"
            },
            {
                  "distance": 448,
                  "location": {
                        "address": "1448 Sherbrooke Rue O",
                        "country": "CA",
                        "formatted_address": "1448 Sherbrooke Rue O, Montr\u00e9al QC H3G 1K4",
                        "locality": "Montreal",
                        "postcode": "H3G 1K4",
                        "region": "QC"
                  },
                  "name": "Cafe Aunja",
                  "popularity": 0.9581401400454201,
                  "price": 1,
                  "rating": 8.6
            },
            {
                  "distance": 633,
                  "location": {
                        "address": "2175 rue de la Montagne",
                        "address_extended": "# 100",
                        "country": "CA",
                        "cross_street": "",
                        "formatted_address": "2175 rue de la Montagne, Montr\u00e9al QC H3G 1Z8",
                        "locality": "Montreal",
                        "postcode": "H3G 1Z8",
                        "region": "QC"
                  },
                  "name": "Bar Cloakroom",
                  "popularity": 0.9470216691900075,
                  "price": 3,
                  "rating": 8.5
            },
            {
                  "distance": 434,
                  "location": {
                        "address": "1388 Blvd de Maisonneuve O",
                        "country": "CA",
                        "cross_street": "",
                        "formatted_address": "1388 Blvd de Maisonneuve O, Montr\u00e9al QC H3G 0C8",
                        "locality": "Montreal",
                        "postcode": "H3G 0C8",
                        "region": "QC"
                  },
                  "name": "Notre-Boeuf-de-Gr\u00e2ce",
                  "popularity": 0.9788394208932627,
                  "price": 1,
                  "rating": 8.4
            },
            {
                  "distance": 671,
                  "location": {
                        "address": "1224 Drummond Rue",
                        "country": "CA",
                        "cross_street": "",
                        "formatted_address": "1224 Drummond Rue, Montr\u00e9al QC H3G 1V7",
                        "locality": "Montreal",
                        "postcode": "H3G 1V7",
                        "region": "QC"
                  },
                  "name": "Restaurant Medusa",
                  "popularity": 0.9541895344436033,
                  "price": 2,
                  "rating": 8.3
            },
            {
                  "distance": 284,
                  "location": {
                        "address": "1254 MacKay Rue",
                        "country": "CA",
                        "formatted_address": "1254 MacKay Rue, Montr\u00e9al QC H3G 2H4",
                        "locality": "Montreal",
                        "postcode": "H3G 2H4",
                        "region": "QC"
                  },
                  "name": "Upstairs Jazz Bar & Grill",
                  "popularity": 0.9743210635881908,
                  "rating": 8.3
            },
            {
                  "distance": 286,
                  "location": {
                        "address": "1238 MacKay Rue",
                        "country": "CA",
                        "cross_street": "South of Sainte-catherine",
                        "formatted_address": "1238 MacKay Rue (South of Sainte-catherine), Montr\u00e9al QC H3G 2H4",
                        "locality": "Montreal",
                        "postcode": "H3G 2H4",
                        "region": "QC"
                  },
                  "name": "Garage Beirut",
                  "popularity": 0.9214373580620742,
                  "rating": 8.3
            },
            {
                  "distance": 172,
                  "location": {
                        "address": "1626 Blvd de Maisonneuve Ouest",
                        "country": "CA",
                        "cross_street": "",
                        "formatted_address": "1626 Blvd de Maisonneuve Ouest, Montr\u00e9al QC H3H 1J5",
                        "locality": "Montreal",
                        "postcode": "H3H 1J5",
                        "region": "QC"
                  },
                  "name": "Antep Kabab",
                  "popularity": 0.9862201930355791,
                  "price": 1,
                  "rating": 8.3
            },
            {
                  "distance": 657,
                  "location": {
                        "address": "1440 Drummond Rue",
                        "country": "CA",
                        "cross_street": "",
                        "formatted_address": "1440 Drummond Rue, Montr\u00e9al QC H3G 1V9",
                        "locality": "Montreal",
                        "postcode": "H3G 1V9",
                        "region": "QC"
                  },
                  "name": "Bar George",
                  "popularity": 0.9693768925056775,
                  "price": 3,
                  "rating": 8.3
            },
            {
                  "distance": 349,
                  "location": {
                        "address": "1612 Sherbrooke Rue O",
                        "country": "CA",
                        "cross_street": "",
                        "formatted_address": "1612 Sherbrooke Rue O, Montr\u00e9al QC H3H 1C9",
                        "locality": "Montreal",
                        "postcode": "H3H 1C9",
                        "region": "QC"
                  },
                  "name": "Chez Hailar",
                  "popularity": 0.9650241294473884,
                  "price": 2,
                  "rating": 8.3
            },
            {
                  "distance": 597,
                  "location": {
                        "address": "1189 Rue de la Montagne",
                        "country": "CA",
                        "cross_street": "at Ren\u00e9-Levesque",
                        "formatted_address": "1189 Rue de la Montagne (at Ren\u00e9-Levesque), Montr\u00e9al QC H3G 1Z2",
                        "locality": "Montreal",
                        "postcode": "H3G 1Z2",
                        "region": "QC"
                  },
                  "name": "Ye Olde Orchard Pub & Grill",
                  "popularity": 0.9698855034065103,
                  "price": 2,
                  "rating": 8.3
            },
            {
                  "distance": 392,
                  "location": {
                        "address": "1255 Bishop Rue",
                        "country": "CA",
                        "cross_street": "",
                        "formatted_address": "1255 Bishop Rue, Montr\u00e9al QC H3G 2E2",
                        "locality": "Montreal",
                        "postcode": "H3G 2E2",
                        "region": "QC"
                  },
                  "name": "C'Cho-Colat",
                  "popularity": 0.9571110900832702,
                  "price": 1,
                  "rating": 8.2
            },
            {
                  "distance": 464,
                  "location": {
                        "address": "2020 Crescent Rue",
                        "address_extended": "coin Maisonneuve",
                        "country": "CA",
                        "cross_street": "coin Maisonneuve",
                        "formatted_address": "2020 Crescent Rue (coin Maisonneuve), Montr\u00e9al QC H3G 2B8",
                        "locality": "Montreal",
                        "postcode": "H3G 2B8",
                        "region": "QC"
                  },
                  "name": "Restaurant Boustan",
                  "popularity": 0.9724049015897047,
                  "price": 1,
                  "rating": 8.2
            },
            {
                  "distance": 95,
                  "location": {
                        "address": "1441 Saint Mathieu Rue",
                        "country": "CA",
                        "cross_street": "entre De Maisonneuve & Ste-Catherine",
                        "formatted_address": "1441 Saint Mathieu Rue (entre De Maisonneuve & Ste-Catherine), Montr\u00e9al QC H3H 2M4",
                        "locality": "Montreal",
                        "postcode": "H3H 2M4",
                        "region": "QC"
                  },
                  "name": "Otto Yakitori Izakaya",
                  "popularity": 0.9624337623012869,
                  "price": 2,
                  "rating": 8.2
            },
            {
                  "distance": 461,
                  "location": {
                        "address": "1356 Sainte-Catherine Rue O",
                        "country": "CA",
                        "cross_street": "coin Crescent",
                        "formatted_address": "1356 Sainte-Catherine Rue O (coin Crescent), Montr\u00e9al QC H3G 1P6",
                        "locality": "Montreal",
                        "postcode": "H3G 1P6",
                        "region": "QC"
                  },
                  "name": "Les 3 Brasseurs",
                  "popularity": 0.9850728614685844,
                  "price": 2,
                  "rating": 8.2
            },
            {
                  "distance": 838,
                  "location": {
                        "address": "1472 Peel Rue",
                        "country": "CA",
                        "cross_street": "coin De Maisonneuve",
                        "formatted_address": "1472 Peel Rue (coin De Maisonneuve), Montr\u00e9al QC H3A 1S8",
                        "locality": "Montreal",
                        "postcode": "H3A 1S8",
                        "region": "QC"
                  },
                  "name": "Cafe Vasco Da Gama",
                  "popularity": 0.9501561317183952,
                  "price": 2,
                  "rating": 8.2
            },
            {
                  "distance": 192,
                  "location": {
                        "address": "1515 Sainte-Catherine Rue O",
                        "country": "CA",
                        "cross_street": "boul. de Maisonneuve",
                        "formatted_address": "1515 Sainte-Catherine Rue O (boul. de Maisonneuve), Montr\u00e9al QC H3G 2W1",
                        "locality": "Montreal",
                        "postcode": "H3G 2W1",
                        "region": "QC"
                  },
                  "name": "Jugo Juice",
                  "popularity": 0.9863976154428463,
                  "price": 1,
                  "rating": 8.2
            },
            {
                  "distance": 463,
                  "location": {
                        "address": "1434 Crescent Rue",
                        "country": "CA",
                        "cross_street": "Rue Sainte-Catherine Ouest",
                        "formatted_address": "1434 Crescent Rue (Rue Sainte-Catherine Ouest), Montr\u00e9al QC H3G 2B6",
                        "locality": "Montreal",
                        "postcode": "H3G 2B6",
                        "region": "QC"
                  },
                  "name": "Wienstein & Gavino's",
                  "popularity": 0.974179125662377,
                  "price": 2,
                  "rating": 8.0
            },
            {
                  "distance": 172,
                  "location": {
                        "address": "1909 Sainte-Catherine Rue O",
                        "country": "CA",
                        "cross_street": "St-Marc Street",
                        "formatted_address": "1909 Sainte-Catherine Rue O (St-Marc Street), Montr\u00e9al QC H3H 1M3",
                        "locality": "Montreal",
                        "postcode": "H3H 1M3",
                        "region": "QC"
                  },
                  "name": "Sammi & Soupe Dumpling",
                  "popularity": 0.9820921650264951,
                  "price": 1,
                  "rating": 8.0
            },
            {
                  "distance": 572,
                  "location": {
                        "address": "1325 Blvd Ren\u00e9-L\u00e9vesque O",
                        "country": "CA",
                        "cross_street": "",
                        "formatted_address": "1325 Blvd Ren\u00e9-L\u00e9vesque O, Montr\u00e9al QC H3G 0A1",
                        "locality": "Montreal",
                        "postcode": "H3G 0A1",
                        "region": "QC"
                  },
                  "name": "Siam",
                  "popularity": 0.9710564912944739,
                  "price": 2,
                  "rating": 8.0
            },
            {
                  "distance": 295,
                  "location": {
                        "address": "1244 MacKay Rue",
                        "country": "CA",
                        "cross_street": "entre St-Catherine & Ren\u00e9-L\u00e9vesque",
                        "formatted_address": "1244 MacKay Rue (entre St-Catherine & Ren\u00e9-L\u00e9vesque), Montr\u00e9al QC H3G 2H4",
                        "locality": "Montreal",
                        "postcode": "H3G 2H4",
                        "region": "QC"
                  },
                  "name": "N sur Mackay",
                  "popularity": 0.951208838001514,
                  "price": 3,
                  "rating": 7.9
            },
            {
                  "distance": 199,
                  "location": {
                        "address": "2000 Guy Rue",
                        "country": "CA",
                        "cross_street": "coin de Maisonneuve",
                        "formatted_address": "2000 Guy Rue (coin de Maisonneuve), Montr\u00e9al QC H3H 2L8",
                        "locality": "Montreal",
                        "postcode": "H3H 2L8",
                        "region": "QC"
                  },
                  "name": "Starbucks",
                  "popularity": 0.9943106548069645,
                  "price": 2,
                  "rating": 7.8,
                  "store_id": "4056-140777"
            },
            {
                  "distance": 133,
                  "location": {
                        "address": "1684 Blvd Maisonneuve Ouest",
                        "country": "CA",
                        "cross_street": "St. Mathieu",
                        "formatted_address": "1684 Blvd Maisonneuve Ouest (St. Mathieu), Montr\u00e9al QC H3H 1J7",
                        "locality": "Montreal",
                        "postcode": "H3H 1J7",
                        "region": "QC"
                  },
                  "name": "All\u00f4! Mon Coco",
                  "popularity": 0.9630843111279334,
                  "price": 1,
                  "rating": 7.8
            },
            {
                  "distance": 718,
                  "location": {
                        "address": "1221 Rene-Levesque Blvd O",
                        "country": "CA",
                        "cross_street": "coin Drummond",
                        "formatted_address": "1221 Rene-Levesque Blvd O (coin Drummond), Montr\u00e9al QC H3G 1T1",
                        "locality": "Montreal",
                        "postcode": "H3G 1T1",
                        "region": "QC"
                  },
                  "name": "Bier Markt",
                  "popularity": 0.9826244322482968,
                  "price": 2,
                  "rating": 7.7,
                  "store_id": "4862"
            },
            {
                  "distance": 300,
                  "location": {
                        "address": "2002 MacKay Rue",
                        "country": "CA",
                        "cross_street": "De Maisonneuve",
                        "formatted_address": "2002 MacKay Rue (De Maisonneuve), Montr\u00e9al QC H3G 2J1",
                        "locality": "Montreal",
                        "postcode": "H3G 2J1",
                        "region": "QC"
                  },
                  "name": "Hinnawi Bros Bagel & Caf\u00e9",
                  "popularity": 0.97194360333081,
                  "price": 1,
                  "rating": 7.7
            },
            {
                  "distance": 428,
                  "location": {
                        "address": "2065A Bishop Rue",
                        "country": "CA",
                        "cross_street": "",
                        "formatted_address": "2065A Bishop Rue, Montr\u00e9al QC H3G 2E8",
                        "locality": "Montreal",
                        "postcode": "H3G 2E8",
                        "region": "QC"
                  },
                  "name": "Ramen Misoya",
                  "popularity": 0.9683360143830432,
                  "price": 2,
                  "rating": 7.7
            },
            {
                  "distance": 764,
                  "location": {
                        "address": "3450 Drummond Rue",
                        "country": "CA",
                        "cross_street": "Sherbrooke",
                        "formatted_address": "3450 Drummond Rue (Sherbrooke), Montr\u00e9al QC H3G 1Y2",
                        "locality": "Montreal",
                        "postcode": "H3G 1Y2",
                        "region": "QC"
                  },
                  "name": "Sakura Garden Restaurant",
                  "popularity": 0.9422312641937926,
                  "price": 2,
                  "rating": 7.7
            },
            {
                  "distance": 491,
                  "location": {
                        "address": "1219 Crescent Rue",
                        "country": "CA",
                        "cross_street": "entre Ste-Catherine & Ren\u00e9-L\u00e9vesque",
                        "formatted_address": "1219 Crescent Rue (entre Ste-Catherine & Ren\u00e9-L\u00e9vesque), Montr\u00e9al QC H3G 2B1",
                        "locality": "Montreal",
                        "postcode": "H3G 2B1",
                        "region": "QC"
                  },
                  "name": "Brutopia",
                  "popularity": 0.9817609765329296,
                  "price": 1,
                  "rating": 7.7
            }
      ],
      "context": {
            "geo_bounds": {
                  "circle": {
                        "center": {
                              "latitude": 45.4938469,
                              "longitude": -73.57917845
                        },
                        "radius": 1000
                  }
            }
      }
}