{
      "results": [
            {
                  "distance": 793,
                  "location": {
                        "address": "510 Prom du Centropolis",
                        "country": "CA",
                        "cross_street": "at Daniel-Johnson",
                        "formatted_address": "510 Prom du Centropolis (at Daniel-Johnson), Laval QC H7T 3C2",
                        "locality": "Laval",
                        "postcode": "H7T 3C2",
                        "region": "QC"
                  },
                  "name": "La Belle et la Boeuf",
                  "popularity": 0.9310898866375078,
                  "price": 2,
                  "rating": 8.0
            },
            {
                  "distance": 767,
                  "location": {
                        "address": "525 Prom du Centropolis",
                        "country": "CA",
                        "cross_street": "",
                        "formatted_address": "525 Prom du Centropolis, Laval QC H7T 0A3",
                        "locality": "Laval",
                        "postcode": "H7T 0A3",
                        "region": "QC"
                  },
                  "name": "Juliette & Chocolat",
                  "popularity": 0.8844059626885655,
                  "price": 1,
                  "rating": 7.9
            },
            {
                  "distance": 654,
                  "location": {
                        "address": "2900 Pierre-Peladeau Ave",
                        "country": "CA",
                        "cross_street": "au Centropolis",
                        "formatted_address": "2900 Pierre-Peladeau Ave (au Centropolis), Laval QC H7T 3B3",
                        "locality": "Laval",
                        "postcode": "H7T 3B3",
                        "region": "QC"
                  },
                  "name": "Les 3 Brasseurs",
                  "popularity": 0.9557261447826475,
                  "price": 2,
                  "rating": 7.9
            },
            {
                  "distance": 719,
                  "location": {
                        "address": "195 Promemade du Centropolis",
                        "country": "CA",
                        "cross_street": "at Daniel-Johnson",
                        "formatted_address": "195 Promemade du Centropolis (at Daniel-Johnson), Laval QC H7T 0B3",
                        "locality": "Laval",
                        "postcode": "H7T 0B3",
                        "region": "QC"
                  },
                  "name": "Le Balthazar",
                  "popularity": 0.9842006605373561,
                  "price": 1,
                  "rating": 7.6
            },
            {
                  "distance": 719,
                  "location": {
                        "address": "3035 le Carref Blvd",
                        "address_extended": "Carrefour Laval",
                        "country": "CA",
                        "formatted_address": "3035 le Carref Blvd, Laval QC H7T 1C8",
                        "locality": "Laval",
                        "postcode": "H7T 1C8",
                        "region": "QC"
                  },
                  "name": "Table 51",
                  "popularity": 0.9831295188788717,
                  "price": 4,
                  "rating": 7.4
            },
            {
                  "distance": 780,
                  "location": {
                        "address": "200 Prom du Centropolis",
                        "country": "CA",
                        "cross_street": "",
                        "formatted_address": "200 Prom du Centropolis, Laval QC H7T 2Z6",
                        "locality": "Laval",
                        "postcode": "H7T 2Z6",
                        "region": "QC"
                  },
                  "name": "Les Enfants Terribles",
                  "popularity": 0.9160046416138534,
                  "rating": 7.4
            },
            {
                  "distance": 474,
                  "location": {
                        "address": "3035 le Carref Blvd",
                        "country": "CA",
                        "cross_street": "",
                        "formatted_address": "3035 le Carref Blvd, Laval QC H7T 1C8",
                        "locality": "Laval",
                        "postcode": "H7T 1C8",
                        "region": "QC"
                  },
                  "name": "La Cage - Brasserie Sportive",
                  "popularity": 0.964920110684638,
                  "price": 2,
                  "rating": 7.3
            },
            {
                  "distance": 509,
                  "location": {
                        "address": "2125 le Carref Blvd",
                        "country": "CA",
                        "cross_street": "boul. le Corbusier",
                        "formatted_address": "2125 le Carref Blvd (boul. le Corbusier), Laval QC H7S 2J7",
                        "locality": "Laval",
                        "postcode": "H7S 2J7",
                        "region": "QC"
                  },
                  "name": "Steak Frites St-Paul",
                  "popularity": 0.9071677229313577,
                  "price": 2,
                  "rating": 7.2
            },
            {
                  "distance": 736,
                  "location": {
                        "address": "505 Prom du Centropolis",
                        "country": "CA",
                        "cross_street": "Avenue Pierre P\u00e9ladeau",
                        "formatted_address": "505 Prom du Centropolis (Avenue Pierre P\u00e9ladeau), Laval QC H7T 0A3",
                        "locality": "Laval",
                        "postcode": "H7T 0A3",
                        "region": "QC"
                  },
                  "name": "Enoteca Monza Pizzeria Moderna",
                  "popularity": 0.9159153798089797,
                  "price": 2,
                  "rating": 7.1
            },
            {
                  "distance": 765,
                  "location": {
                        "address": "1820 Pierre-Peladeau Ave",
                        "country": "CA",
                        "cross_street": "",
                        "formatted_address": "1820 Pierre-Peladeau Ave, Laval QC H7T 2Z1",
                        "locality": "Laval",
                        "postcode": "H7T 2Z1",
                        "region": "QC"
                  },
                  "name": "Jack Astor's Bar & Grill",
                  "popularity": 0.9591180933678479,
                  "price": 2,
                  "rating": 6.9
            },
            {
                  "distance": 536,
                  "location": {
                        "address": "2121 le Carref Blvd",
                        "country": "CA",
                        "formatted_address": "2121 le Carref Blvd, Laval QC H7S 2J7",
                        "locality": "Laval",
                        "postcode": "H7S 2J7",
                        "region": "QC"
                  },
                  "name": "Giorgio",
                  "popularity": 0.8649468892261002,
                  "price": 2,
                  "rating": 6.8
            },
            {
                  "distance": 463,
                  "location": {
                        "address": "3035 le Carref Blvd",
                        "address_extended": "Carrefour Laval",
                        "country": "CA",
                        "formatted_address": "3035 le Carref Blvd, Laval QC H7T 1C8",
                        "locality": "Laval",
                        "postcode": "H7T 1C8",
                        "region": "QC"
                  },
                  "name": "B\u00e2ton Rouge Steakhouse & Bar",
                  "popularity": 0.9895563688297777,
                  "price": 2,
                  "rating": 6.8,
                  "store_id": "4018"
            },
            {
                  "distance": 442,
                  "location": {
                        "address": "3035 le Carref Blvd",
                        "address_extended": "CF Carrefour Laval",
                        "country": "CA",
                        "cross_street": "Quartier Gourmet",
                        "formatted_address": "3035 le Carref Blvd (Quartier Gourmet), Laval QC H7T 1C8",
                        "locality": "Laval",
                        "postcode": "H7T 1C8",
                        "region": "QC"
                  },
                  "name": "Thai Express",
                  "popularity": 0.8030884584486299,
                  "price": 2,
                  "rating": 6.7,
                  "store_id": "8"
            },
            {
                  "distance": 694,
                  "location": {
                        "address": "125 Prom du Centropolis",
                        "country": "CA",
                        "cross_street": "",
                        "formatted_address": "125 Prom du Centropolis, Laval QC H7T 0B3",
                        "locality": "Laval",
                        "postcode": "H7T 0B3",
                        "region": "QC"
                  },
                  "name": "Menchie's",
                  "popularity": 0.8610193698116576,
                  "price": 1,
                  "rating": 6.7
            },
            {
                  "distance": 996,
                  "location": {
                        "address": "2600 Daniel Johnson Blvd",
                        "address_extended": "Unit A01011A",
                        "country": "CA",
                        "cross_street": "",
                        "formatted_address": "2600 Daniel Johnson Blvd, Laval QC H7T 2K1",
                        "locality": "Laval",
                        "postcode": "H7T 2K1",
                        "region": "QC"
                  },
                  "name": "Subway",
                  "popularity": 0.9108274569311792,
                  "price": 1,
                  "rating": 6.3,
                  "store_id": "24688"
            },
            {
                  "distance": 896,
                  "location": {
                        "address": "1730 Pierre-Peladeau Ave",
                        "country": "CA",
                        "cross_street": "au Centropolis",
                        "formatted_address": "1730 Pierre-Peladeau Ave (au Centropolis), Laval QC H7T 2Z1",
                        "locality": "Laval",
                        "postcode": "H7T 2Z1",
                        "region": "QC"
                  },
                  "name": "L'Academie Restaurant",
                  "popularity": 0.917879139516201,
                  "price": 3,
                  "rating": 5.4
            },
            {
                  "distance": 806,
                  "location": {
                        "address": "1794 Pierre-Peladeau Ave",
                        "country": "CA",
                        "cross_street": "Centropolis",
                        "formatted_address": "1794 Pierre-Peladeau Ave (Centropolis), Laval QC H7T 2Z1",
                        "locality": "Laval",
                        "postcode": "H7T 2Z1",
                        "region": "QC"
                  },
                  "name": "Presse Caf\u00e9",
                  "popularity": 0.9289476033205392,
                  "price": 1,
                  "rating": 5.3
            },
            {
                  "distance": 160,
                  "location": {
                        "address": "2900 le Carref Blvd",
                        "country": "CA",
                        "cross_street": "",
                        "formatted_address": "2900 le Carref Blvd, Laval QC H7T 2K9",
                        "locality": "Laval",
                        "postcode": "H7T 2K9",
                        "region": "QC"
                  },
                  "name": "Chez Lionel",
                  "popularity": 0.9343925734178345,
                  "price": 2
            },
            {
                  "distance": 325,
                  "location": {
                        "address": "2225 des Laurentides (a-15 Desste E",
                        "country": "CA",
                        "cross_street": "",
                        "formatted_address": "2225 des Laurentides (a-15 Desste E, Laval QC H7S 1Z6",
                        "locality": "Laval",
                        "postcode": "H7S 1Z6",
                        "region": "QC"
                  },
                  "name": "Le Quartz",
                  "popularity": 0.8372757297152549,
                  "price": 3
            },
            {
                  "distance": 359,
                  "location": {
                        "address": "3035 le Carref Blvd",
                        "address_extended": "Carrefour Laval",
                        "country": "CA",
                        "cross_street": "",
                        "formatted_address": "3035 le Carref Blvd, Laval QC H7T 1C8",
                        "locality": "Laval",
                        "postcode": "H7T 1C8",
                        "region": "QC"
                  },
                  "name": "Copper Branch",
                  "popularity": 0.926359010979202,
                  "price": 2
            },
            {
                  "distance": 442,
                  "location": {
                        "address": "3035 le Carref Blvd",
                        "address_extended": "Carrefour Laval",
                        "country": "CA",
                        "cross_street": "",
                        "formatted_address": "3035 le Carref Blvd, Laval QC H7T 1C8",
                        "locality": "Laval",
                        "postcode": "H7T 1C8",
                        "region": "QC"
                  },
                  "name": "Manchu Wok",
                  "popularity": 0.8470052664464875,
                  "price": 1
            },
            {
                  "distance": 443,
                  "location": {
                        "address": "3035 le Carref Blvd",
                        "address_extended": "N-15",
                        "country": "CA",
                        "cross_street": "",
                        "formatted_address": "3035 le Carref Blvd, Laval QC H7T 1C8",
                        "locality": "Laval",
                        "postcode": "H7T 1C8",
                        "region": "QC"
                  },
                  "name": "KFC",
                  "popularity": 0.15477996965098634,
                  "price": 1,
                  "store_id": "1277"
            },
            {
                  "distance": 482,
                  "location": {
                        "address": "2133 le Carref Blvd",
                        "country": "CA",
                        "cross_street": "",
                        "formatted_address": "2133 le Carref Blvd, Laval QC H7S 2J7",
                        "locality": "Laval",
                        "postcode": "H7S 2J7",
                        "region": "QC"
                  },
                  "name": "Gon Bui Restaurant Bar",
                  "popularity": 0.8928858341515665,
                  "price": 1
            },
            {
                  "distance": 558,
                  "location": {
                        "address": "2888 Ave du Cosmod\u00f4me",
                        "country": "CA",
                        "cross_street": "",
                        "formatted_address": "2888 Ave du Cosmod\u00f4me, Laval QC H7T 2X1",
                        "locality": "Laval",
                        "postcode": "H7T 2X1",
                        "region": "QC"
                  },
                  "name": "Pizza Gourmande",
                  "popularity": 0.5411050611443363,
                  "price": 2
            },
            {
                  "distance": 629,
                  "location": {
                        "address": "3035 le Carref Blvd",
                        "country": "CA",
                        "cross_street": "",
                        "formatted_address": "3035 le Carref Blvd, Laval QC H7T 1C8",
                        "locality": "Laval",
                        "postcode": "H7T 1C8",
                        "region": "QC"
                  },
                  "name": "Souvlaki Bar Express - Carrefour Laval",
                  "popularity": 0.8243327680085691,
                  "price": 2
            },
            {
                  "distance": 656,
                  "location": {
                        "address": "2100 le Corbusier Blvd",
                        "address_extended": "# 7",
                        "country": "CA",
                        "formatted_address": "2100 le Corbusier Blvd, Laval QC H7S 2C9",
                        "locality": "Laval",
                        "postcode": "H7S 2C9",
                        "region": "QC"
                  },
                  "name": "Restaurant Charme Cochinchine",
                  "popularity": 0.8489690261537088,
                  "price": 2
            },
            {
                  "distance": 657,
                  "location": {
                        "address": "3035 le Carref Blvd",
                        "address_extended": "Carrefour Laval",
                        "country": "CA",
                        "cross_street": "",
                        "formatted_address": "3035 le Carref Blvd, Laval QC H7T 1C8",
                        "locality": "Laval",
                        "postcode": "H7T 1C8",
                        "region": "QC"
                  },
                  "name": "Zouki's",
                  "popularity": 0.19066321521021154,
                  "price": 2
            },
            {
                  "distance": 675,
                  "location": {
                        "address": "2405 le Corbusier Blvd",
                        "country": "CA",
                        "cross_street": "",
                        "formatted_address": "2405 le Corbusier Blvd, Laval QC H7S 1Z4",
                        "locality": "Laval",
                        "postcode": "H7S 1Z4",
                        "region": "QC"
                  },
                  "name": "La Belle Province",
                  "popularity": 0.9716147460501652,
                  "price": 1
            },
            {
                  "distance": 685,
                  "location": {
                        "address": "145 Prom du Centropolis",
                        "country": "CA",
                        "cross_street": "",
                        "formatted_address": "145 Prom du Centropolis, Laval QC H7T 0B3",
                        "locality": "Laval",
                        "postcode": "H7T 0B3",
                        "region": "QC"
                  },
                  "name": "Kiyomi",
                  "popularity": 0.7337320360617692,
                  "price": 2
            },
            {
                  "distance": 726,
                  "location": {
                        "address": "140 Prom du Centropolis",
                        "country": "CA",
                        "cross_street": "",
                        "formatted_address": "140 Prom du Centropolis, Laval QC H7T 2Z6",
                        "locality": "Laval",
                        "postcode": "H7T 2Z6",
                        "region": "QC"
                  },
                  "name": "Lov",
                  "popularity": 0.8920824779077033,
                  "price": 2
            },
            {
                  "distance": 745,
                  "location": {
                        "address": "142 Prom du Centropolis",
                        "country": "CA",
                        "cross_street": "",
                        "formatted_address": "142 Prom du Centropolis, Laval QC H7T 2Z6",
                        "locality": "Laval",
                        "postcode": "H7T 2Z6",
                        "region": "QC"
                  },
                  "name": "Mandy's",
                  "popularity": 0.9370704275640453,
                  "price": 1
            },
            {
                  "distance": 746,
                  "location": {
                        "address": "505 Prom du Centropolis",
                        "country": "CA",
                        "cross_street": "",
                        "formatted_address": "505 Prom du Centropolis, Laval QC H7T 0A3",
                        "locality": "Laval",
                        "postcode": "H7T 0A3",
                        "region": "QC"
                  },
                  "name": "Monza",
                  "popularity": 0.25680621262161923,
                  "price": 2
            },
            {
                  "distance": 748,
                  "location": {
                        "address": "150B du Centropolis Prom",
                        "country": "CA",
                        "cross_street": "",
                        "formatted_address": "150B du Centropolis Prom, Laval QC H7T 2Z6",
                        "locality": "Laval",
                        "postcode": "H7T 2Z6",
                        "region": "QC"
                  },
                  "name": "Caf\u00e9 Ricardo",
                  "popularity": 0.8523609747389093,
                  "price": 2
            },
            {
                  "distance": 759,
                  "location": {
                        "address": "540 Prom du Centropolis",
                        "country": "CA",
                        "cross_street": "",
                        "formatted_address": "540 Prom du Centropolis, Laval QC H7T 3C2",
                        "locality": "Laval",
                        "postcode": "H7T 3C2",
                        "region": "QC"
                  },
                  "name": "No 900",
                  "popularity": 0.9446576809783094,
                  "price": 1
            },
            {
                  "distance": 831,
                  "location": {
                        "address": "490 Prom du Centropolis",
                        "country": "CA",
                        "cross_street": "",
                        "formatted_address": "490 Prom du Centropolis, Laval QC H7T 3C2",
                        "locality": "Laval",
                        "postcode": "H7T 3C2",
                        "region": "QC"
                  },
                  "name": "Randolph Pub Ludique Centropolis",
                  "popularity": 0.937159689368919,
                  "price": 1
            }
      ],
      "context": {
            "geo_bounds": {
                  "circle": {
                        "center": {
                              "latitude": 45.56842035,
                              "longitude": -73.74687284
                        },
                        "radius": 1000
                  }
            }
      }
}