{
      "results": [
            {
                  "distance": 816,
                  "location": {
                        "address": "8803 Hochelaga Rue",
                        "country": "CA",
                        "cross_street": "Joffre",
                        "formatted_address": "8803 Hochelaga Rue (Joffre), Montr\u00e9al QC H1L 2N1",
                        "locality": "Montreal",
                        "postcode": "H1L 2N1",
                        "region": "QC"
                  },
                  "name": "Le Coq de l'Est 2015 Inc",
                  "popularity": 0.8620363361090083,
                  "price": 2,
                  "rating": 8.2
            },
            {
                  "distance": 495,
                  "location": {
                        "address": "8990 Sherbrooke Rue E",
                        "country": "CA",
                        "cross_street": "",
                        "formatted_address": "8990 Sherbrooke Rue E, Montr\u00e9al QC H1L 1C9",
                        "locality": "Montreal",
                        "postcode": "H1L 1C9",
                        "region": "QC"
                  },
                  "name": "Boulangerie MariePain",
                  "popularity": 0.9910933951551855,
                  "price": 1,
                  "rating": 7.9
            },
            {
                  "distance": 865,
                  "location": {
                        "address": "8670 Sherbrooke Rue E",
                        "country": "CA",
                        "cross_street": "",
                        "formatted_address": "8670 Sherbrooke Rue E, Montr\u00e9al QC H1L 1B9",
                        "locality": "Montreal",
                        "postcode": "H1L 1B9",
                        "region": "QC"
                  },
                  "name": "Le Grill Barroso",
                  "popularity": 0.8786194171082513,
                  "price": 2,
                  "rating": 7.4
            },
            {
                  "distance": 832,
                  "location": {
                        "address": "9900 Sherbrooke Rue E",
                        "country": "CA",
                        "cross_street": "Joseph-Versailles",
                        "formatted_address": "9900 Sherbrooke Rue E (Joseph-Versailles), Montreal-Est QC H1L 0B4",
                        "locality": "Montr\u00e9al-Est",
                        "postcode": "H1L 0B4",
                        "region": "QC"
                  },
                  "name": "Tim Hortons",
                  "popularity": 0.9894179894179894,
                  "price": 2,
                  "rating": 6.5
            },
            {
                  "distance": 818,
                  "location": {
                        "address": "5272 Sherbrooke Rue O",
                        "country": "CA",
                        "cross_street": "",
                        "formatted_address": "5272 Sherbrooke Rue O, Montr\u00e9al QC H4A 1T9",
                        "locality": "Montreal",
                        "postcode": "H4A 1T9",
                        "region": "QC"
                  },
                  "name": "KFC",
                  "popularity": 0.9679929977289932,
                  "price": 1,
                  "rating": 6.4
            },
            {
                  "distance": 370,
                  "location": {
                        "address": "9325 Sherbrooke St E",
                        "country": "CA",
                        "cross_street": "",
                        "formatted_address": "9325 Sherbrooke St E, Montr\u00e9al QC H1L 6P2",
                        "locality": "Montreal",
                        "postcode": "H1L 6P2",
                        "region": "QC"
                  },
                  "name": "Subway",
                  "popularity": 0.9523325132475398,
                  "price": 1,
                  "rating": 6.4,
                  "store_id": "26312"
            },
            {
                  "distance": 346,
                  "location": {
                        "address": "9194 Sherbrooke Rue E",
                        "country": "CA",
                        "cross_street": "",
                        "formatted_address": "9194 Sherbrooke Rue E, Montr\u00e9al QC H1L 1E5",
                        "locality": "Montreal",
                        "postcode": "H1L 1E5",
                        "region": "QC"
                  },
                  "name": "Cari Masala",
                  "popularity": 0.8693934519303558,
                  "price": 2
            },
            {
                  "distance": 356,
                  "location": {
                        "address": "9546 Sherbrooke Rue E",
                        "country": "CA",
                        "cross_street": "",
                        "formatted_address": "9546 Sherbrooke Rue E, Montr\u00e9al QC H1L 1E8",
                        "locality": "Montreal",
                        "postcode": "H1L 1E8",
                        "region": "QC"
                  },
                  "name": "Caf\u00e9 Bar Gypsy",
                  "popularity": 0.8859173921271764,
                  "price": 2
            },
            {
                  "distance": 405,
                  "location": {
                        "address": "9100 Sherbrooke Rue E",
                        "country": "CA",
                        "cross_street": "",
                        "formatted_address": "9100 Sherbrooke Rue E, Montreal QC",
                        "locality": "Montreal",
                        "region": "QC"
                  },
                  "name": "Restaurant le Petit Quebec",
                  "popularity": 0.9605412566237699,
                  "price": 1
            },
            {
                  "distance": 515,
                  "location": {
                        "address": "9005 Sherbrooke Rue E",
                        "country": "CA",
                        "cross_street": "",
                        "formatted_address": "9005 Sherbrooke Rue E, Montr\u00e9al QC H1L 1C8",
                        "locality": "Montreal",
                        "postcode": "H1L 1C8",
                        "region": "QC"
                  },
                  "name": "Brasserie Sherbrooke",
                  "popularity": 0.8930616010598031,
                  "price": 2
            },
            {
                  "distance": 690,
                  "location": {
                        "address": "8980 Hochelaga Rue",
                        "country": "CA",
                        "cross_street": "",
                        "formatted_address": "8980 Hochelaga Rue, Montr\u00e9al QC H1L 2N7",
                        "locality": "Montreal",
                        "postcode": "H1L 2N7",
                        "region": "QC"
                  },
                  "name": "Dominic Sous-Marins",
                  "popularity": 0.905611279333838,
                  "price": 1
            },
            {
                  "distance": 804,
                  "location": {
                        "address": "9198 Sherbrooke Rue E",
                        "country": "CA",
                        "cross_street": "",
                        "formatted_address": "9198 Sherbrooke Rue E, Montr\u00e9al QC H1L 1E5",
                        "locality": "Montreal",
                        "postcode": "H1L 1E5",
                        "region": "QC"
                  },
                  "name": "Caf\u00e9 Sunset",
                  "popularity": 0.5367264383043149,
                  "price": 1
            },
            {
                  "distance": 825,
                  "location": {
                        "address": "8792 Hochelaga Rue",
                        "country": "CA",
                        "cross_street": "",
                        "formatted_address": "8792 Hochelaga Rue, Montr\u00e9al QC H1L 2M9",
                        "locality": "Montreal",
                        "postcode": "H1L 2M9",
                        "region": "QC"
                  },
                  "name": "Restaurant Zykaa",
                  "popularity": 0.9669876040878123,
                  "price": 2
            },
            {
                  "distance": 886,
                  "location": {
                        "address": "8604 Sherbrooke Rue E",
                        "country": "CA",
                        "cross_street": "",
                        "formatted_address": "8604 Sherbrooke Rue E, Montr\u00e9al QC",
                        "locality": "Montreal",
                        "region": "QC"
                  },
                  "name": "Double Pizza",
                  "popularity": 0.826528198334595,
                  "price": 1
            },
            {
                  "distance": 889,
                  "location": {
                        "address": "8660 Sherbrooke Rue E",
                        "country": "CA",
                        "formatted_address": "8660 Sherbrooke Rue E, Montr\u00e9al QC H1L 1B7",
                        "locality": "Montreal",
                        "postcode": "H1L 1B7",
                        "region": "QC"
                  },
                  "name": "Restaurant la Belle Province",
                  "popularity": 0.9033047880393641,
                  "price": 1
            },
            {
                  "distance": 912,
                  "location": {
                        "address": "2525 des Ormeaux Rue",
                        "country": "CA",
                        "cross_street": "",
                        "formatted_address": "2525 des Ormeaux Rue, Montr\u00e9al QC H1L 4X4",
                        "locality": "Montreal",
                        "postcode": "H1L 4X4",
                        "region": "QC"
                  },
                  "name": "Kem CoBa",
                  "popularity": 0.31227526495079483,
                  "price": 1
            },
            {
                  "distance": 916,
                  "location": {
                        "address": "8655 Sherbrooke Rue E",
                        "country": "CA",
                        "cross_street": "",
                        "formatted_address": "8655 Sherbrooke Rue E, Montr\u00e9al QC H1L 1B8",
                        "locality": "Montreal",
                        "postcode": "H1L 1B8",
                        "region": "QC"
                  },
                  "name": "Broadway Pizzeria",
                  "popularity": 0.8714278955336866,
                  "price": 1
            },
            {
                  "distance": 918,
                  "location": {
                        "address": "8604 Sherbrooke Rue E",
                        "country": "CA",
                        "cross_street": "",
                        "formatted_address": "8604 Sherbrooke Rue E, Montr\u00e9al QC H1L 1B7",
                        "locality": "Montreal",
                        "postcode": "H1L 1B7",
                        "region": "QC"
                  },
                  "name": "Pizza Hut",
                  "popularity": 0.9349096328538986,
                  "price": 1,
                  "store_id": "R47401"
            },
            {
                  "distance": 1003,
                  "location": {
                        "address": "2263 des Ormeaux Rue",
                        "country": "CA",
                        "cross_street": "",
                        "formatted_address": "2263 des Ormeaux Rue, Montr\u00e9al QC H1L 4X2",
                        "locality": "Montreal",
                        "postcode": "H1L 4X2",
                        "region": "QC"
                  },
                  "name": "Chopine P\u00e2tisserie",
                  "popularity": 0.7051239591218774
            },
            {
                  "distance": 3681,
                  "location": {
                        "address": "9020 Sherbrooke Rue E",
                        "country": "CA",
                        "cross_street": "Desmarteau",
                        "formatted_address": "9020 Sherbrooke Rue E (Desmarteau), Montr\u00e9al QC H1L 1C9",
                        "locality": "Montreal",
                        "postcode": "H1L 1C9",
                        "region": "QC"
                  },
                  "name": "Pizza 2 Pour 1",
                  "popularity": 0.14915310370931112,
                  "price": 1
            },
            {
                  "distance": 187,
                  "location": {
                        "address": "9191 rue de Marseille",
                        "country": "CA",
                        "formatted_address": "9191 rue de Marseille, Montreal QC H1L 1T2",
                        "locality": "Montreal",
                        "postcode": "H1L 1T2",
                        "region": "QC"
                  },
                  "name": "Le Gout Secret des Caraibes"
            },
            {
                  "distance": 200,
                  "location": {
                        "address": "9191 rue de Marseille",
                        "country": "CA",
                        "formatted_address": "9191 rue de Marseille, Montreal QC H1L 1T2",
                        "locality": "Montreal",
                        "postcode": "H1L 1T2",
                        "region": "QC"
                  },
                  "name": "Restaurant le Quartier"
            },
            {
                  "distance": 392,
                  "location": {
                        "address": "9100 Sherbrooke Rue E",
                        "country": "CA",
                        "formatted_address": "9100 Sherbrooke Rue E, Montreal QC H1L 1E3",
                        "locality": "Montreal",
                        "postcode": "H1L 1E3",
                        "region": "QC"
                  },
                  "name": "P'tit Quebec"
            },
            {
                  "distance": 517,
                  "location": {
                        "address": "9005 Sherbrooke Rue E",
                        "country": "CA",
                        "formatted_address": "9005 Sherbrooke Rue E, Montreal QC H1L 1C8",
                        "locality": "Montreal",
                        "postcode": "H1L 1C8",
                        "region": "QC"
                  },
                  "name": "Bar Salon Sherbrooke Est Enr"
            },
            {
                  "distance": 644,
                  "location": {
                        "address": "9007 Hochelaga Rue",
                        "country": "CA",
                        "formatted_address": "9007 Hochelaga Rue, Montreal QC H1L 2N6",
                        "locality": "Montreal",
                        "postcode": "H1L 2N6",
                        "region": "QC"
                  },
                  "name": "Restaurant Malaythai"
            },
            {
                  "distance": 712,
                  "location": {
                        "address": "8933 Hochelaga Rue",
                        "country": "CA",
                        "formatted_address": "8933 Hochelaga Rue, Montreal QC H1L 2N4",
                        "locality": "Montreal",
                        "postcode": "H1L 2N4",
                        "region": "QC"
                  },
                  "name": "Pub Romana"
            },
            {
                  "distance": 732,
                  "location": {
                        "address": "9200 Dubuisson Ave",
                        "country": "CA",
                        "formatted_address": "9200 Dubuisson Ave, Montreal QC H1L 2X1",
                        "locality": "Montreal",
                        "postcode": "H1L 2X1",
                        "region": "QC"
                  },
                  "name": "Pecherie Atlantique"
            },
            {
                  "distance": 779,
                  "location": {
                        "address": "2864 des Ormeaux Rue",
                        "country": "CA",
                        "formatted_address": "2864 des Ormeaux Rue, Montreal QC H1L 4X8",
                        "locality": "Montreal",
                        "postcode": "H1L 4X8",
                        "region": "QC"
                  },
                  "name": "Restaurant le des Ormeaux"
            },
            {
                  "distance": 779,
                  "location": {
                        "address": "8874 Hochelaga Rue",
                        "country": "CA",
                        "formatted_address": "8874 Hochelaga Rue, Montreal QC H1L 2N2",
                        "locality": "Montreal",
                        "postcode": "H1L 2N2",
                        "region": "QC"
                  },
                  "name": "\u00d4 Poids Vert"
            },
            {
                  "distance": 813,
                  "location": {
                        "address": "1115 Sherbrooke Rue O",
                        "country": "CA",
                        "formatted_address": "1115 Sherbrooke Rue O, Montreal QC H3A 1H3",
                        "locality": "Montreal",
                        "postcode": "H3A 1H3",
                        "region": "QC"
                  },
                  "name": "Cr\u00e9a Caf\u00e9"
            },
            {
                  "distance": 833,
                  "location": {
                        "address": "8715 Est Sherbrooke",
                        "country": "CA",
                        "formatted_address": "8715 Est Sherbrooke, Montreal QC H1K 1C1",
                        "locality": "Montreal",
                        "postcode": "H1K 1C1",
                        "region": "QC"
                  },
                  "name": "Fusion Viet Asie"
            },
            {
                  "distance": 888,
                  "location": {
                        "address": "9553 Notre-Dame Rue E",
                        "country": "CA",
                        "formatted_address": "9553 Notre-Dame Rue E, Montreal QC H1L 3P5",
                        "locality": "Montreal",
                        "postcode": "H1L 3P5",
                        "region": "QC"
                  },
                  "name": "Vincent Sous-Marins"
            },
            {
                  "distance": 910,
                  "location": {
                        "address": "8726 Hochelaga St",
                        "country": "CA",
                        "formatted_address": "8726 Hochelaga St, Montreal QC H1L 2M7",
                        "locality": "Montreal",
                        "postcode": "H1L 2M7",
                        "region": "QC"
                  },
                  "name": "La Diperie"
            },
            {
                  "distance": 917,
                  "location": {
                        "address": "8720 Hochelaga Rue",
                        "country": "CA",
                        "formatted_address": "8720 Hochelaga Rue, Montreal QC H1L 2M7",
                        "locality": "Montreal",
                        "postcode": "H1L 2M7",
                        "region": "QC"
                  },
                  "name": "Au Go\u00fbt Tropical"
            },
            {
                  "distance": 920,
                  "location": {
                        "address": "8655 Sherbrooke Rue E",
                        "country": "CA",
                        "formatted_address": "8655 Sherbrooke Rue E, Montreal QC H1L 1B8",
                        "locality": "Montreal",
                        "postcode": "H1L 1B8",
                        "region": "QC"
                  },
                  "name": "Scores - Montr\u00e9al"
            }
      ],
      "context": {
            "geo_bounds": {
                  "circle": {
                        "center": {
                              "latitude": 45.60962628,
                              "longitude": -73.52273898
                        },
                        "radius": 1000
                  }
            }
      }
}