{
      "results": [
            {
                  "distance": 802,
                  "location": {
                        "address": "8746 Notre-Dame Rue E",
                        "country": "CA",
                        "cross_street": "",
                        "formatted_address": "8746 Notre-Dame Rue E, Montr\u00e9al QC H1L 3M1",
                        "locality": "Montreal",
                        "postcode": "H1L 3M1",
                        "region": "QC"
                  },
                  "name": "Coronel Restaurant",
                  "popularity": 0.9031746782740349,
                  "price": 2,
                  "rating": 7.0
            },
            {
                  "distance": 59,
                  "location": {
                        "address": "8235 Notre-Dame Rue E",
                        "country": "CA",
                        "cross_street": "",
                        "formatted_address": "8235 Notre-Dame Rue E, Montr\u00e9al QC H1L 3L2",
                        "locality": "Montreal",
                        "postcode": "H1L 3L2",
                        "region": "QC"
                  },
                  "name": "McDonald's",
                  "popularity": 0.9922880393641181,
                  "price": 1,
                  "rating": 6.3,
                  "store_id": "12013"
            },
            {
                  "distance": 375,
                  "location": {
                        "address": "8477 Notre-Dame Rue E",
                        "country": "CA",
                        "formatted_address": "8477 Notre-Dame Rue E, Montreal QC H1L 3L5",
                        "locality": "Montreal",
                        "postcode": "H1L 3L5",
                        "region": "QC"
                  },
                  "name": "Taverne Rancho"
            },
            {
                  "distance": 776,
                  "location": {
                        "address": "8746 Notre-Dame Rue E",
                        "country": "CA",
                        "formatted_address": "8746 Notre-Dame Rue E, Montreal QC H1L 3M1",
                        "locality": "Montreal",
                        "postcode": "H1L 3M1",
                        "region": "QC"
                  },
                  "name": "Coronel Restaurant et Pizzeria"
            },
            {
                  "distance": 986,
                  "location": {
                        "address": "8115 A.-A.-Desroches Rue",
                        "country": "CA",
                        "formatted_address": "8115 A.-A.-Desroches Rue, Montreal QC H1L 2S3",
                        "locality": "Montreal",
                        "postcode": "H1L 2S3",
                        "region": "QC"
                  },
                  "name": "Chez D&N"
            }
      ],
      "context": {
            "geo_bounds": {
                  "circle": {
                        "center": {
                              "latitude": 45.59275254,
                              "longitude": -73.51035632
                        },
                        "radius": 1000
                  }
            }
      }
}