{
      "results": [
            {
                  "distance": 696,
                  "location": {
                        "address": "5485 Victoria Ave",
                        "country": "CA",
                        "cross_street": "Saint-Kevin",
                        "formatted_address": "5485 Victoria Ave (Saint-Kevin), Montr\u00e9al QC H3W 2P9",
                        "locality": "Montreal",
                        "postcode": "H3W 2P9",
                        "region": "QC"
                  },
                  "name": "Restaurant Hoai Huong",
                  "popularity": 0.9431420325510976,
                  "price": 1,
                  "rating": 8.5
            },
            {
                  "distance": 968,
                  "location": {
                        "address": "5703B de la Cote-Des-Neiges Ch",
                        "country": "CA",
                        "cross_street": "C\u00f4te-St-Catherine",
                        "formatted_address": "5703B de la Cote-Des-Neiges Ch (C\u00f4te-St-Catherine), Montr\u00e9al QC H3S 1Y7",
                        "locality": "Montreal",
                        "postcode": "H3S 1Y7",
                        "region": "QC"
                  },
                  "name": "Restaurant Pho Lien",
                  "popularity": 0.9779523088569265,
                  "price": 2,
                  "rating": 8.4
            },
            {
                  "distance": 513,
                  "location": {
                        "address": "6892 Victoria Ave",
                        "country": "CA",
                        "formatted_address": "6892 Victoria Ave, Montr\u00e9al QC H3W 2T4",
                        "locality": "Montreal",
                        "postcode": "H3W 2T4",
                        "region": "QC"
                  },
                  "name": "Caribbean Curry House",
                  "popularity": 0.9865986941710825,
                  "price": 2,
                  "rating": 8.3
            },
            {
                  "distance": 544,
                  "location": {
                        "address": "5690 Victoria Ave",
                        "country": "CA",
                        "cross_street": "C\u00f4te St-Catherine",
                        "formatted_address": "5690 Victoria Ave (C\u00f4te St-Catherine), Montr\u00e9al QC H3W 2P8",
                        "locality": "Montreal",
                        "postcode": "H3W 2P8",
                        "region": "QC"
                  },
                  "name": "Sen Vang",
                  "popularity": 0.9870363361090083,
                  "price": 2,
                  "rating": 7.9
            },
            {
                  "distance": 884,
                  "location": {
                        "address": "6565 Ch de la Cote-Des-Neiges",
                        "country": "CA",
                        "cross_street": "Barclay",
                        "formatted_address": "6565 Ch de la Cote-Des-Neiges (Barclay), Montr\u00e9al QC H3S 2A5",
                        "locality": "Montreal",
                        "postcode": "H3S 2A5",
                        "region": "QC"
                  },
                  "name": "Kum Mon Restaurant",
                  "popularity": 0.9859836298258895,
                  "price": 1,
                  "rating": 7.9
            },
            {
                  "distance": 295,
                  "location": {
                        "address": "6625 Victoria Ave",
                        "country": "CA",
                        "cross_street": "",
                        "formatted_address": "6625 Victoria Ave, Montr\u00e9al QC H3W 2T2",
                        "locality": "Montreal",
                        "postcode": "H3W 2T2",
                        "region": "QC"
                  },
                  "name": "KFC",
                  "popularity": 0.9919450227100681,
                  "price": 1,
                  "rating": 7.4,
                  "store_id": "1257"
            },
            {
                  "distance": 845,
                  "location": {
                        "address": "6260 ch. de la C\u00f4te-des-Neiges",
                        "country": "CA",
                        "formatted_address": "6260 ch. de la C\u00f4te-des-Neiges, Montr\u00e9al QC H3S 2A3",
                        "locality": "Montreal",
                        "postcode": "H3S 2A3",
                        "region": "QC"
                  },
                  "name": "Restaurant Nguyen Phi",
                  "popularity": 0.9791824375473126,
                  "price": 2,
                  "rating": 7.1
            },
            {
                  "distance": 910,
                  "location": {
                        "address": "5985 Ch de la Cote-des-neiges",
                        "country": "CA",
                        "cross_street": "Linton",
                        "formatted_address": "5985 Ch de la Cote-des-neiges (Linton), Montr\u00e9al QC H3S 1Z2",
                        "locality": "Montreal",
                        "postcode": "H3S 1Z2",
                        "region": "QC"
                  },
                  "name": "Tim Hortons",
                  "popularity": 0.9952450794852384,
                  "price": 1,
                  "rating": 7.0
            },
            {
                  "distance": 860,
                  "location": {
                        "address": "6185 Ch de la C\u00f4te-des-Neiges",
                        "country": "CA",
                        "formatted_address": "6185 Ch de la C\u00f4te-des-Neiges, Montr\u00e9al QC H3S 1Z9",
                        "locality": "Montreal",
                        "postcode": "H3S 1Z9",
                        "region": "QC"
                  },
                  "name": "Pizza Pizza",
                  "popularity": 0.9545916919000756,
                  "price": 1,
                  "rating": 6.7,
                  "store_id": "307"
            },
            {
                  "distance": 971,
                  "location": {
                        "address": "6767A de la Cote des Neiges Ch",
                        "country": "CA",
                        "cross_street": "",
                        "formatted_address": "6767A de la Cote des Neiges Ch, Montr\u00e9al QC H3S 2A8",
                        "locality": "Montreal",
                        "postcode": "H3S 2A8",
                        "region": "QC"
                  },
                  "name": "Kam Shing Chinese Restaurant",
                  "popularity": 0.9756339894019682,
                  "price": 1,
                  "rating": 6.7
            },
            {
                  "distance": 825,
                  "location": {
                        "address": "6700 Ch de la C\u00f4te-des-Neiges",
                        "country": "CA",
                        "cross_street": "Barclay",
                        "formatted_address": "6700 Ch de la C\u00f4te-des-Neiges (Barclay), Montr\u00e9al QC H3S 2B2",
                        "locality": "Montreal",
                        "postcode": "H3S 2B2",
                        "region": "QC"
                  },
                  "name": "Cine Starz Inc Cotes des Neiges",
                  "popularity": 0.991353614685844,
                  "rating": 6.5
            },
            {
                  "distance": 847,
                  "location": {
                        "address": "6000 Ch de la C\u00f4te-des-Neiges",
                        "country": "CA",
                        "cross_street": "Avenue Linton",
                        "formatted_address": "6000 Ch de la C\u00f4te-des-Neiges (Avenue Linton), Montr\u00e9al QC H3S 1Z8",
                        "locality": "Montreal",
                        "postcode": "H3S 1Z8",
                        "region": "QC"
                  },
                  "name": "Second Cup",
                  "popularity": 0.9513507759273278,
                  "price": 1,
                  "rating": 6.3
            },
            {
                  "distance": 960,
                  "location": {
                        "address": "3700 Ch de la C\u00f4te-sainte-catherine",
                        "country": "CA",
                        "cross_street": "",
                        "formatted_address": "3700 Ch de la C\u00f4te-sainte-catherine, Montr\u00e9al QC H3T 1E1",
                        "locality": "Montreal",
                        "postcode": "H3T 1E1",
                        "region": "QC"
                  },
                  "name": "Tim Hortons",
                  "popularity": 0.9728543716881151,
                  "price": 1,
                  "rating": 6.2
            },
            {
                  "distance": 889,
                  "location": {
                        "address": "6025 Blvd de la C\u00f4te-Des-Neiges",
                        "country": "CA",
                        "cross_street": "coin Van Horne",
                        "formatted_address": "6025 Blvd de la C\u00f4te-Des-Neiges (coin Van Horne), Montr\u00e9al QC H3S 1Z9",
                        "locality": "Montreal",
                        "postcode": "H3S 1Z9",
                        "region": "QC"
                  },
                  "name": "McDonald's",
                  "popularity": 0.9968537093111279,
                  "price": 1,
                  "rating": 5.4,
                  "store_id": "3312"
            },
            {
                  "distance": 89,
                  "location": {
                        "address": "4759 Van Horne Ave",
                        "country": "CA",
                        "cross_street": "victoria",
                        "formatted_address": "4759 Van Horne Ave (victoria), Montr\u00e9al QC H3W 1H8",
                        "locality": "Montreal",
                        "postcode": "H3W 1H8",
                        "region": "QC"
                  },
                  "name": "Fireside Steakhouse",
                  "popularity": 0.4522497161241484,
                  "price": 4
            },
            {
                  "distance": 192,
                  "location": {
                        "address": "4655 Van Horne Ave",
                        "country": "CA",
                        "cross_street": "",
                        "formatted_address": "4655 Van Horne Ave, Montr\u00e9al QC H3W 1H8",
                        "locality": "Montreal",
                        "postcode": "H3W 1H8",
                        "region": "QC"
                  },
                  "name": "Domino's Pizza",
                  "popularity": 0.9313730128690386,
                  "price": 1,
                  "store_id": "10707"
            },
            {
                  "distance": 238,
                  "location": {
                        "address": "5940 Victoria Ave",
                        "country": "CA",
                        "cross_street": "",
                        "formatted_address": "5940 Victoria Ave, Montr\u00e9al QC H3W 2R8",
                        "locality": "Montreal",
                        "postcode": "H3W 2R8",
                        "region": "QC"
                  },
                  "name": "Pinoy Pansitan",
                  "popularity": 0.971647899318698,
                  "price": 2
            },
            {
                  "distance": 296,
                  "location": {
                        "address": "4615 Van Horne Ave",
                        "country": "CA",
                        "cross_street": "",
                        "formatted_address": "4615 Van Horne Ave, Montr\u00e9al QC H3W 1H8",
                        "locality": "Montreal",
                        "postcode": "H3W 1H8",
                        "region": "QC"
                  },
                  "name": "Frontline Restaurant Enr",
                  "popularity": 0.2004518357305072,
                  "price": 2
            },
            {
                  "distance": 725,
                  "location": {
                        "address": "5487 Victoria Ave",
                        "country": "CA",
                        "cross_street": "",
                        "formatted_address": "5487 Victoria Ave, Montr\u00e9al QC H3W 2P9",
                        "locality": "Montreal",
                        "postcode": "H3W 2P9",
                        "region": "QC"
                  },
                  "name": "Pizza Gourmetti",
                  "popularity": 0.9082962717638153,
                  "price": 3
            },
            {
                  "distance": 786,
                  "location": {
                        "address": "6939 Blvd D\u00e9carie",
                        "country": "CA",
                        "cross_street": "",
                        "formatted_address": "6939 Blvd D\u00e9carie, Montr\u00e9al QC H3W 3C1",
                        "locality": "Montreal",
                        "postcode": "H3W 3C1",
                        "region": "QC"
                  },
                  "name": "Blandino",
                  "popularity": 0.9300600870552612,
                  "price": 2
            },
            {
                  "distance": 847,
                  "location": {
                        "address": "6080 Ch de la C\u00f4te-des-Neiges",
                        "country": "CA",
                        "formatted_address": "6080 Ch de la C\u00f4te-des-Neiges, Montr\u00e9al QC H3S 1Z7",
                        "locality": "Montreal",
                        "postcode": "H3S 1Z7",
                        "region": "QC"
                  },
                  "name": "Restaurant Riz et Nouilles",
                  "popularity": 0.43615158970476914,
                  "price": 2
            },
            {
                  "distance": 868,
                  "location": {
                        "address": "5505 Decarie Blvd",
                        "country": "CA",
                        "cross_street": "",
                        "formatted_address": "5505 Decarie Blvd, Montreal QC H3W 3C7",
                        "locality": "Montreal",
                        "postcode": "H3W 3C7",
                        "region": "QC"
                  },
                  "name": "Vodka Bar Inc",
                  "popularity": 0.7083648750946253,
                  "price": 2
            },
            {
                  "distance": 883,
                  "location": {
                        "address": "6700 ch de la C\u00f4te-des-Neiges",
                        "country": "CA",
                        "cross_street": "",
                        "formatted_address": "6700 ch de la C\u00f4te-des-Neiges, Montr\u00e9al QC H3S 2B2",
                        "locality": "Montreal",
                        "postcode": "H3S 2B2",
                        "region": "QC"
                  },
                  "name": "Pita Burger",
                  "popularity": 0.957300340651022,
                  "price": 2
            },
            {
                  "distance": 903,
                  "location": {
                        "address": "6700 ch de la C\u00f4te-des-Neiges",
                        "country": "CA",
                        "cross_street": "",
                        "formatted_address": "6700 ch de la C\u00f4te-des-Neiges, Montreal QC H3S 2B2",
                        "locality": "Montreal",
                        "postcode": "H3S 2B2",
                        "region": "QC"
                  },
                  "name": "Bar Vegas Lounge",
                  "popularity": 0.8900335919757759,
                  "price": 2
            },
            {
                  "distance": 962,
                  "location": {
                        "address": "5150 Jean-Talon Rue O",
                        "country": "CA",
                        "cross_street": "Mountain sights",
                        "formatted_address": "5150 Jean-Talon Rue O (Mountain sights), Montr\u00e9al QC H4P 1W9",
                        "locality": "Montreal",
                        "postcode": "H4P 1W9",
                        "region": "QC"
                  },
                  "name": "Boustan",
                  "popularity": 0.9758587244511734,
                  "price": 2
            },
            {
                  "distance": 964,
                  "location": {
                        "address": "3680 Ch de la C\u00f4te-Sainte-Catherine",
                        "country": "CA",
                        "cross_street": "",
                        "formatted_address": "3680 Ch de la C\u00f4te-Sainte-Catherine, Montr\u00e9al QC H3T 1E1",
                        "locality": "Montreal",
                        "postcode": "H3T 1E1",
                        "region": "QC"
                  },
                  "name": "Quesada Burritos and Tacos",
                  "popularity": 0.977964137017411
            },
            {
                  "distance": 978,
                  "location": {
                        "address": "5655 ch de la cote-des-Neiges",
                        "country": "CA",
                        "cross_street": "",
                        "formatted_address": "5655 ch de la cote-des-Neiges, Montreal QC H3T 1Y8",
                        "locality": "Montreal",
                        "postcode": "H3T 1Y8",
                        "region": "QC"
                  },
                  "name": "R\u00f4tisserie Poulet-Technique",
                  "popularity": 0.45301854655563967,
                  "price": 1
            },
            {
                  "distance": 995,
                  "location": {
                        "address": "5693 ch de la cote-des-Neiges",
                        "country": "CA",
                        "cross_street": "C\u00f4te des Neiges",
                        "formatted_address": "5693 ch de la cote-des-Neiges (C\u00f4te des Neiges), Montr\u00e9al QC H3S 1Y7",
                        "locality": "Montreal",
                        "postcode": "H3S 1Y7",
                        "region": "QC"
                  },
                  "name": "Caf\u00e9 Nido",
                  "popularity": 0.8397402535957608,
                  "price": 2
            },
            {
                  "distance": 26,
                  "location": {
                        "address": "6320 Victoria Ave",
                        "country": "CA",
                        "formatted_address": "6320 Victoria Ave, Montreal QC H3W 2S4",
                        "locality": "Montreal",
                        "postcode": "H3W 2S4",
                        "region": "QC"
                  },
                  "name": "Kusinamiya Cuisine Amia"
            },
            {
                  "distance": 215,
                  "location": {
                        "address": "5997 Victoria Ave",
                        "country": "CA",
                        "formatted_address": "5997 Victoria Ave, Montreal QC H3W 2R9",
                        "locality": "Montreal",
                        "postcode": "H3W 2R9",
                        "region": "QC"
                  },
                  "name": "Restaurant Al's C\u00f4te-des-Neiges"
            },
            {
                  "distance": 612,
                  "location": {
                        "address": "6445 Decarie Blvd",
                        "country": "CA",
                        "formatted_address": "6445 Decarie Blvd, Montreal QC H3W 3E1",
                        "locality": "Montreal",
                        "postcode": "H3W 3E1",
                        "region": "QC"
                  },
                  "name": "Luzzatto"
            },
            {
                  "distance": 737,
                  "location": {
                        "address": "5473 Victoria Ave",
                        "country": "CA",
                        "formatted_address": "5473 Victoria Ave, Montreal QC H3W 2P7",
                        "locality": "Montreal",
                        "postcode": "H3W 2P7",
                        "region": "QC"
                  },
                  "name": "Restaurant Pho Bac"
            },
            {
                  "distance": 853,
                  "location": {
                        "address": "4855 Jean Talon Rue O",
                        "country": "CA",
                        "formatted_address": "4855 Jean Talon Rue O, Montreal QC H4P 1W7",
                        "locality": "Montreal",
                        "postcode": "H4P 1W7",
                        "region": "QC"
                  },
                  "name": "Restaurant le Palmier"
            },
            {
                  "distance": 854,
                  "location": {
                        "address": "4820 Jean-Talon Rue O",
                        "country": "CA",
                        "formatted_address": "4820 Jean-Talon Rue O, Montreal QC H4P 1W9",
                        "locality": "Montreal",
                        "postcode": "H4P 1W9",
                        "region": "QC"
                  },
                  "name": "Kodimoto"
            },
            {
                  "distance": 856,
                  "location": {
                        "address": "4900 Jean-Talon Rue O",
                        "country": "CA",
                        "formatted_address": "4900 Jean-Talon Rue O, Montreal QC H4P 1W9",
                        "locality": "Montreal",
                        "postcode": "H4P 1W9",
                        "region": "QC"
                  },
                  "name": "Mc Donald S"
            }
      ],
      "context": {
            "geo_bounds": {
                  "circle": {
                        "center": {
                              "latitude": 45.49468675,
                              "longitude": -73.63871866
                        },
                        "radius": 1000
                  }
            }
      }
}