{
      "results": [
            {
                  "distance": 598,
                  "location": {
                        "address": "808 Cure-Labelle Blvd",
                        "country": "CA",
                        "cross_street": "Notre-dame",
                        "formatted_address": "808 Cure-Labelle Blvd (Notre-dame), Laval QC H7V 2V3",
                        "locality": "Laval",
                        "postcode": "H7V 2V3",
                        "region": "QC"
                  },
                  "name": "Fuki Sushi Bar",
                  "popularity": 0.9464429170757833,
                  "price": 2,
                  "rating": 7.8
            },
            {
                  "distance": 533,
                  "location": {
                        "address": "411 Cure-Labelle Blvd",
                        "country": "CA",
                        "cross_street": "",
                        "formatted_address": "411 Cure-Labelle Blvd, Laval QC H7V 2S8",
                        "locality": "Laval",
                        "postcode": "H7V 2S8",
                        "region": "QC"
                  },
                  "name": "Restaurant Karoun",
                  "popularity": 0.9402838525394983,
                  "price": 2,
                  "rating": 7.3
            },
            {
                  "distance": 915,
                  "location": {
                        "address": "1114 Cure-Labelle Blvd",
                        "country": "CA",
                        "cross_street": "",
                        "formatted_address": "1114 Cure-Labelle Blvd, Laval QC H7V 2V5",
                        "locality": "Laval",
                        "postcode": "H7V 2V5",
                        "region": "QC"
                  },
                  "name": "57 Cals",
                  "popularity": 0.911184504150674,
                  "price": 1,
                  "rating": 7.3
            },
            {
                  "distance": 627,
                  "location": {
                        "address": "890 Cure-Labelle Blvd",
                        "country": "CA",
                        "cross_street": "Notre-Dame",
                        "formatted_address": "890 Cure-Labelle Blvd (Notre-Dame), Laval QC H7V 2V4",
                        "locality": "Laval",
                        "postcode": "H7V 2V4",
                        "region": "QC"
                  },
                  "name": "Restaurant Galeria",
                  "popularity": 0.9549227885387842,
                  "price": 1,
                  "rating": 7.0
            },
            {
                  "distance": 552,
                  "location": {
                        "address": "965 Cure-Labelle Blvd",
                        "country": "CA",
                        "formatted_address": "965 Cure-Labelle Blvd, Laval QC H7V 2V7",
                        "locality": "Laval",
                        "postcode": "H7V 2V7",
                        "region": "QC"
                  },
                  "name": "Billard le Skratch",
                  "popularity": 0.9746496474158708,
                  "price": 2,
                  "rating": 6.1
            },
            {
                  "distance": 658,
                  "location": {
                        "address": "896 Cure-Labelle Blvd",
                        "country": "CA",
                        "cross_street": "at boul. Notre-Dame",
                        "formatted_address": "896 Cure-Labelle Blvd (at boul. Notre-Dame), Laval QC H7V 2V5",
                        "locality": "Laval",
                        "postcode": "H7V 2V5",
                        "region": "QC"
                  },
                  "name": "McDonald's",
                  "popularity": 0.9885744889761671,
                  "price": 1,
                  "rating": 5.8,
                  "store_id": "2685"
            },
            {
                  "distance": 548,
                  "location": {
                        "address": "605 Cure-Labelle Blvd",
                        "country": "CA",
                        "formatted_address": "605 Cure-Labelle Blvd, Laval QC H7V 2T5",
                        "locality": "Laval",
                        "postcode": "H7V 2T5",
                        "region": "QC"
                  },
                  "name": "Restaurant Lordia",
                  "popularity": 0.06105507453360707,
                  "price": 2,
                  "rating": 5.7
            },
            {
                  "distance": 210,
                  "location": {
                        "address": "800 Chomedey Blvd",
                        "country": "CA",
                        "cross_street": "",
                        "formatted_address": "800 Chomedey Blvd, Laval QC H7V 3Y4",
                        "locality": "Laval",
                        "postcode": "H7V 3Y4",
                        "region": "QC"
                  },
                  "name": "Restaurant Akll\u00e9",
                  "popularity": 0.1978934214049808
            },
            {
                  "distance": 428,
                  "location": {
                        "address": "3824 Notre-Dame Blvd",
                        "country": "CA",
                        "cross_street": "Cur\u00e9-Labelle",
                        "formatted_address": "3824 Notre-Dame Blvd (Cur\u00e9-Labelle), Laval QC H7V 1R9",
                        "locality": "Laval",
                        "postcode": "H7V 1R9",
                        "region": "QC"
                  },
                  "name": "Pizza Morado",
                  "popularity": 0.5353030438275462,
                  "price": 1
            },
            {
                  "distance": 541,
                  "location": {
                        "address": "703 Cure-Labelle Blvd",
                        "country": "CA",
                        "cross_street": "Boul. Perron",
                        "formatted_address": "703 Cure-Labelle Blvd (Boul. Perron), Laval QC H7V 2T8",
                        "locality": "Laval",
                        "postcode": "H7V 2T8",
                        "region": "QC"
                  },
                  "name": "Patisserie Phyllo",
                  "popularity": 0.9881281799517986,
                  "price": 1
            },
            {
                  "distance": 552,
                  "location": {
                        "address": "775 Cure-Labelle Blvd",
                        "country": "CA",
                        "cross_street": "",
                        "formatted_address": "775 Cure-Labelle Blvd, Laval QC H7V 2V2",
                        "locality": "Laval",
                        "postcode": "H7V 2V2",
                        "region": "QC"
                  },
                  "name": "Deesses",
                  "popularity": 0.8847630099080603,
                  "price": 3
            },
            {
                  "distance": 554,
                  "location": {
                        "address": "784 Cure-Labelle Blvd",
                        "country": "CA",
                        "cross_street": "Notre-Dame",
                        "formatted_address": "784 Cure-Labelle Blvd (Notre-Dame), Laval QC H7V 2V3",
                        "locality": "Laval",
                        "postcode": "H7V 2V3",
                        "region": "QC"
                  },
                  "name": "Omda",
                  "popularity": 0.9183254485405695,
                  "price": 1
            },
            {
                  "distance": 606,
                  "location": {
                        "address": "806 Cure-Labelle Blvd",
                        "country": "CA",
                        "cross_street": "",
                        "formatted_address": "806 Cure-Labelle Blvd, Laval QC H7V 2V3",
                        "locality": "Laval",
                        "postcode": "H7V 2V3",
                        "region": "QC"
                  },
                  "name": "Charcuterie Transilvania",
                  "popularity": 0.7090957779166295,
                  "price": 2
            },
            {
                  "distance": 643,
                  "location": {
                        "address": "378 Cure-Labelle Blvd",
                        "country": "CA",
                        "cross_street": "chomedey",
                        "formatted_address": "378 Cure-Labelle Blvd (chomedey), Laval QC H7V 2S3",
                        "locality": "Laval",
                        "postcode": "H7V 2S3",
                        "region": "QC"
                  },
                  "name": "Wyte",
                  "popularity": 0.344818352227082,
                  "price": 1
            },
            {
                  "distance": 832,
                  "location": {
                        "address": "988 Cure-Labelle Blvd",
                        "country": "CA",
                        "cross_street": "",
                        "formatted_address": "988 Cure-Labelle Blvd, Laval QC H7V 2V5",
                        "locality": "Laval",
                        "postcode": "H7V 2V5",
                        "region": "QC"
                  },
                  "name": "Maison Mansou Lt\u00e9e",
                  "popularity": 0.026421494242613586,
                  "price": 2
            },
            {
                  "distance": 894,
                  "location": {
                        "address": "247 Cure-Labelle Blvd",
                        "country": "CA",
                        "cross_street": "Boul Levesque",
                        "formatted_address": "247 Cure-Labelle Blvd (Boul Levesque), Laval QC H7V 2R9",
                        "locality": "Laval",
                        "postcode": "H7V 2R9",
                        "region": "QC"
                  },
                  "name": "Poulet Sevan",
                  "popularity": 0.9046683923948943,
                  "price": 1
            },
            {
                  "distance": 950,
                  "location": {
                        "address": "3903 Levesque Blvd O",
                        "country": "CA",
                        "cross_street": "83 ave",
                        "formatted_address": "3903 Levesque Blvd O (83 ave), Laval QC H7W 2P1",
                        "locality": "Laval",
                        "postcode": "H7W 2P1",
                        "region": "QC"
                  },
                  "name": "Ouest Antonio Pizzeria",
                  "popularity": 0.8364723734713916,
                  "price": 1
            },
            {
                  "distance": 957,
                  "location": {
                        "address": "3901 Levesque Blvd O",
                        "country": "CA",
                        "cross_street": "",
                        "formatted_address": "3901 Levesque Blvd O, Laval QC H7W 2P1",
                        "locality": "Laval",
                        "postcode": "H7W 2P1",
                        "region": "QC"
                  },
                  "name": "Vachement Folle",
                  "popularity": 0.9869677764884406,
                  "price": 1
            },
            {
                  "distance": 2874,
                  "location": {
                        "address": "784 Cure-Labelle Blvd",
                        "address_extended": "Suite 30",
                        "country": "CA",
                        "cross_street": "",
                        "formatted_address": "784 Cure-Labelle Blvd, Laval QC H7V 2V3",
                        "locality": "Laval",
                        "postcode": "H7V 2V3",
                        "region": "QC"
                  },
                  "name": "Au Vieux Massis",
                  "popularity": 0.6046594662144068
            },
            {
                  "distance": 223,
                  "location": {
                        "address": "800 Chomedey Blvd",
                        "country": "CA",
                        "formatted_address": "800 Chomedey Blvd, Laval QC H7V 3Y4",
                        "locality": "Laval",
                        "postcode": "H7V 3Y4",
                        "region": "QC"
                  },
                  "name": "Boulangerie Restaurant Cantor"
            },
            {
                  "distance": 270,
                  "location": {
                        "address": "1033 Aut",
                        "country": "CA",
                        "formatted_address": "1033 Aut, Chomedey QC",
                        "locality": "Chomedey",
                        "region": "QC"
                  },
                  "name": "Les Caprices d'Al Adhba Inc"
            },
            {
                  "distance": 270,
                  "location": {
                        "address": "Cp 52031 Csp Fabreville",
                        "country": "CA",
                        "formatted_address": "Cp 52031 Csp Fabreville, Laval QC H7P 5S1",
                        "locality": "Laval",
                        "postcode": "H7P 5S1",
                        "region": "QC"
                  },
                  "name": "Groupe Fusion"
            },
            {
                  "distance": 421,
                  "location": {
                        "address": "480 Chomedey Blvd",
                        "country": "CA",
                        "formatted_address": "480 Chomedey Blvd, Laval QC H7V 2W9",
                        "locality": "Laval",
                        "postcode": "H7V 2W9",
                        "region": "QC"
                  },
                  "name": "Rotana Caf\u00e9"
            },
            {
                  "distance": 534,
                  "location": {
                        "address": "605 Blvd Cur\u00e9 Labelle",
                        "country": "CA",
                        "formatted_address": "605 Blvd Cur\u00e9 Labelle, Chomedey QC",
                        "locality": "Chomedey",
                        "region": "QC"
                  },
                  "name": "Restaurant Lordia 1"
            },
            {
                  "distance": 551,
                  "location": {
                        "address": "701 Cure-Labelle Blvd",
                        "country": "CA",
                        "formatted_address": "701 Cure-Labelle Blvd, Laval QC H7V 2T8",
                        "locality": "Laval",
                        "postcode": "H7V 2T8",
                        "region": "QC"
                  },
                  "name": "Lylac Resto Lounge Inc"
            },
            {
                  "distance": 585,
                  "location": {
                        "address": "671A Cure-Labelle Blvd",
                        "country": "CA",
                        "formatted_address": "671A Cure-Labelle Blvd, Laval QC H7V 2T8",
                        "locality": "Laval",
                        "postcode": "H7V 2T8",
                        "region": "QC"
                  },
                  "name": "Patisserie Medeiros"
            },
            {
                  "distance": 586,
                  "location": {
                        "address": "3485 Cartier Blvd O",
                        "country": "CA",
                        "formatted_address": "3485 Cartier Blvd O, Laval QC",
                        "locality": "Laval",
                        "region": "QC"
                  },
                  "name": "Hysteria Resto-Lounge"
            },
            {
                  "distance": 591,
                  "location": {
                        "address": "784 Cure-Labelle Blvd",
                        "country": "CA",
                        "formatted_address": "784 Cure-Labelle Blvd, Laval QC H7V 2V3",
                        "locality": "Laval",
                        "postcode": "H7V 2V3",
                        "region": "QC"
                  },
                  "name": "Double Pizza"
            },
            {
                  "distance": 604,
                  "location": {
                        "address": "784 Cure-Labelle Blvd",
                        "country": "CA",
                        "formatted_address": "784 Cure-Labelle Blvd, Laval QC H7V 2V3",
                        "locality": "Laval",
                        "postcode": "H7V 2V3",
                        "region": "QC"
                  },
                  "name": "Pizza les Quatre Fr\u00e8re"
            },
            {
                  "distance": 642,
                  "location": {
                        "address": "378 Cure-Labelle Blvd",
                        "country": "CA",
                        "formatted_address": "378 Cure-Labelle Blvd, Laval QC",
                        "locality": "Laval",
                        "region": "QC"
                  },
                  "name": "Cafe Bab El Hara"
            },
            {
                  "distance": 653,
                  "location": {
                        "address": "H7V Laval",
                        "country": "CA",
                        "formatted_address": "H7V Laval, Laval QC",
                        "locality": "Laval",
                        "region": "QC"
                  },
                  "name": "Shish Kebab Ste-Dorothee"
            },
            {
                  "distance": 775,
                  "location": {
                        "address": "978 Cure-Labelle Blvd",
                        "country": "CA",
                        "formatted_address": "978 Cure-Labelle Blvd, Laval QC H7V 2V5",
                        "locality": "Laval",
                        "postcode": "H7V 2V5",
                        "region": "QC"
                  },
                  "name": "Bar Gaiters"
            },
            {
                  "distance": 895,
                  "location": {
                        "address": "3743 Levesque Blvd O",
                        "country": "CA",
                        "formatted_address": "3743 Levesque Blvd O, Laval QC H7V 1G4",
                        "locality": "Laval",
                        "postcode": "H7V 1G4",
                        "region": "QC"
                  },
                  "name": "Baguette Doree"
            },
            {
                  "distance": 952,
                  "location": {
                        "address": "1150 Cure-Labelle Blvd",
                        "country": "CA",
                        "formatted_address": "1150 Cure-Labelle Blvd, Laval QC H7V 2V5",
                        "locality": "Laval",
                        "postcode": "H7V 2V5",
                        "region": "QC"
                  },
                  "name": "Indian Restaurant Mehfil"
            },
            {
                  "distance": 984,
                  "location": {
                        "address": "3840 Lepine Rue",
                        "country": "CA",
                        "formatted_address": "3840 Lepine Rue, Laval QC H7V 3S5",
                        "locality": "Laval",
                        "postcode": "H7V 3S5",
                        "region": "QC"
                  },
                  "name": "Poissonnerie El-Marino Laval"
            }
      ],
      "context": {
            "geo_bounds": {
                  "circle": {
                        "center": {
                              "latitude": 45.54250588,
                              "longitude": -73.74095321
                        },
                        "radius": 1000
                  }
            }
      }
}