{
      "results": [
            {
                  "distance": 715,
                  "location": {
                        "address": "511 Villeray Rue",
                        "country": "CA",
                        "cross_street": "coin Berri",
                        "formatted_address": "511 Villeray Rue (coin Berri), Montr\u00e9al QC H2R 1H5",
                        "locality": "Montreal",
                        "postcode": "H2R 1H5",
                        "region": "QC"
                  },
                  "name": "Tapeo",
                  "popularity": 0.9402914458743377,
                  "price": 2,
                  "rating": 9.1
            },
            {
                  "distance": 1002,
                  "location": {
                        "address": "901 Saint-Zotique Rue E",
                        "country": "CA",
                        "cross_street": "Saint-Andr\u00e9",
                        "formatted_address": "901 Saint-Zotique Rue E (Saint-Andr\u00e9), Montr\u00e9al QC H2S 1M9",
                        "locality": "Montreal",
                        "postcode": "H2S 1M9",
                        "region": "QC"
                  },
                  "name": "Y\u00efsst",
                  "popularity": 0.9474829674489024,
                  "price": 2,
                  "rating": 8.8
            },
            {
                  "distance": 970,
                  "location": {
                        "address": "1212 Saint-Zotique Rue E",
                        "country": "CA",
                        "cross_street": "",
                        "formatted_address": "1212 Saint-Zotique Rue E, Montr\u00e9al QC H2S 1N5",
                        "locality": "Montreal",
                        "postcode": "H2S 1N5",
                        "region": "QC"
                  },
                  "name": "Luciano Trattoria",
                  "popularity": 0.9558099924299773,
                  "price": 2,
                  "rating": 8.7
            },
            {
                  "distance": 945,
                  "location": {
                        "address": "232 Jean-Talon Rue E",
                        "country": "CA",
                        "cross_street": "coin Casgrain",
                        "formatted_address": "232 Jean-Talon Rue E (coin Casgrain), Montr\u00e9al QC H2R 1S7",
                        "locality": "Montreal",
                        "postcode": "H2R 1S7",
                        "region": "QC"
                  },
                  "name": "Le Roi du Taco",
                  "popularity": 0.9488195495836488,
                  "price": 1,
                  "rating": 8.6
            },
            {
                  "distance": 976,
                  "location": {
                        "address": "6956 Drolet Rue",
                        "country": "CA",
                        "cross_street": "entre Mozart & B\u00e9langer",
                        "formatted_address": "6956 Drolet Rue (entre Mozart & B\u00e9langer), Montr\u00e9al QC H2S 2T3",
                        "locality": "Montreal",
                        "postcode": "H2S 2T3",
                        "region": "QC"
                  },
                  "name": "Chez Tousignant",
                  "popularity": 0.9384225965177896,
                  "rating": 8.6
            },
            {
                  "distance": 341,
                  "location": {
                        "address": "7349 Saint Hubert Rue",
                        "country": "CA",
                        "cross_street": "",
                        "formatted_address": "7349 Saint Hubert Rue, Montr\u00e9al QC H2R 2N4",
                        "locality": "Montreal",
                        "postcode": "H2R 2N4",
                        "region": "QC"
                  },
                  "name": "Mr. Azteca",
                  "popularity": 0.9330762679788039,
                  "price": 1,
                  "rating": 8.5
            },
            {
                  "distance": 972,
                  "location": {
                        "address": "709B Jarry Rue E",
                        "country": "CA",
                        "cross_street": "",
                        "formatted_address": "709B Jarry Rue E, Montr\u00e9al QC H2P 1W2",
                        "locality": "Montreal",
                        "postcode": "H2P 1W2",
                        "region": "QC"
                  },
                  "name": "Baristello & Co",
                  "popularity": 0.9224664080242241,
                  "price": 1,
                  "rating": 8.3
            },
            {
                  "distance": 990,
                  "location": {
                        "address": "1309 Saint-Zotique Rue E",
                        "country": "CA",
                        "cross_street": "coin Chambord",
                        "formatted_address": "1309 Saint-Zotique Rue E (coin Chambord), Montr\u00e9al QC H2G 1G6",
                        "locality": "Montreal",
                        "postcode": "H2G 1G6",
                        "region": "QC"
                  },
                  "name": "Bar le Jockey",
                  "popularity": 0.9420538417865254,
                  "price": 2,
                  "rating": 8.2
            },
            {
                  "distance": 838,
                  "location": {
                        "address": "1950 Jean-Talon Rue E",
                        "country": "CA",
                        "cross_street": "Chabot",
                        "formatted_address": "1950 Jean-Talon Rue E (Chabot), Montr\u00e9al QC H2E 1T8",
                        "locality": "Montreal",
                        "postcode": "H2E 1T8",
                        "region": "QC"
                  },
                  "name": "Boulangerie & Charcuterie San Pietro",
                  "popularity": 0.953763720666162,
                  "price": 1,
                  "rating": 8.2
            },
            {
                  "distance": 958,
                  "location": {
                        "address": "7070 Henri-Julien Ave",
                        "country": "CA",
                        "cross_street": "March\u00e9 Jean-Talon",
                        "formatted_address": "7070 Henri-Julien Ave (March\u00e9 Jean-Talon), Montr\u00e9al QC H2S 3S3",
                        "locality": "Montreal",
                        "postcode": "H2S 3S3",
                        "region": "QC"
                  },
                  "name": "Cr\u00eaperie du March\u00e9",
                  "popularity": 0.9273159538228615,
                  "rating": 7.8
            },
            {
                  "distance": 1011,
                  "location": {
                        "address": "6705 Saint-Hubert Rue",
                        "country": "CA",
                        "cross_street": "",
                        "formatted_address": "6705 Saint-Hubert Rue, Montr\u00e9al QC H2S 2M7",
                        "locality": "Montreal",
                        "postcode": "H2S 2M7",
                        "region": "QC"
                  },
                  "name": "Le Roi du Smoked Meat",
                  "popularity": 0.9673069644208933,
                  "price": 1,
                  "rating": 7.6
            },
            {
                  "distance": 566,
                  "location": {
                        "address": "519 Faillon Rue E",
                        "country": "CA",
                        "formatted_address": "519 Faillon Rue E, Montr\u00e9al QC H2R 1L6",
                        "locality": "Montreal",
                        "postcode": "H2R 1L6",
                        "region": "QC"
                  },
                  "name": "Daou Restaurant",
                  "popularity": 0.9034112414837244,
                  "price": 2,
                  "rating": 7.5
            },
            {
                  "distance": 924,
                  "location": {
                        "address": "220 Villeray Rue",
                        "country": "CA",
                        "cross_street": "coin Henri-Julien",
                        "formatted_address": "220 Villeray Rue (coin Henri-Julien), Montr\u00e9al QC H2R 1G5",
                        "locality": "Montreal",
                        "postcode": "H2R 1G5",
                        "region": "QC"
                  },
                  "name": "Miss Villeray",
                  "popularity": 0.9195448523845572,
                  "price": 2,
                  "rating": 7.4
            },
            {
                  "distance": 705,
                  "location": {
                        "address": "414 Jean-Talon Rue E",
                        "country": "CA",
                        "cross_street": "Saint-Denis",
                        "formatted_address": "414 Jean-Talon Rue E (Saint-Denis), Montr\u00e9al QC H2R 1T5",
                        "locality": "Montreal",
                        "postcode": "H2R 1T5",
                        "region": "QC"
                  },
                  "name": "Ligne Rouge Souvlaki",
                  "popularity": 0.9433904239212718,
                  "price": 1,
                  "rating": 7.3
            },
            {
                  "distance": 840,
                  "location": {
                        "address": "323 Jean-Talon Rue E",
                        "country": "CA",
                        "cross_street": "entre Drolet & Henri-Julien",
                        "formatted_address": "323 Jean-Talon Rue E (entre Drolet & Henri-Julien), Montr\u00e9al QC H2R 1T2",
                        "locality": "Montreal",
                        "postcode": "H2R 1T2",
                        "region": "QC"
                  },
                  "name": "Tim Hortons",
                  "popularity": 0.9721683383800152,
                  "price": 1,
                  "rating": 6.6
            },
            {
                  "distance": 681,
                  "location": {
                        "address": "7690 Papineau Ave",
                        "country": "CA",
                        "formatted_address": "7690 Papineau Ave, Montreal QC H2E 2H2",
                        "locality": "Montreal",
                        "postcode": "H2E 2H2",
                        "region": "QC"
                  },
                  "name": "Restaurant Deli-Plus",
                  "popularity": 0.9771243376230129,
                  "price": 1,
                  "rating": 6.6
            },
            {
                  "distance": 749,
                  "location": {
                        "address": "1280 Jarry Rue E",
                        "country": "CA",
                        "cross_street": "",
                        "formatted_address": "1280 Jarry Rue E, Montr\u00e9al QC H2P 1X1",
                        "locality": "Montreal",
                        "postcode": "H2P 1X1",
                        "region": "QC"
                  },
                  "name": "Subway",
                  "popularity": 0.9300955715367146,
                  "price": 1,
                  "rating": 6.4,
                  "store_id": "26612"
            },
            {
                  "distance": 983,
                  "location": {
                        "address": "1700 Jarry Rue E",
                        "country": "CA",
                        "cross_street": "",
                        "formatted_address": "1700 Jarry Rue E, Montr\u00e9al QC H2E 1B3",
                        "locality": "Montreal",
                        "postcode": "H2E 1B3",
                        "region": "QC"
                  },
                  "name": "KFC",
                  "popularity": 0.9714349924299773,
                  "price": 1,
                  "rating": 6.1
            },
            {
                  "distance": 384,
                  "location": {
                        "address": "7245 Saint-Hubert Rue",
                        "country": "CA",
                        "cross_street": "",
                        "formatted_address": "7245 Saint-Hubert Rue, Montr\u00e9al QC H2R 2N2",
                        "locality": "Montreal",
                        "postcode": "H2R 2N2",
                        "region": "QC"
                  },
                  "name": "Restaurant Pachamama",
                  "popularity": 0.9621025738077215,
                  "price": 2
            },
            {
                  "distance": 398,
                  "location": {
                        "address": "7217 Saint-Hubert Rue",
                        "country": "CA",
                        "cross_street": "De Castelnau",
                        "formatted_address": "7217 Saint-Hubert Rue (De Castelnau), Montr\u00e9al QC H2R 2N2",
                        "locality": "Montreal",
                        "postcode": "H2R 2N2",
                        "region": "QC"
                  },
                  "name": "Les Importations Eche",
                  "popularity": 0.9637585162755489,
                  "price": 1
            },
            {
                  "distance": 418,
                  "location": {
                        "address": "7614 Saint-Hubert Rue",
                        "country": "CA",
                        "cross_street": "",
                        "formatted_address": "7614 Saint-Hubert Rue, Montr\u00e9al QC H2R 2N6",
                        "locality": "Montreal",
                        "postcode": "H2R 2N6",
                        "region": "QC"
                  },
                  "name": "Pizzellicoq Restaurant",
                  "popularity": 0.8172076078728236,
                  "price": 2
            },
            {
                  "distance": 464,
                  "location": {
                        "address": "1370 Villeray Rue",
                        "country": "CA",
                        "cross_street": "",
                        "formatted_address": "1370 Villeray Rue, Montr\u00e9al QC H2E 1G6",
                        "locality": "Montreal",
                        "postcode": "H2E 1G6",
                        "region": "QC"
                  },
                  "name": "Tabac",
                  "popularity": 0.9707489591218774,
                  "price": 1
            },
            {
                  "distance": 618,
                  "location": {
                        "address": "426 Faillon Rue E",
                        "country": "CA",
                        "cross_street": "Berri",
                        "formatted_address": "426 Faillon Rue E (Berri), Montr\u00e9al QC H2R 1L4",
                        "locality": "Montreal",
                        "postcode": "H2R 1L4",
                        "region": "QC"
                  },
                  "name": "Caf\u00e9 Coquetel",
                  "popularity": 0.9526873580620742,
                  "price": 1
            },
            {
                  "distance": 643,
                  "location": {
                        "address": "1127 Belanger Rue",
                        "country": "CA",
                        "cross_street": "",
                        "formatted_address": "1127 Belanger Rue, Montr\u00e9al QC H2S 1H6",
                        "locality": "Montreal",
                        "postcode": "H2S 1H6",
                        "region": "QC"
                  },
                  "name": "Le Far Breton",
                  "popularity": 0.6438540878122634,
                  "price": 1
            },
            {
                  "distance": 711,
                  "location": {
                        "address": "1840 Jean Talon Rue E",
                        "country": "CA",
                        "cross_street": "Papineau",
                        "formatted_address": "1840 Jean Talon Rue E (Papineau), Montr\u00e9al QC H2E 1T5",
                        "locality": "Montreal",
                        "postcode": "H2E 1T5",
                        "region": "QC"
                  },
                  "name": "Dilallo Burger et Bar",
                  "popularity": 0.9578207797123391,
                  "price": 2
            },
            {
                  "distance": 759,
                  "location": {
                        "address": "7093 Saint-Denis Rue",
                        "country": "CA",
                        "cross_street": "Jean-Talon",
                        "formatted_address": "7093 Saint-Denis Rue (Jean-Talon), Montr\u00e9al QC H2S 2S5",
                        "locality": "Montreal",
                        "postcode": "H2S 2S5",
                        "region": "QC"
                  },
                  "name": "Thaison 1997",
                  "popularity": 0.8101461960635882,
                  "price": 2
            },
            {
                  "distance": 774,
                  "location": {
                        "address": "756 Belanger Rue",
                        "country": "CA",
                        "cross_street": "",
                        "formatted_address": "756 Belanger Rue, Montr\u00e9al QC H2S 1G6",
                        "locality": "Montreal",
                        "postcode": "H2S 1G6",
                        "region": "QC"
                  },
                  "name": "Ssam",
                  "popularity": 0.9451764761544285,
                  "price": 2
            },
            {
                  "distance": 798,
                  "location": {
                        "address": "360 Jean-Talon Rue E",
                        "country": "CA",
                        "cross_street": "",
                        "formatted_address": "360 Jean-Talon Rue E, Montr\u00e9al QC H2R 1T3",
                        "locality": "Montreal",
                        "postcode": "H2R 1T3",
                        "region": "QC"
                  },
                  "name": "PHO Jean-Talon",
                  "popularity": 0.9650714420893263,
                  "price": 2
            },
            {
                  "distance": 855,
                  "location": {
                        "address": "6839 Saint Hubert Rue",
                        "country": "CA",
                        "cross_street": "",
                        "formatted_address": "6839 Saint Hubert Rue, Montr\u00e9al QC H2S 2M7",
                        "locality": "Montreal",
                        "postcode": "H2S 2M7",
                        "region": "QC"
                  },
                  "name": "La Cale - pub z\u00e9ro d\u00e9chet",
                  "popularity": 0.9656746782740349,
                  "price": 1
            },
            {
                  "distance": 884,
                  "location": {
                        "address": "1534 Jarry Rue E",
                        "country": "CA",
                        "cross_street": "",
                        "formatted_address": "1534 Jarry Rue E, Montr\u00e9al QC H2E 1A9",
                        "locality": "Montreal",
                        "postcode": "H2E 1A9",
                        "region": "QC"
                  },
                  "name": "Pizza Montreal",
                  "popularity": 0.9646456283118849,
                  "price": 1
            },
            {
                  "distance": 933,
                  "location": {
                        "address": "1660 Jarry Rue E",
                        "country": "CA",
                        "cross_street": "",
                        "formatted_address": "1660 Jarry Rue E, Montr\u00e9al QC H2E 1B3",
                        "locality": "Montreal",
                        "postcode": "H2E 1B3",
                        "region": "QC"
                  },
                  "name": "Le Gras Dur",
                  "popularity": 0.8562287093111279,
                  "price": 2
            },
            {
                  "distance": 945,
                  "location": {
                        "address": "751 Jarry Rue E",
                        "country": "CA",
                        "cross_street": "",
                        "formatted_address": "751 Jarry Rue E, Montr\u00e9al QC H2P 1W3",
                        "locality": "Montreal",
                        "postcode": "H2P 1W3",
                        "region": "QC"
                  },
                  "name": "Fanfare Jarry",
                  "popularity": 0.9510314155942468,
                  "price": 1
            },
            {
                  "distance": 990,
                  "location": {
                        "address": "7070 Henri-Julien Ave",
                        "country": "CA",
                        "cross_street": "Mozart ave E",
                        "formatted_address": "7070 Henri-Julien Ave (Mozart ave E), Montr\u00e9al QC H2S 3S3",
                        "locality": "Montreal",
                        "postcode": "H2S 3S3",
                        "region": "QC"
                  },
                  "name": "Beignes d'antan",
                  "popularity": 0.31678179409538226,
                  "price": 1
            },
            {
                  "distance": 993,
                  "location": {
                        "address": "929 Saint-Zotique Rue E",
                        "country": "CA",
                        "cross_street": "",
                        "formatted_address": "929 Saint-Zotique Rue E, Montr\u00e9al QC H2S 1M9",
                        "locality": "Montreal",
                        "postcode": "H2S 1M9",
                        "region": "QC"
                  },
                  "name": "Kasaisuta Fusion",
                  "popularity": 0.8928132096896291,
                  "price": 2
            },
            {
                  "distance": 1000,
                  "location": {
                        "address": "231 Pl du March\u00e9-du-Nord",
                        "country": "CA",
                        "cross_street": "",
                        "formatted_address": "231 Pl du March\u00e9-du-Nord, Montreal QC H2S 1A2",
                        "locality": "Montreal",
                        "postcode": "H2S 1A2",
                        "region": "QC"
                  },
                  "name": "T\u00eate Carr\u00e9e",
                  "popularity": 0.11123202119606358
            }
      ],
      "context": {
            "geo_bounds": {
                  "circle": {
                        "center": {
                              "latitude": 45.544867,
                              "longitude": -73.614841
                        },
                        "radius": 1000
                  }
            }
      }
}