{
      "results": [
            {
                  "distance": 993,
                  "location": {
                        "address": "4662 Notre-Dame Rue O",
                        "country": "CA",
                        "cross_street": "De Courcelles",
                        "formatted_address": "4662 Notre-Dame Rue O (De Courcelles), Montr\u00e9al QC H4C 1S6",
                        "locality": "Montreal",
                        "postcode": "H4C 1S6",
                        "region": "QC"
                  },
                  "name": "Tuck Shop",
                  "popularity": 0.9177469719909159,
                  "price": 3,
                  "rating": 9.2
            },
            {
                  "distance": 568,
                  "location": {
                        "address": "2471 Notre-Dame Rue O",
                        "country": "CA",
                        "cross_street": "entre Vinet & Charlevoix",
                        "formatted_address": "2471 Notre-Dame Rue O (entre Vinet & Charlevoix), Montr\u00e9al QC H3J 1N6",
                        "locality": "Montreal",
                        "postcode": "H3J 1N6",
                        "region": "QC"
                  },
                  "name": "September Surf Caf\u00e9",
                  "popularity": 0.9357139477668432,
                  "price": 1,
                  "rating": 9.0
            },
            {
                  "distance": 328,
                  "location": {
                        "address": "2713 Notre-Dame Rue O",
                        "country": "CA",
                        "cross_street": "Atwater",
                        "formatted_address": "2713 Notre-Dame Rue O (Atwater), Montr\u00e9al QC H3J 1N9",
                        "locality": "Montreal",
                        "postcode": "H3J 1N9",
                        "region": "QC"
                  },
                  "name": "Lili & Oli",
                  "popularity": 0.9507711960635882,
                  "price": 1,
                  "rating": 8.9
            },
            {
                  "distance": 534,
                  "location": {
                        "address": "2501 Notre-Dame Rue O",
                        "country": "CA",
                        "cross_street": "btwn Charlevoix & Vinet",
                        "formatted_address": "2501 Notre-Dame Rue O (btwn Charlevoix & Vinet), Montr\u00e9al QC H3J 1N6",
                        "locality": "Montreal",
                        "postcode": "H3J 1N6",
                        "region": "QC"
                  },
                  "name": "Liverpool House",
                  "popularity": 0.9156888720666162,
                  "price": 3,
                  "rating": 8.9
            },
            {
                  "distance": 509,
                  "location": {
                        "address": "2519 Notre-Dame Rue O",
                        "country": "CA",
                        "cross_street": "",
                        "formatted_address": "2519 Notre-Dame Rue O, Montr\u00e9al QC H3J 1N6",
                        "locality": "Montreal",
                        "postcode": "H3J 1N6",
                        "region": "QC"
                  },
                  "name": "Le Vin Papillon",
                  "popularity": 0.9172383610900833,
                  "price": 3,
                  "rating": 8.9
            },
            {
                  "distance": 126,
                  "location": {
                        "address": "3721 Notre-Dame Rue O",
                        "country": "CA",
                        "cross_street": "entre Bourget & Turgeon",
                        "formatted_address": "3721 Notre-Dame Rue O (entre Bourget & Turgeon), Montr\u00e9al QC H4C 1P8",
                        "locality": "Montreal",
                        "postcode": "H4C 1P8",
                        "region": "QC"
                  },
                  "name": "Satay Brothers",
                  "popularity": 0.9822577592732779,
                  "price": 2,
                  "rating": 8.9
            },
            {
                  "distance": 543,
                  "location": {
                        "address": "2490 Notre-Dame Rue O",
                        "country": "CA",
                        "formatted_address": "2490 Notre-Dame Rue O, Montreal QC H3J 1N5",
                        "locality": "Montreal",
                        "postcode": "H3J 1N5",
                        "region": "QC"
                  },
                  "name": "Th\u00e9\u00e2tre Corona",
                  "popularity": 0.9053274034822104,
                  "rating": 8.8
            },
            {
                  "distance": 531,
                  "location": {
                        "address": "2496 Notre-Dame Rue O",
                        "country": "CA",
                        "cross_street": "entre Charlevoix & Vinet",
                        "formatted_address": "2496 Notre-Dame Rue O (entre Charlevoix & Vinet), Montr\u00e9al QC H3J 1N5",
                        "locality": "Montreal",
                        "postcode": "H3J 1N5",
                        "region": "QC"
                  },
                  "name": "Burgundy Lion",
                  "popularity": 0.956637963663891,
                  "price": 2,
                  "rating": 8.8
            },
            {
                  "distance": 1022,
                  "location": {
                        "address": "4006 Sainte-Catherine Rue O",
                        "country": "CA",
                        "cross_street": "coin Atwater",
                        "formatted_address": "4006 Sainte-Catherine Rue O (coin Atwater), Westmount QC H3Z 1P2",
                        "locality": "Westmount",
                        "postcode": "H3Z 1P2",
                        "region": "QC"
                  },
                  "name": "Imadake",
                  "popularity": 0.9621822690638562,
                  "price": 2,
                  "rating": 8.7
            },
            {
                  "distance": 253,
                  "location": {
                        "address": "512 Atwater Ave",
                        "country": "CA",
                        "cross_street": "Notre-Dame",
                        "formatted_address": "512 Atwater Ave (Notre-Dame), Montr\u00e9al QC H4C 2G5",
                        "locality": "Montreal",
                        "postcode": "H4C 2G5",
                        "region": "QC"
                  },
                  "name": "Atwater Cocktail Club",
                  "popularity": 0.969412376987131,
                  "price": 3,
                  "rating": 8.7
            },
            {
                  "distance": 71,
                  "location": {
                        "address": "3618 Notre-Dame Rue O",
                        "country": "CA",
                        "cross_street": "",
                        "formatted_address": "3618 Notre-Dame Rue O, Montr\u00e9al QC H4C 1P5",
                        "locality": "Montreal",
                        "postcode": "H4C 1P5",
                        "region": "QC"
                  },
                  "name": "Sumac",
                  "popularity": 0.9393806775170326,
                  "price": 2,
                  "rating": 8.5
            },
            {
                  "distance": 111,
                  "location": {
                        "address": "3502 Notre-Dame Rue O",
                        "country": "CA",
                        "cross_street": "",
                        "formatted_address": "3502 Notre-Dame Rue O, Montr\u00e9al QC H4C 1P4",
                        "locality": "Montreal",
                        "postcode": "H4C 1P4",
                        "region": "QC"
                  },
                  "name": "Eko Sushi",
                  "popularity": 0.925316994700984,
                  "price": 2,
                  "rating": 8.5
            },
            {
                  "distance": 281,
                  "location": {
                        "address": "138 Atwater Ave",
                        "country": "CA",
                        "formatted_address": "138 Atwater Ave, Montr\u00e9al QC H4C 2G3",
                        "locality": "Montreal",
                        "postcode": "H4C 2G3",
                        "region": "QC"
                  },
                  "name": "Satay Brothers",
                  "popularity": 0.882025927327782,
                  "price": 2,
                  "rating": 8.4
            },
            {
                  "distance": 949,
                  "location": {
                        "address": "4621 Notre-Dame Rue O",
                        "country": "CA",
                        "cross_street": "",
                        "formatted_address": "4621 Notre-Dame Rue O, Montr\u00e9al QC H4C 1S5",
                        "locality": "Montreal",
                        "postcode": "H4C 1S5",
                        "region": "QC"
                  },
                  "name": "Arthurs Nosh Bar",
                  "popularity": 0.9455668054504164,
                  "rating": 8.3
            },
            {
                  "distance": 252,
                  "location": {
                        "address": "3001 Notre-Dame Rue O",
                        "country": "CA",
                        "cross_street": "coin Atwater",
                        "formatted_address": "3001 Notre-Dame Rue O (coin Atwater), Montr\u00e9al QC H4C 1N9",
                        "locality": "Montreal",
                        "postcode": "H4C 1N9",
                        "region": "QC"
                  },
                  "name": "Foiegwa",
                  "popularity": 0.9437807532172596,
                  "price": 3,
                  "rating": 8.2
            },
            {
                  "distance": 992,
                  "location": {
                        "address": "4024B Sainte Catherine Rue O",
                        "country": "CA",
                        "cross_street": "",
                        "formatted_address": "4024B Sainte Catherine Rue O, Westmount QC H3Z 1P2",
                        "locality": "Westmount",
                        "postcode": "H3Z 1P2",
                        "region": "QC"
                  },
                  "name": "Sparta Rotisserie&Grill",
                  "popularity": 0.9783013019218847,
                  "price": 2,
                  "rating": 8.1
            },
            {
                  "distance": 938,
                  "location": {
                        "address": "4615 Notre-Dame Rue O",
                        "country": "CA",
                        "formatted_address": "4615 Notre-Dame Rue O, Montr\u00e9al QC H4C 1S5",
                        "locality": "Montreal",
                        "postcode": "H4C 1S5",
                        "region": "QC"
                  },
                  "name": "Rustique",
                  "popularity": 0.8620599924299773,
                  "price": 1,
                  "rating": 8.0
            },
            {
                  "distance": 435,
                  "location": {
                        "address": "138 Atwater Ave",
                        "country": "CA",
                        "formatted_address": "138 Atwater Ave, Montr\u00e9al QC H4C 2G3",
                        "locality": "Montreal",
                        "postcode": "H4C 2G3",
                        "region": "QC"
                  },
                  "name": "Havre-aux-Glaces",
                  "popularity": 0.9121049394398183,
                  "price": 1,
                  "rating": 7.9
            },
            {
                  "distance": 513,
                  "location": {
                        "address": "3068 Saint-Antoine Rue O",
                        "country": "CA",
                        "cross_street": "Avenue Marin",
                        "formatted_address": "3068 Saint-Antoine Rue O (Avenue Marin), Montr\u00e9al QC H4C 1A5",
                        "locality": "Montreal",
                        "postcode": "H4C 1A5",
                        "region": "QC"
                  },
                  "name": "Cafe Joe",
                  "popularity": 0.8828302422407267,
                  "price": 1,
                  "rating": 7.8
            },
            {
                  "distance": 956,
                  "location": {
                        "address": "4629 Notre-Dame Rue O",
                        "country": "CA",
                        "cross_street": "Delinelle",
                        "formatted_address": "4629 Notre-Dame Rue O (Delinelle), Montr\u00e9al QC H4C 1S5",
                        "locality": "Montreal",
                        "postcode": "H4C 1S5",
                        "region": "QC"
                  },
                  "name": "Adamo",
                  "popularity": 0.8417392127176382,
                  "price": 1,
                  "rating": 7.8
            },
            {
                  "distance": 414,
                  "location": {
                        "address": "2661 Notre-Dame Rue O",
                        "country": "CA",
                        "cross_street": "Petite-Bourgogne",
                        "formatted_address": "2661 Notre-Dame Rue O (Petite-Bourgogne), Montr\u00e9al QC H3J 1N9",
                        "locality": "Montreal",
                        "postcode": "H3J 1N9",
                        "region": "QC"
                  },
                  "name": "Drinkerie Ste-Cun\u00e9gonde",
                  "popularity": 0.9424678274034822,
                  "price": 2,
                  "rating": 7.8
            },
            {
                  "distance": 997,
                  "location": {
                        "address": "2483 rue du Ctr",
                        "country": "CA",
                        "cross_street": "",
                        "formatted_address": "2483 rue du Ctr, Montr\u00e9al QC H3K 1J9",
                        "locality": "Montreal",
                        "postcode": "H3K 1J9",
                        "region": "QC"
                  },
                  "name": "Clarke Caf\u00e9",
                  "popularity": 0.9593111279333838,
                  "price": 1,
                  "rating": 7.6
            },
            {
                  "distance": 177,
                  "location": {
                        "address": "3041 Notre-Dame Rue O",
                        "country": "CA",
                        "cross_street": "coin Greene",
                        "formatted_address": "3041 Notre-Dame Rue O (coin Greene), Montr\u00e9al QC H4C 1N9",
                        "locality": "Montreal",
                        "postcode": "H4C 1N9",
                        "region": "QC"
                  },
                  "name": "Green Spot",
                  "popularity": 0.9889998107494322,
                  "price": 1,
                  "rating": 7.6
            },
            {
                  "distance": 290,
                  "location": {
                        "address": "2745 Notre-Dame Rue O",
                        "country": "CA",
                        "cross_street": "avenue Atwater",
                        "formatted_address": "2745 Notre-Dame Rue O (avenue Atwater), Montr\u00e9al QC H3J 1N9",
                        "locality": "Montreal",
                        "postcode": "H3J 1N9",
                        "region": "QC"
                  },
                  "name": "Resto Cafe Quoi de N'Oeuf",
                  "popularity": 0.9520959500378501,
                  "price": 2,
                  "rating": 7.4
            },
            {
                  "distance": 930,
                  "location": {
                        "address": "4609 Notre Dame Rue O",
                        "country": "CA",
                        "cross_street": "",
                        "formatted_address": "4609 Notre Dame Rue O, Montr\u00e9al QC H4C 1S5",
                        "locality": "Montreal",
                        "postcode": "H4C 1S5",
                        "region": "QC"
                  },
                  "name": "Dalla Rose",
                  "popularity": 0.9003359197577593,
                  "price": 1,
                  "rating": 7.3
            },
            {
                  "distance": 59,
                  "location": {
                        "address": "3568 Notre-Dame Rue O",
                        "country": "CA",
                        "cross_street": "coin Rose de Lima",
                        "formatted_address": "3568 Notre-Dame Rue O (coin Rose de Lima), Montr\u00e9al QC H4C 1P4",
                        "locality": "Montreal",
                        "postcode": "H4C 1P4",
                        "region": "QC"
                  },
                  "name": "Restaurant Nozy",
                  "popularity": 0.9039435087055261,
                  "price": 2,
                  "rating": 7.2
            },
            {
                  "distance": 892,
                  "location": {
                        "address": "4435 Sainte-Catherine Rue O",
                        "country": "CA",
                        "cross_street": "",
                        "formatted_address": "4435 Sainte-Catherine Rue O, Westmount QC H3Z 1R5",
                        "locality": "Westmount",
                        "postcode": "H3Z 1R5",
                        "region": "QC"
                  },
                  "name": "Nagoya Sushi",
                  "popularity": 0.9423434593924365,
                  "price": 2,
                  "rating": 6.7
            },
            {
                  "distance": 921,
                  "location": {
                        "address": "1232 Greene Ave",
                        "country": "CA",
                        "cross_street": "Ste-Catherine",
                        "formatted_address": "1232 Greene Ave (Ste-Catherine), Montr\u00e9al QC H3Z 2A3",
                        "locality": "Montreal",
                        "postcode": "H3Z 2A3",
                        "region": "QC"
                  },
                  "name": "Restaurant Kashima",
                  "popularity": 0.14135151890886546,
                  "price": 2,
                  "rating": 6.6
            },
            {
                  "distance": 586,
                  "location": {
                        "address": "4020 Saint-Ambroise Rue",
                        "address_extended": "# 140",
                        "country": "CA",
                        "formatted_address": "4020 Saint-Ambroise Rue, Montr\u00e9al QC H4C 2C7",
                        "locality": "Montreal",
                        "postcode": "H4C 2C7",
                        "region": "QC"
                  },
                  "name": "Restaurant l'Ambroisie",
                  "popularity": 0.9416871688115064,
                  "price": 2,
                  "rating": 6.3
            },
            {
                  "distance": 226,
                  "location": {
                        "address": "3009 Notre Dame Rue O",
                        "country": "CA",
                        "cross_street": "Atwater",
                        "formatted_address": "3009 Notre Dame Rue O (Atwater), Montr\u00e9al QC H4C 1N9",
                        "locality": "Montreal",
                        "postcode": "H4C 1N9",
                        "region": "QC"
                  },
                  "name": "Thai Express",
                  "popularity": 0.9009391559424679,
                  "price": 2,
                  "rating": 6.0,
                  "store_id": "68"
            },
            {
                  "distance": 769,
                  "location": {
                        "address": "4401 Notre-Dame Rue O",
                        "country": "CA",
                        "cross_street": "Beaudoin",
                        "formatted_address": "4401 Notre-Dame Rue O (Beaudoin), Montr\u00e9al QC H4C 1S2",
                        "locality": "Montreal",
                        "postcode": "H4C 1S2",
                        "region": "QC"
                  },
                  "name": "Le T\u00e9quila Bar",
                  "popularity": 0.929515991672975,
                  "price": 1,
                  "rating": 5.7
            },
            {
                  "distance": 436,
                  "location": {
                        "address": "700 Atwater Ave",
                        "country": "CA",
                        "cross_street": "coin St-Jacques",
                        "formatted_address": "700 Atwater Ave (coin St-Jacques), Montr\u00e9al QC H4C 2G9",
                        "locality": "Montreal",
                        "postcode": "H4C 2G9",
                        "region": "QC"
                  },
                  "name": "Tim Hortons",
                  "popularity": 0.9925955715367146,
                  "price": 1,
                  "rating": 5.6
            },
            {
                  "distance": 201,
                  "location": {
                        "address": "3026 Notre-Dame Rue O",
                        "country": "CA",
                        "cross_street": "Greene",
                        "formatted_address": "3026 Notre-Dame Rue O (Greene), Montr\u00e9al QC H4C 1P1",
                        "locality": "Montreal",
                        "postcode": "H4C 1P1",
                        "region": "QC"
                  },
                  "name": "McDonald's",
                  "popularity": 0.9893073429220288,
                  "price": 1,
                  "rating": 4.8,
                  "store_id": "26035"
            },
            {
                  "distance": 149,
                  "location": {
                        "address": "3426 Notre-Dame Rue O",
                        "country": "CA",
                        "cross_street": "",
                        "formatted_address": "3426 Notre-Dame Rue O, Montr\u00e9al QC H4C 1P2",
                        "locality": "Montreal",
                        "postcode": "H4C 1P2",
                        "region": "QC"
                  },
                  "name": "Tropik\u00e0l Restobar",
                  "popularity": 0.9082844436033308,
                  "price": 2
            },
            {
                  "distance": 155,
                  "location": {
                        "address": "3401 Notre-Dame Rue O",
                        "country": "CA",
                        "cross_street": "",
                        "formatted_address": "3401 Notre-Dame Rue O, Montr\u00e9al QC H4C 1P3",
                        "locality": "Montreal",
                        "postcode": "H4C 1P3",
                        "region": "QC"
                  },
                  "name": "9 Tail Fox",
                  "popularity": 0.8886023845571537,
                  "price": 2
            }
      ],
      "context": {
            "geo_bounds": {
                  "circle": {
                        "center": {
                              "latitude": 45.48026418,
                              "longitude": -73.58099364
                        },
                        "radius": 1000
                  }
            }
      }
}