{
      "results": [
            {
                  "distance": 728,
                  "location": {
                        "address": "1940 rue du Ctr",
                        "country": "CA",
                        "cross_street": "rue Jardin",
                        "formatted_address": "1940 rue du Ctr (rue Jardin), Montr\u00e9al QC H3K 1J2",
                        "locality": "Montreal",
                        "postcode": "H3K 1J2",
                        "region": "QC"
                  },
                  "name": "Le Caf\u00e9 Bloom",
                  "popularity": 0.9499195685087055,
                  "price": 2,
                  "rating": 9.0
            },
            {
                  "distance": 829,
                  "location": {
                        "address": "1871 Rue du Ctr",
                        "country": "CA",
                        "cross_street": "Shearer",
                        "formatted_address": "1871 Rue du Ctr (Shearer), Montr\u00e9al QC H3K 1J1",
                        "locality": "Montreal",
                        "postcode": "H3K 1J1",
                        "region": "QC"
                  },
                  "name": "Knox Taverne",
                  "popularity": 0.9547572861468584,
                  "price": 2,
                  "rating": 8.3
            },
            {
                  "distance": 57,
                  "location": {
                        "address": "760 Charlevoix Rue",
                        "country": "CA",
                        "cross_street": "at Rue de Coleraine",
                        "formatted_address": "760 Charlevoix Rue (at Rue de Coleraine), Montr\u00e9al QC H3K 2Y2",
                        "locality": "Montreal",
                        "postcode": "H3K 2Y2",
                        "region": "QC"
                  },
                  "name": "Paul Patates Frites",
                  "popularity": 0.9733866389099167,
                  "price": 1,
                  "rating": 8.3
            },
            {
                  "distance": 809,
                  "location": {
                        "address": "1870 rue du Ctr",
                        "country": "CA",
                        "cross_street": "",
                        "formatted_address": "1870 rue du Ctr, Montr\u00e9al QC H3K 1H9",
                        "locality": "Montreal",
                        "postcode": "H3K 1H9",
                        "region": "QC"
                  },
                  "name": "Le Petit Sao",
                  "popularity": 0.8894894965934897,
                  "price": 2,
                  "rating": 8.0
            },
            {
                  "distance": 938,
                  "location": {
                        "address": "138 Atwater Ave",
                        "country": "CA",
                        "formatted_address": "138 Atwater Ave, Montr\u00e9al QC H4C 2G3",
                        "locality": "Montreal",
                        "postcode": "H4C 2G3",
                        "region": "QC"
                  },
                  "name": "Havre-aux-Glaces",
                  "popularity": 0.9121049394398183,
                  "price": 1,
                  "rating": 7.9
            },
            {
                  "distance": 891,
                  "location": {
                        "address": "3610 Wellington Rue",
                        "country": "CA",
                        "cross_street": "",
                        "formatted_address": "3610 Wellington Rue, Verdun QC H4G 1T6",
                        "locality": "Verdun",
                        "postcode": "H4G 1T6",
                        "region": "QC"
                  },
                  "name": "Chez Boss & Fils",
                  "popularity": 0.8235593300529902,
                  "price": 2,
                  "rating": 7.9
            },
            {
                  "distance": 488,
                  "location": {
                        "address": "2483 rue du Ctr",
                        "country": "CA",
                        "cross_street": "",
                        "formatted_address": "2483 rue du Ctr, Montr\u00e9al QC H3K 1J9",
                        "locality": "Montreal",
                        "postcode": "H3K 1J9",
                        "region": "QC"
                  },
                  "name": "Clarke Caf\u00e9",
                  "popularity": 0.9593111279333838,
                  "price": 1,
                  "rating": 7.6
            },
            {
                  "distance": 469,
                  "location": {
                        "address": "2556 rue du Ctr",
                        "country": "CA",
                        "cross_street": "Rue Charlevoix",
                        "formatted_address": "2556 rue du Ctr (Rue Charlevoix), Montr\u00e9al QC H3K 1J8",
                        "locality": "Montreal",
                        "postcode": "H3K 1J8",
                        "region": "QC"
                  },
                  "name": "Restaurant Cari Mela",
                  "popularity": 0.8533899507948524,
                  "price": 2,
                  "rating": 7.5
            },
            {
                  "distance": 977,
                  "location": {
                        "address": "141A Atwater Ave",
                        "country": "CA",
                        "cross_street": "Rufus Rockhead",
                        "formatted_address": "141A Atwater Ave (Rufus Rockhead), Montr\u00e9al QC H3J 2Z8",
                        "locality": "Montreal",
                        "postcode": "H3J 2Z8",
                        "region": "QC"
                  },
                  "name": "S\u00e9same",
                  "popularity": 0.9414624337623013,
                  "price": 2,
                  "rating": 6.7
            },
            {
                  "distance": 986,
                  "location": {
                        "address": "3625 Wellington Rue",
                        "country": "CA",
                        "cross_street": "",
                        "formatted_address": "3625 Wellington Rue, Montr\u00e9al QC H4G 1T9",
                        "locality": "Montreal",
                        "postcode": "H4G 1T9",
                        "region": "QC"
                  },
                  "name": "Les Street Monkeys",
                  "popularity": 0.9585659538228615,
                  "rating": 6.4
            },
            {
                  "distance": 477,
                  "location": {
                        "address": "2563 rue du Ctr",
                        "country": "CA",
                        "cross_street": "",
                        "formatted_address": "2563 rue du Ctr, Montr\u00e9al QC H3K 1J9",
                        "locality": "Montreal",
                        "postcode": "H3K 1J9",
                        "region": "QC"
                  },
                  "name": "Pizza Charlevoix",
                  "popularity": 0.950227100681302,
                  "price": 1,
                  "rating": 6.4
            },
            {
                  "distance": 950,
                  "location": {
                        "address": "3665 Wellington Rue",
                        "country": "CA",
                        "cross_street": "",
                        "formatted_address": "3665 Wellington Rue, Montr\u00e9al QC H4G 1T9",
                        "locality": "Montreal",
                        "postcode": "H4G 1T9",
                        "region": "QC"
                  },
                  "name": "Poutine Lafleur",
                  "popularity": 0.8990703065859198,
                  "rating": 6.2
            },
            {
                  "distance": 780,
                  "location": {
                        "address": "2172 Saint Patrick Rue",
                        "country": "CA",
                        "cross_street": "",
                        "formatted_address": "2172 Saint Patrick Rue, Montr\u00e9al QC H3K 1B1",
                        "locality": "Montreal",
                        "postcode": "H3K 1B1",
                        "region": "QC"
                  },
                  "name": "Brasserie Capri",
                  "popularity": 0.8528103709311128,
                  "price": 1,
                  "rating": 5.9
            },
            {
                  "distance": 43,
                  "location": {
                        "address": "801 Charlevoix Rue",
                        "country": "CA",
                        "cross_street": "",
                        "formatted_address": "801 Charlevoix Rue, Montr\u00e9al QC H3K 2Y5",
                        "locality": "Montreal",
                        "postcode": "H3K 2Y5",
                        "region": "QC"
                  },
                  "name": "Connie Pizza",
                  "popularity": 0.8321702308856926,
                  "price": 1
            },
            {
                  "distance": 347,
                  "location": {
                        "address": "2687 Wellington Rue",
                        "country": "CA",
                        "cross_street": "",
                        "formatted_address": "2687 Wellington Rue, Montreal QC H3K 1X8",
                        "locality": "Montreal",
                        "postcode": "H3K 1X8",
                        "region": "QC"
                  },
                  "name": "Pub St Charles",
                  "popularity": 0.9495055828917487,
                  "price": 2
            },
            {
                  "distance": 458,
                  "location": {
                        "address": "2556 rue du Ctr",
                        "country": "CA",
                        "cross_street": "",
                        "formatted_address": "2556 rue du Ctr, Montr\u00e9al QC H3K 1J8",
                        "locality": "Montreal",
                        "postcode": "H3K 1J8",
                        "region": "QC"
                  },
                  "name": "Spice Bros",
                  "popularity": 0.7954556207418623,
                  "price": 2
            },
            {
                  "distance": 474,
                  "location": {
                        "address": "2567 Centre St",
                        "country": "CA",
                        "cross_street": "",
                        "formatted_address": "2567 Centre St, Montr\u00e9al QC H3K 1J9",
                        "locality": "Montreal",
                        "postcode": "H3K 1J9",
                        "region": "QC"
                  },
                  "name": "LaChicR\u00e9gal",
                  "popularity": 0.8318272142316427,
                  "price": 2
            },
            {
                  "distance": 486,
                  "location": {
                        "address": "2601 Rue Ctr",
                        "country": "CA",
                        "cross_street": "",
                        "formatted_address": "2601 Rue Ctr, Montr\u00e9al QC H3K 1K2",
                        "locality": "Montreal",
                        "postcode": "H3K 1K2",
                        "region": "QC"
                  },
                  "name": "Sep Lai",
                  "popularity": 0.945484008327025,
                  "price": 2
            },
            {
                  "distance": 503,
                  "location": {
                        "address": "2069 Wellington Rue",
                        "country": "CA",
                        "cross_street": "Fortune",
                        "formatted_address": "2069 Wellington Rue (Fortune), Montr\u00e9al QC H3K 1W7",
                        "locality": "Montreal",
                        "postcode": "H3K 1W7",
                        "region": "QC"
                  },
                  "name": "Mollo",
                  "popularity": 0.9784609197577593,
                  "price": 1
            },
            {
                  "distance": 536,
                  "location": {
                        "address": "3136 Lasalle Blvd",
                        "country": "CA",
                        "cross_street": "",
                        "formatted_address": "3136 Lasalle Blvd, Montr\u00e9al QC",
                        "locality": "Montreal",
                        "region": "QC"
                  },
                  "name": "The Lincoln Apartment Bakery",
                  "popularity": 0.25557106358819076
            },
            {
                  "distance": 652,
                  "location": {
                        "address": "2042 Center Rue",
                        "country": "CA",
                        "cross_street": "",
                        "formatted_address": "2042 Center Rue, Montr\u00e9al QC",
                        "locality": "Montreal",
                        "region": "QC"
                  },
                  "name": "Cr\u00e8merie du coin",
                  "popularity": 0.9050671839515518,
                  "price": 1
            },
            {
                  "distance": 702,
                  "location": {
                        "address": "3323 Evelyn",
                        "country": "CA",
                        "cross_street": "",
                        "formatted_address": "3323 Evelyn, Montr\u00e9al QC H4G 1N9",
                        "locality": "Montreal",
                        "postcode": "H4G 1N9",
                        "region": "QC"
                  },
                  "name": "Saint Jjh & Caf\u00e9",
                  "popularity": 0.9803652535957608,
                  "price": 1
            },
            {
                  "distance": 704,
                  "location": {
                        "address": "2604 Saint-Patrick Rue",
                        "country": "CA",
                        "cross_street": "",
                        "formatted_address": "2604 Saint-Patrick Rue, Montr\u00e9al QC H3K 1B8",
                        "locality": "Montreal",
                        "postcode": "H3K 1B8",
                        "region": "QC"
                  },
                  "name": "Caf\u00e9 Redwood",
                  "popularity": 0.9289127554882665,
                  "price": 1
            },
            {
                  "distance": 706,
                  "location": {
                        "address": "2606 Saint-Patrick Rue",
                        "country": "CA",
                        "cross_street": "",
                        "formatted_address": "2606 Saint-Patrick Rue, Montr\u00e9al QC H3K 1B8",
                        "locality": "Montreal",
                        "postcode": "H3K 1B8",
                        "region": "QC"
                  },
                  "name": "Restaurant Krood",
                  "popularity": 0.8481973883421651
            },
            {
                  "distance": 770,
                  "location": {
                        "address": "1900 Rue du Ctr",
                        "country": "CA",
                        "cross_street": "",
                        "formatted_address": "1900 Rue du Ctr, Montr\u00e9al QC H3K 1H9",
                        "locality": "Montreal",
                        "postcode": "H3K 1H9",
                        "region": "QC"
                  },
                  "name": "Restaurant Boca Boa Grill",
                  "popularity": 0.5995931112793338,
                  "price": 2
            },
            {
                  "distance": 780,
                  "location": {
                        "address": "1886 Rue Ctr",
                        "country": "CA",
                        "cross_street": "",
                        "formatted_address": "1886 Rue Ctr, Montr\u00e9al QC H3K 1H9",
                        "locality": "Montreal",
                        "postcode": "H3K 1H9",
                        "region": "QC"
                  },
                  "name": "Fugazzi Pizza",
                  "popularity": 0.9187168811506434,
                  "price": 1
            },
            {
                  "distance": 805,
                  "location": {
                        "address": "1883 Rue du Ctr",
                        "country": "CA",
                        "cross_street": "Shearer",
                        "formatted_address": "1883 Rue du Ctr (Shearer), Montr\u00e9al QC H3K 1J1",
                        "locality": "Montreal",
                        "postcode": "H3K 1J1",
                        "region": "QC"
                  },
                  "name": "Caf\u00e9 Ton Quartier",
                  "popularity": 0.849522142316427,
                  "price": 1
            },
            {
                  "distance": 971,
                  "location": {
                        "address": "Rue Strathmore",
                        "country": "CA",
                        "cross_street": "",
                        "formatted_address": "Rue Strathmore, Verdun QC",
                        "locality": "Verdun",
                        "region": "QC"
                  },
                  "name": "Le Grill J'aime la Frite",
                  "popularity": 0.5882735616956851,
                  "price": 1
            },
            {
                  "distance": 991,
                  "location": {
                        "address": "3683 Wellington Rue",
                        "country": "CA",
                        "cross_street": "",
                        "formatted_address": "3683 Wellington Rue, Montr\u00e9al QC H4G 1V1",
                        "locality": "Montreal",
                        "postcode": "H4G 1V1",
                        "region": "QC"
                  },
                  "name": "Archway Bar Sant\u00e9",
                  "popularity": 0.9512443224829674,
                  "price": 2
            },
            {
                  "distance": 323,
                  "location": {
                        "address": "2251 Wellington Rue",
                        "country": "CA",
                        "formatted_address": "2251 Wellington Rue, Montreal QC H3K 1X4",
                        "locality": "Montreal",
                        "postcode": "H3K 1X4",
                        "region": "QC"
                  },
                  "name": "Alexander Resto"
            },
            {
                  "distance": 439,
                  "location": {
                        "address": "1170 Ropery Rue",
                        "country": "CA",
                        "formatted_address": "1170 Ropery Rue, Montreal QC H3K 2W6",
                        "locality": "Montreal",
                        "postcode": "H3K 2W6",
                        "region": "QC"
                  },
                  "name": "Restaurant Chez l'Amical"
            },
            {
                  "distance": 454,
                  "location": {
                        "address": "2556 rue du Ctr",
                        "country": "CA",
                        "formatted_address": "2556 rue du Ctr, Montreal QC H3K 1J8",
                        "locality": "Montreal",
                        "postcode": "H3K 1J8",
                        "region": "QC"
                  },
                  "name": "Allo Inde"
            },
            {
                  "distance": 458,
                  "location": {
                        "address": "2527 Rue du Ctr",
                        "country": "CA",
                        "formatted_address": "2527 Rue du Ctr, Montreal QC H3K 1J9",
                        "locality": "Montreal",
                        "postcode": "H3K 1J9",
                        "region": "QC"
                  },
                  "name": "Restaurant Karavia"
            },
            {
                  "distance": 532,
                  "location": {
                        "address": "2035 Wellington Rue",
                        "country": "CA",
                        "formatted_address": "2035 Wellington Rue, Montreal QC",
                        "locality": "Montreal",
                        "region": "QC"
                  },
                  "name": "Wellington Ash"
            },
            {
                  "distance": 570,
                  "location": {
                        "address": "2026 Wellington Rue",
                        "country": "CA",
                        "formatted_address": "2026 Wellington Rue, Montreal QC H3K 1W8",
                        "locality": "Montreal",
                        "postcode": "H3K 1W8",
                        "region": "QC"
                  },
                  "name": "Mama Express"
            }
      ],
      "context": {
            "geo_bounds": {
                  "circle": {
                        "center": {
                              "latitude": 45.4757434,
                              "longitude": -73.5646007
                        },
                        "radius": 1000
                  }
            }
      }
}