{
      "results": [
            {
                  "distance": 358,
                  "location": {
                        "address": "1678 Saint-Joseph Blvd",
                        "country": "CA",
                        "formatted_address": "1678 Saint-Joseph Blvd, Montr\u00e9al QC H8S 2N1",
                        "locality": "Montreal",
                        "postcode": "H8S 2N1",
                        "region": "QC"
                  },
                  "name": "Restaurant El Meson",
                  "popularity": 0.9525809046177138,
                  "price": 1,
                  "rating": 8.0
            },
            {
                  "distance": 851,
                  "location": {
                        "address": "3119 Victoria Rue",
                        "country": "CA",
                        "cross_street": "32e Avenue",
                        "formatted_address": "3119 Victoria Rue (32e Avenue), Montreal QC H8S 0B1",
                        "locality": "Lachine",
                        "postcode": "H8S 0B1",
                        "region": "QC"
                  },
                  "name": "Patisserie Marius et Fanny",
                  "popularity": 0.9479206093868282,
                  "price": 1,
                  "rating": 7.7
            },
            {
                  "distance": 909,
                  "location": {
                        "address": "3060 St Joseph Blvd",
                        "country": "CA",
                        "cross_street": "",
                        "formatted_address": "3060 St Joseph Blvd, Lachine QC",
                        "locality": "Lachine",
                        "region": "QC"
                  },
                  "name": "Barroso",
                  "popularity": 0.8929314912944739,
                  "price": 2,
                  "rating": 7.3
            },
            {
                  "distance": 327,
                  "location": {
                        "address": "1900 Saint-Joseph Blvd",
                        "country": "CA",
                        "cross_street": "",
                        "formatted_address": "1900 Saint-Joseph Blvd, Lachine QC H8S 2N5",
                        "locality": "Lachine",
                        "postcode": "H8S 2N5",
                        "region": "QC"
                  },
                  "name": "Il Fornetto Restaurant",
                  "popularity": 0.9391441143073429,
                  "price": 2,
                  "rating": 7.1
            },
            {
                  "distance": 335,
                  "location": {
                        "address": "1718 Saint-Joseph Blvd",
                        "country": "CA",
                        "cross_street": "18th ave",
                        "formatted_address": "1718 Saint-Joseph Blvd (18th ave), Lachine QC H8S 2N2",
                        "locality": "Lachine",
                        "postcode": "H8S 2N2",
                        "region": "QC"
                  },
                  "name": "Pasta Andrea",
                  "popularity": 0.9488313777441333,
                  "price": 2,
                  "rating": 7.1
            },
            {
                  "distance": 547,
                  "location": {
                        "address": "2525 Victoria Rue",
                        "country": "CA",
                        "cross_street": "",
                        "formatted_address": "2525 Victoria Rue, Lachine QC H8S 0A7",
                        "locality": "Lachine",
                        "postcode": "H8S 0A7",
                        "region": "QC"
                  },
                  "name": "Tim Hortons",
                  "popularity": 0.9938375283875852,
                  "price": 1,
                  "rating": 6.9
            },
            {
                  "distance": 304,
                  "location": {
                        "address": "1380 Notre-Dame Rue",
                        "country": "CA",
                        "cross_street": "",
                        "formatted_address": "1380 Notre-Dame Rue, Lachine QC H8S 2C8",
                        "locality": "Lachine",
                        "postcode": "H8S 2C8",
                        "region": "QC"
                  },
                  "name": "Restaurant Toto Pizzeria Lachine",
                  "popularity": 0.8498060181680545,
                  "price": 1,
                  "rating": 6.8
            },
            {
                  "distance": 858,
                  "location": {
                        "address": "1110 Provost Rue",
                        "country": "CA",
                        "cross_street": "",
                        "formatted_address": "1110 Provost Rue, Lachine QC H8S 1N5",
                        "locality": "Lachine",
                        "postcode": "H8S 1N5",
                        "region": "QC"
                  },
                  "name": "Subway",
                  "popularity": 0.9941332323996972,
                  "price": 1,
                  "rating": 6.4,
                  "store_id": "55364"
            },
            {
                  "distance": 895,
                  "location": {
                        "address": "2944 Remembrance Rue",
                        "address_extended": "Unit 47A",
                        "country": "CA",
                        "cross_street": "32 avenue",
                        "formatted_address": "2944 Remembrance Rue (32 avenue), Montr\u00e9al QC H8S 1X8",
                        "locality": "Montreal",
                        "postcode": "H8S 1X8",
                        "region": "QC"
                  },
                  "name": "Subway",
                  "popularity": 0.9158781226343679,
                  "price": 1,
                  "rating": 6.3,
                  "store_id": "22200"
            },
            {
                  "distance": 934,
                  "location": {
                        "address": "3060 Saint-Joseph Blvd",
                        "country": "CA",
                        "cross_street": "32eme avenue",
                        "formatted_address": "3060 Saint-Joseph Blvd (32eme avenue), Lachine QC H8S 2P4",
                        "locality": "Lachine",
                        "postcode": "H8S 2P4",
                        "region": "QC"
                  },
                  "name": "Andrea Ristorante",
                  "popularity": 0.8839420893262679,
                  "price": 2,
                  "rating": 5.7
            },
            {
                  "distance": 605,
                  "location": {
                        "address": "430 28e Ave",
                        "country": "CA",
                        "cross_street": "Rue Victoria",
                        "formatted_address": "430 28e Ave (Rue Victoria), Lachine QC H8S 3Z4",
                        "locality": "Lachine",
                        "postcode": "H8S 3Z4",
                        "region": "QC"
                  },
                  "name": "McDonald's",
                  "popularity": 0.9964397236941711,
                  "price": 1,
                  "rating": 5.6
            },
            {
                  "distance": 776,
                  "location": {
                        "address": "2780 Remembrance Rue",
                        "country": "CA",
                        "formatted_address": "2780 Remembrance Rue, Lachine QC H8S 1X8",
                        "locality": "Lachine",
                        "postcode": "H8S 1X8",
                        "region": "QC"
                  },
                  "name": "Restaurant Eggsquis",
                  "popularity": 0.9915310370931113,
                  "price": 1,
                  "rating": 5.4
            },
            {
                  "distance": 101,
                  "location": {
                        "address": "1875 Notre-Dame Rue",
                        "country": "CA",
                        "cross_street": "19e Ave",
                        "formatted_address": "1875 Notre-Dame Rue (19e Ave), Lachine QC H8S 2E9",
                        "locality": "Lachine",
                        "postcode": "H8S 2E9",
                        "region": "QC"
                  },
                  "name": "Caf\u00e9 du March\u00e9",
                  "popularity": 0.8442704390613172,
                  "price": 1
            },
            {
                  "distance": 130,
                  "location": {
                        "address": "1895 Piche Rue",
                        "country": "CA",
                        "cross_street": "",
                        "formatted_address": "1895 Piche Rue, Lachine QC H8S 2H9",
                        "locality": "Lachine",
                        "postcode": "H8S 2H9",
                        "region": "QC"
                  },
                  "name": "Nonnina",
                  "popularity": 0.9854631907645723,
                  "price": 1
            },
            {
                  "distance": 256,
                  "location": {
                        "address": "1498 Notre-Dame Rue",
                        "country": "CA",
                        "cross_street": "15e avenue",
                        "formatted_address": "1498 Notre-Dame Rue (15e avenue), Lachine QC H8S 2E1",
                        "locality": "Lachine",
                        "postcode": "H8S 2E1",
                        "region": "QC"
                  },
                  "name": "Patisserie Fine Savoureuse",
                  "popularity": 0.14385408781226344,
                  "price": 1
            },
            {
                  "distance": 446,
                  "location": {
                        "address": "1199 Notre Dame Lchn",
                        "country": "CA",
                        "cross_street": "Notre-Dame",
                        "formatted_address": "1199 Notre Dame Lchn (Notre-Dame), Lachine QC H8S 2C5",
                        "locality": "Lachine",
                        "postcode": "H8S 2C5",
                        "region": "QC"
                  },
                  "name": "Tubomi Sushi",
                  "popularity": 0.760172218016654,
                  "price": 2
            },
            {
                  "distance": 536,
                  "location": {
                        "address": "2530 Saint-Joseph Blvd",
                        "country": "CA",
                        "formatted_address": "2530 Saint-Joseph Blvd, Lachine QC H8S 2N9",
                        "locality": "Lachine",
                        "postcode": "H8S 2N9",
                        "region": "QC"
                  },
                  "name": "Villa Taormina Restaurant",
                  "popularity": 0.934945117335352,
                  "price": 2
            },
            {
                  "distance": 574,
                  "location": {
                        "address": "1050 Notre-Dame Rue",
                        "country": "CA",
                        "cross_street": "",
                        "formatted_address": "1050 Notre-Dame Rue, Lachine QC H8S 2C2",
                        "locality": "Lachine",
                        "postcode": "H8S 2C2",
                        "region": "QC"
                  },
                  "name": "Restaurant Lachine Rotisserie et Grillades",
                  "popularity": 0.7039056585919757,
                  "price": 2
            },
            {
                  "distance": 621,
                  "location": {
                        "address": "880 Notre-Dame Rue",
                        "country": "CA",
                        "cross_street": "",
                        "formatted_address": "880 Notre-Dame Rue, Lachine QC H8S 2B7",
                        "locality": "Lachine",
                        "postcode": "H8S 2B7",
                        "region": "QC"
                  },
                  "name": "Trans Canada Pizzeria & Submarine",
                  "popularity": 0.32975728614685845,
                  "price": 2
            },
            {
                  "distance": 660,
                  "location": {
                        "address": "900 Notre-Dame Rue",
                        "country": "CA",
                        "cross_street": "",
                        "formatted_address": "900 Notre-Dame Rue, Lachine QC H8S 2B9",
                        "locality": "Lachine",
                        "postcode": "H8S 2B9",
                        "region": "QC"
                  },
                  "name": "Bar l'H\u00f4tel-de-ville",
                  "popularity": 0.6886000189250567,
                  "price": 1
            },
            {
                  "distance": 724,
                  "location": {
                        "address": "1000 Saint-Joseph Blvd",
                        "country": "CA",
                        "cross_street": "10e avenue",
                        "formatted_address": "1000 Saint-Joseph Blvd (10e avenue), Lachine QC H8S 2M6",
                        "locality": "Lachine",
                        "postcode": "H8S 2M6",
                        "region": "QC"
                  },
                  "name": "Pahpatzoa",
                  "popularity": 0.8607352384557153,
                  "price": 1
            },
            {
                  "distance": 746,
                  "location": {
                        "address": "2972 Remembrance Rue",
                        "country": "CA",
                        "cross_street": "",
                        "formatted_address": "2972 Remembrance Rue, Montr\u00e9al QC H8S 1X8",
                        "locality": "Montreal",
                        "postcode": "H8S 1X8",
                        "region": "QC"
                  },
                  "name": "Amir",
                  "popularity": 0.5464610143830432,
                  "price": 1
            },
            {
                  "distance": 759,
                  "location": {
                        "address": "403 Notre-Dame Rue",
                        "country": "CA",
                        "cross_street": "",
                        "formatted_address": "403 Notre-Dame Rue, Repentigny QC J6A 2T2",
                        "locality": "Repentigny",
                        "postcode": "J6A 2T2",
                        "region": "QC"
                  },
                  "name": "Le Grill Barosso",
                  "popularity": 0.11683856926570779,
                  "price": 2
            },
            {
                  "distance": 848,
                  "location": {
                        "address": "601 Notre-Dame Rue",
                        "country": "CA",
                        "cross_street": "6e Avenue",
                        "formatted_address": "601 Notre-Dame Rue (6e Avenue), Lachine QC H8S 2B4",
                        "locality": "Lachine",
                        "postcode": "H8S 2B4",
                        "region": "QC"
                  },
                  "name": "Bardeco",
                  "popularity": 0.9232470666161998,
                  "price": 1
            },
            {
                  "distance": 863,
                  "location": {
                        "address": "2972 Remembrance Rue",
                        "address_extended": "Suite 28",
                        "country": "CA",
                        "cross_street": "",
                        "formatted_address": "2972 Remembrance Rue, Lachine QC H8S 1X8",
                        "locality": "Lachine",
                        "postcode": "H8S 1X8",
                        "region": "QC"
                  },
                  "name": "Pizza Hut",
                  "popularity": 0.9492098788796366,
                  "price": 1,
                  "store_id": "R46001"
            },
            {
                  "distance": 873,
                  "location": {
                        "address": "1015 Provost Rue",
                        "country": "CA",
                        "cross_street": "10th Avenue",
                        "formatted_address": "1015 Provost Rue (10th Avenue), Lachine QC H8S 1N3",
                        "locality": "Lachine",
                        "postcode": "H8S 1N3",
                        "region": "QC"
                  },
                  "name": "Caf\u00e9 Bar Cercle Sportif",
                  "popularity": 0.036998485995457984,
                  "price": 2
            },
            {
                  "distance": 909,
                  "location": {
                        "address": "3135 Notre-Dame Rue",
                        "country": "CA",
                        "cross_street": "",
                        "formatted_address": "3135 Notre-Dame Rue, Lachine QC H8S 2H4",
                        "locality": "Lachine",
                        "postcode": "H8S 2H4",
                        "region": "QC"
                  },
                  "name": "Mommys Fish & Chips Regd",
                  "popularity": 0.9273514383043149,
                  "price": 1
            },
            {
                  "distance": 25346,
                  "location": {
                        "address": "1895 Piche Rue",
                        "country": "CA",
                        "cross_street": "",
                        "formatted_address": "1895 Piche Rue, Lachine QC H8S 2H9",
                        "locality": "Lachine",
                        "postcode": "H8S 2H9",
                        "region": "QC"
                  },
                  "name": "Gaufrabec",
                  "popularity": 0.5934959349593496,
                  "price": 1
            },
            {
                  "distance": 70,
                  "location": {
                        "address": "1726 Notre-Dame Rue O",
                        "country": "CA",
                        "formatted_address": "1726 Notre-Dame Rue O, Montreal QC H3J 1M3",
                        "locality": "Montreal",
                        "postcode": "H3J 1M3",
                        "region": "QC"
                  },
                  "name": "Mlle Butterfly"
            },
            {
                  "distance": 310,
                  "location": {
                        "address": "1798 Saint-Joseph Blvd",
                        "country": "CA",
                        "formatted_address": "1798 Saint-Joseph Blvd, Lachine QC H8S 2N2",
                        "locality": "Lachine",
                        "postcode": "H8S 2N2",
                        "region": "QC"
                  },
                  "name": "Hentai Restaurant"
            },
            {
                  "distance": 352,
                  "location": {
                        "address": "1305 Notre Dame Rue",
                        "country": "CA",
                        "formatted_address": "1305 Notre Dame Rue, Lachine QC H8S 2C9",
                        "locality": "Lachine",
                        "postcode": "H8S 2C9",
                        "region": "QC"
                  },
                  "name": "Pizza Pizza",
                  "store_id": "350"
            },
            {
                  "distance": 389,
                  "location": {
                        "address": "1290 Notre-Dame Rue",
                        "country": "CA",
                        "formatted_address": "1290 Notre-Dame Rue, Lachine QC",
                        "locality": "Lachine",
                        "region": "QC"
                  },
                  "name": "Houblon et C\u00e9pages"
            },
            {
                  "distance": 395,
                  "location": {
                        "address": "1299 Notre Dame Rue",
                        "country": "CA",
                        "formatted_address": "1299 Notre Dame Rue, Lachine QC H8S 2C7",
                        "locality": "Lachine",
                        "postcode": "H8S 2C7",
                        "region": "QC"
                  },
                  "name": "Falafel St. Jacques"
            },
            {
                  "distance": 439,
                  "location": {
                        "address": "8594 15e Ave",
                        "country": "CA",
                        "formatted_address": "8594 15e Ave, Montreal QC H1Z 3N7",
                        "locality": "Montreal",
                        "postcode": "H1Z 3N7",
                        "region": "QC"
                  },
                  "name": "Acad\u00e9mie Belle et Fantastique"
            },
            {
                  "distance": 484,
                  "location": {
                        "address": "1128 Notre Dame Rue",
                        "country": "CA",
                        "formatted_address": "1128 Notre Dame Rue, Lachine QC H8S 2C4",
                        "locality": "Lachine",
                        "postcode": "H8S 2C4",
                        "region": "QC"
                  },
                  "name": "La G\u00e2terie J R Inc"
            }
      ],
      "context": {
            "geo_bounds": {
                  "circle": {
                        "center": {
                              "latitude": 45.43579351,
                              "longitude": -73.68019044
                        },
                        "radius": 1000
                  }
            }
      }
}