{
      "results": [
            {
                  "distance": 270,
                  "location": {
                        "address": "1272 Sainte-Catherine Rue E",
                        "country": "CA",
                        "cross_street": "",
                        "formatted_address": "1272 Sainte-Catherine Rue E, Montr\u00e9al QC H2L 2H2",
                        "locality": "Montreal",
                        "postcode": "H2L 2H2",
                        "region": "QC"
                  },
                  "name": "Bar Renard",
                  "popularity": 0.9689274224072673,
                  "price": 2,
                  "rating": 9.0
            },
            {
                  "distance": 986,
                  "location": {
                        "address": "1700 Ontario Rue E",
                        "country": "CA",
                        "cross_street": "coin Papineau",
                        "formatted_address": "1700 Ontario Rue E (coin Papineau), Montr\u00e9al QC H2L 1S7",
                        "locality": "Montreal",
                        "postcode": "H2L 1S7",
                        "region": "QC"
                  },
                  "name": "La Fabrique Arhoma",
                  "popularity": 0.953420704012112,
                  "price": 1,
                  "rating": 8.9
            },
            {
                  "distance": 975,
                  "location": {
                        "address": "350 Notre-Dame Rue E",
                        "address_extended": "Suite 1",
                        "country": "CA",
                        "cross_street": "Bonsecours",
                        "formatted_address": "350 Notre-Dame Rue E (Bonsecours), Montr\u00e9al QC H2Y 1C7",
                        "locality": "Montreal",
                        "postcode": "H2Y 1C7",
                        "region": "QC"
                  },
                  "name": "Caf\u00e9 de' Mercanti - Old Montreal",
                  "popularity": 0.9625993565480696,
                  "price": 1,
                  "rating": 8.6
            },
            {
                  "distance": 906,
                  "location": {
                        "address": "1579 Saint-Denis Rue",
                        "country": "CA",
                        "cross_street": "entre De Maisonneuve & \u00c9mery",
                        "formatted_address": "1579 Saint-Denis Rue (entre De Maisonneuve & \u00c9mery), Montr\u00e9al QC H2X 3K3",
                        "locality": "Montreal",
                        "postcode": "H2X 3K3",
                        "region": "QC"
                  },
                  "name": "Vua Sandwichs",
                  "popularity": 0.9491507380772143,
                  "price": 1,
                  "rating": 8.6
            },
            {
                  "distance": 384,
                  "location": {
                        "address": "1310 Blvd de Maisonneuve Est",
                        "country": "CA",
                        "cross_street": "Visitation",
                        "formatted_address": "1310 Blvd de Maisonneuve Est (Visitation), Montr\u00e9al QC H2L 2A5",
                        "locality": "Montreal",
                        "postcode": "H2L 2A5",
                        "region": "QC"
                  },
                  "name": "Bistro le Passe Compose",
                  "popularity": 0.9547809424678274,
                  "price": 1,
                  "rating": 8.5
            },
            {
                  "distance": 477,
                  "location": {
                        "address": "1112 Blvd de Maisonneuve Est",
                        "country": "CA",
                        "cross_street": "btwn Amherst & Wolfe St.",
                        "formatted_address": "1112 Blvd de Maisonneuve Est (btwn Amherst & Wolfe St.), Montr\u00e9al QC H2L 1Z5",
                        "locality": "Montreal",
                        "postcode": "H2L 1Z5",
                        "region": "QC"
                  },
                  "name": "O'Thym",
                  "popularity": 0.9423613739591219,
                  "price": 3,
                  "rating": 8.5
            },
            {
                  "distance": 561,
                  "location": {
                        "address": "852 Sainte-Catherine Rue E",
                        "country": "CA",
                        "cross_street": "",
                        "formatted_address": "852 Sainte-Catherine Rue E, Montr\u00e9al QC H2L 2E3",
                        "locality": "Montreal",
                        "postcode": "H2L 2E3",
                        "region": "QC"
                  },
                  "name": "Caf\u00e9 Lulu",
                  "popularity": 0.9399720855412567,
                  "price": 1,
                  "rating": 8.4
            },
            {
                  "distance": 966,
                  "location": {
                        "address": "1668 Saint-Denis Rue",
                        "country": "CA",
                        "cross_street": "coin de Maisonneuve",
                        "formatted_address": "1668 Saint-Denis Rue (coin de Maisonneuve), Montr\u00e9al QC H2X 3K6",
                        "locality": "Montreal",
                        "postcode": "H2X 3K6",
                        "region": "QC"
                  },
                  "name": "Pizzeria Dei Compari",
                  "popularity": 0.9388484102952309,
                  "price": 2,
                  "rating": 8.3
            },
            {
                  "distance": 273,
                  "location": {
                        "address": "1301 Sainte-Catherine Rue E",
                        "country": "CA",
                        "cross_street": "coin De la Visitation",
                        "formatted_address": "1301 Sainte-Catherine Rue E (coin De la Visitation), Montr\u00e9al QC H2L 2H4",
                        "locality": "Montreal",
                        "postcode": "H2L 2H4",
                        "region": "QC"
                  },
                  "name": "Starbucks",
                  "popularity": 0.9795254542013626,
                  "price": 2,
                  "rating": 8.3,
                  "store_id": "830"
            },
            {
                  "distance": 903,
                  "location": {
                        "address": "1567 Saint-Denis Rue",
                        "country": "CA",
                        "cross_street": "coin De Maisonneuve",
                        "formatted_address": "1567 Saint-Denis Rue (coin De Maisonneuve), Montr\u00e9al QC H2X 3K3",
                        "locality": "Montreal",
                        "postcode": "H2X 3K3",
                        "region": "QC"
                  },
                  "name": "Saint-Houblon",
                  "popularity": 0.9718608062074187,
                  "price": 3,
                  "rating": 8.2
            },
            {
                  "distance": 382,
                  "location": {
                        "address": "1115 Sainte-Catherine Rue E",
                        "country": "CA",
                        "cross_street": "coin Wolfe",
                        "formatted_address": "1115 Sainte-Catherine Rue E (coin Wolfe), Montr\u00e9al QC H2L 2G6",
                        "locality": "Montreal",
                        "postcode": "H2L 2G6",
                        "region": "QC"
                  },
                  "name": "Cabaret Mado",
                  "popularity": 0.9138436790310371,
                  "price": 2,
                  "rating": 8.1
            },
            {
                  "distance": 934,
                  "location": {
                        "address": "1633 Saint-Denis Rue",
                        "country": "CA",
                        "cross_street": "",
                        "formatted_address": "1633 Saint-Denis Rue, Montr\u00e9al QC H2X 3K3",
                        "locality": "Montreal",
                        "postcode": "H2X 3K3",
                        "region": "QC"
                  },
                  "name": "Omnivore",
                  "popularity": 0.9007853898561695,
                  "price": 2,
                  "rating": 8.1
            },
            {
                  "distance": 409,
                  "location": {
                        "address": "1212 Blvd de Maisonneuve Est",
                        "country": "CA",
                        "cross_street": "",
                        "formatted_address": "1212 Blvd de Maisonneuve Est, Montr\u00e9al QC H2L 1Z9",
                        "locality": "Montreal",
                        "postcode": "H2L 1Z9",
                        "region": "QC"
                  },
                  "name": "En Couleur",
                  "popularity": 0.9447861468584405,
                  "rating": 8.0
            },
            {
                  "distance": 917,
                  "location": {
                        "address": "1615 Saint-Denis Rue",
                        "address_extended": "coin \u00c9mery",
                        "country": "CA",
                        "cross_street": "coin \u00c9mery",
                        "formatted_address": "1615 Saint-Denis Rue (coin \u00c9mery), Montr\u00e9al QC H2X 3K3",
                        "locality": "Montreal",
                        "postcode": "H2X 3K3",
                        "region": "QC"
                  },
                  "name": "Juliette et Chocolat",
                  "popularity": 0.9692112982588947,
                  "price": 2,
                  "rating": 7.9
            },
            {
                  "distance": 949,
                  "location": {
                        "address": "1649 Saint-Denis Rue",
                        "country": "CA",
                        "cross_street": "entre Emery & Ontario",
                        "formatted_address": "1649 Saint-Denis Rue (entre Emery & Ontario), Montr\u00e9al QC H2X 3K4",
                        "locality": "Montreal",
                        "postcode": "H2X 3K4",
                        "region": "QC"
                  },
                  "name": "Pub l'Ile Noire",
                  "popularity": 0.9520841218773657,
                  "price": 2,
                  "rating": 7.9
            },
            {
                  "distance": 958,
                  "location": {
                        "address": "1690 Ontario Rue E",
                        "country": "CA",
                        "cross_street": "entre De Champlain & Papineau",
                        "formatted_address": "1690 Ontario Rue E (entre De Champlain & Papineau), Montr\u00e9al QC H2L 1S7",
                        "locality": "Montreal",
                        "postcode": "H2L 1S7",
                        "region": "QC"
                  },
                  "name": "Au Petit Extra",
                  "popularity": 0.9349924299772899,
                  "price": 4,
                  "rating": 7.9
            },
            {
                  "distance": 261,
                  "location": {
                        "address": "1315 Sainte-Catherine Rue E",
                        "country": "CA",
                        "cross_street": "entre Visitation et Panet",
                        "formatted_address": "1315 Sainte-Catherine Rue E (entre Visitation et Panet), Montr\u00e9al QC H2L 2H4",
                        "locality": "Montreal",
                        "postcode": "H2L 2H4",
                        "region": "QC"
                  },
                  "name": "Bar l'aigle Noir",
                  "popularity": 0.9607778198334594,
                  "price": 2,
                  "rating": 7.9
            },
            {
                  "distance": 863,
                  "location": {
                        "address": "1365 Ontario Rue E",
                        "country": "CA",
                        "formatted_address": "1365 Ontario Rue E, Montr\u00e9al QC H2L 1S2",
                        "locality": "Montreal",
                        "postcode": "H2L 1S2",
                        "region": "QC"
                  },
                  "name": "Poutineville",
                  "popularity": 0.9661241483724451,
                  "price": 2,
                  "rating": 7.9
            },
            {
                  "distance": 482,
                  "location": {
                        "address": "921 Sainte-Catherine Rue E",
                        "country": "CA",
                        "cross_street": "entre St-Andr\u00e9 & St-Timoth\u00e9e",
                        "formatted_address": "921 Sainte-Catherine Rue E (entre St-Andr\u00e9 & St-Timoth\u00e9e), Montr\u00e9al QC H2L 2E5",
                        "locality": "Montreal",
                        "postcode": "H2L 2E5",
                        "region": "QC"
                  },
                  "name": "La graine br\u00fbl\u00e9e",
                  "popularity": 0.9593584405753217,
                  "price": 1,
                  "rating": 7.8
            },
            {
                  "distance": 944,
                  "location": {
                        "address": "1627 Saint-Denis Rue",
                        "country": "CA",
                        "formatted_address": "1627 Saint-Denis Rue, Montr\u00e9al QC H2X 3K3",
                        "locality": "Montreal",
                        "postcode": "H2X 3K3",
                        "region": "QC"
                  },
                  "name": "Bistro a Jojo",
                  "popularity": 0.9450700227100681,
                  "rating": 7.7
            },
            {
                  "distance": 446,
                  "location": {
                        "address": "1812 Sainte-Catherine Rue E",
                        "country": "CA",
                        "cross_street": "Av Papineau",
                        "formatted_address": "1812 Sainte-Catherine Rue E (Av Papineau), Montr\u00e9al QC H2K 2H3",
                        "locality": "Montreal",
                        "postcode": "H2K 2H3",
                        "region": "QC"
                  },
                  "name": "Bar le Stud",
                  "popularity": 0.9814534443603331,
                  "price": 2,
                  "rating": 7.5
            },
            {
                  "distance": 720,
                  "location": {
                        "address": "505 Sainte-Catherine Rue E",
                        "country": "CA",
                        "cross_street": "Rue Berri",
                        "formatted_address": "505 Sainte-Catherine Rue E (Rue Berri), Montr\u00e9al QC H2L 2C9",
                        "locality": "Montreal",
                        "postcode": "H2L 2C9",
                        "region": "QC"
                  },
                  "name": "Caf\u00e9 Van Houtte",
                  "popularity": 0.9991720287660864,
                  "price": 1,
                  "rating": 7.4
            },
            {
                  "distance": 373,
                  "location": {
                        "address": "1111 Sainte-Catherine Rue E",
                        "country": "CA",
                        "cross_street": "",
                        "formatted_address": "1111 Sainte-Catherine Rue E, Montr\u00e9al QC H2L 2G6",
                        "locality": "Montreal",
                        "postcode": "H2L 2G6",
                        "region": "QC"
                  },
                  "name": "Campus",
                  "popularity": 0.9524271385314156,
                  "price": 3,
                  "rating": 7.3
            },
            {
                  "distance": 824,
                  "location": {
                        "address": "1228 Saint-Denis Rue",
                        "country": "CA",
                        "formatted_address": "1228 Saint-Denis Rue, Montr\u00e9al QC H2X 3J6",
                        "locality": "Montreal",
                        "postcode": "H2X 3J6",
                        "region": "QC"
                  },
                  "name": "Restaurant Soupesoup",
                  "popularity": 0.9592401589704769,
                  "price": 1,
                  "rating": 7.3
            },
            {
                  "distance": 256,
                  "location": {
                        "address": "1333 Sainte-Catherine Rue E",
                        "country": "CA",
                        "cross_street": "coin Panet",
                        "formatted_address": "1333 Sainte-Catherine Rue E (coin Panet), Montr\u00e9al QC H2L 2H4",
                        "locality": "Montreal",
                        "postcode": "H2L 2H4",
                        "region": "QC"
                  },
                  "name": "Le Saloon Bistro Bar Inc",
                  "popularity": 0.9465721990915973,
                  "price": 2,
                  "rating": 7.3
            },
            {
                  "distance": 946,
                  "location": {
                        "address": "1652 Ontario Rue E",
                        "country": "CA",
                        "cross_street": "",
                        "formatted_address": "1652 Ontario Rue E, Montr\u00e9al QC H2L 1S7",
                        "locality": "Montreal",
                        "postcode": "H2L 1S7",
                        "region": "QC"
                  },
                  "name": "Dame Tartine D\u00e9jeuner et D\u00eener",
                  "popularity": 0.9304031037093111,
                  "price": 1,
                  "rating": 7.3
            },
            {
                  "distance": 962,
                  "location": {
                        "address": "1658 Saint-Denis Rue",
                        "country": "CA",
                        "cross_street": "at \u00c9mery",
                        "formatted_address": "1658 Saint-Denis Rue (at \u00c9mery), Montr\u00e9al QC H2X 3K6",
                        "locality": "Montreal",
                        "postcode": "H2X 3K6",
                        "region": "QC"
                  },
                  "name": "Les 3 Brasseurs",
                  "popularity": 0.9574659348978047,
                  "price": 2,
                  "rating": 7.3
            },
            {
                  "distance": 854,
                  "location": {
                        "address": "475 Blvd de Maisonneuve Est",
                        "country": "CA",
                        "cross_street": "Berri",
                        "formatted_address": "475 Blvd de Maisonneuve Est (Berri), Montreal QC H2L 5C4",
                        "locality": "Montreal",
                        "postcode": "H2L 5C4",
                        "region": "QC"
                  },
                  "name": "Le Parva caf\u00e9&bistro",
                  "popularity": 0.9762135692657078,
                  "price": 1,
                  "rating": 6.9
            },
            {
                  "distance": 377,
                  "location": {
                        "address": "1295 Atateken Rue",
                        "country": "CA",
                        "cross_street": "Coin Sainte-Catherine Est",
                        "formatted_address": "1295 Atateken Rue (Coin Sainte-Catherine Est), Montr\u00e9al QC H2L 3K9",
                        "locality": "Montreal",
                        "postcode": "H2L 3K9",
                        "region": "QC"
                  },
                  "name": "Taverne Normandie",
                  "popularity": 0.9363881529144588,
                  "price": 2,
                  "rating": 6.8
            },
            {
                  "distance": 523,
                  "location": {
                        "address": "1870 Sainte-Catherine Rue E",
                        "country": "CA",
                        "cross_street": "coin Cartier",
                        "formatted_address": "1870 Sainte-Catherine Rue E (coin Cartier), Montr\u00e9al QC H2K 2H5",
                        "locality": "Montreal",
                        "postcode": "H2K 2H5",
                        "region": "QC"
                  },
                  "name": "Lafayette Hot Dog",
                  "popularity": 0.9246191332323997,
                  "price": 1,
                  "rating": 6.8
            },
            {
                  "distance": 258,
                  "location": {
                        "address": "1365 Sainte Catherine Rue E",
                        "country": "CA",
                        "cross_street": "",
                        "formatted_address": "1365 Sainte Catherine Rue E, Montr\u00e9al QC H2L 2H7",
                        "locality": "Montreal",
                        "postcode": "H2L 2H7",
                        "region": "QC"
                  },
                  "name": "District Video Lounge",
                  "popularity": 0.9562712906888721,
                  "price": 3,
                  "rating": 6.7
            },
            {
                  "distance": 907,
                  "location": {
                        "address": "330 Sainte-Catherine Rue E",
                        "country": "CA",
                        "cross_street": "",
                        "formatted_address": "330 Sainte-Catherine Rue E, Montr\u00e9al QC H2X 1L7",
                        "locality": "Montreal",
                        "postcode": "H2X 1L7",
                        "region": "QC"
                  },
                  "name": "A&W Restaurant",
                  "popularity": 0.9606950227100681,
                  "price": 1,
                  "rating": 6.7,
                  "store_id": "5538"
            },
            {
                  "distance": 296,
                  "location": {
                        "address": "1218 Sainte-Catherine Rue E",
                        "country": "CA",
                        "cross_street": "entre Beaudry et Montcalm",
                        "formatted_address": "1218 Sainte-Catherine Rue E (entre Beaudry et Montcalm), Montr\u00e9al QC H2L 2G9",
                        "locality": "Montreal",
                        "postcode": "H2L 2G9",
                        "region": "QC"
                  },
                  "name": "Le Date Karaok\u00e9",
                  "popularity": 0.9557508516275549,
                  "price": 2,
                  "rating": 6.6
            },
            {
                  "distance": 416,
                  "location": {
                        "address": "1019 Sainte-Catherine Rue E",
                        "country": "CA",
                        "cross_street": "coin  Amherst",
                        "formatted_address": "1019 Sainte-Catherine Rue E (coin  Amherst), Montr\u00e9al QC H2L 2G4",
                        "locality": "Montreal",
                        "postcode": "H2L 2G4",
                        "region": "QC"
                  },
                  "name": "R\u00f4tisserie St-Hubert",
                  "popularity": 0.9431775170325511,
                  "price": 2,
                  "rating": 6.5
            },
            {
                  "distance": 601,
                  "location": {
                        "address": "1663 Atateken Rue",
                        "country": "CA",
                        "cross_street": "",
                        "formatted_address": "1663 Atateken Rue, Montr\u00e9al QC H2L 3L4",
                        "locality": "Montreal",
                        "postcode": "H2L 3L4",
                        "region": "QC"
                  },
                  "name": "Restaurant Pho Viet",
                  "popularity": 0.9077048637395913,
                  "price": 2,
                  "rating": 6.5
            }
      ],
      "context": {
            "geo_bounds": {
                  "circle": {
                        "center": {
                              "latitude": 45.51862424,
                              "longitude": -73.55219007
                        },
                        "radius": 1000
                  }
            }
      }
}