{
      "results": [
            {
                  "distance": 312,
                  "location": {
                        "address": "8803 Hochelaga Rue",
                        "country": "CA",
                        "cross_street": "Joffre",
                        "formatted_address": "8803 Hochelaga Rue (Joffre), Montr\u00e9al QC H1L 2N1",
                        "locality": "Montreal",
                        "postcode": "H1L 2N1",
                        "region": "QC"
                  },
                  "name": "Le Coq de l'Est 2015 Inc",
                  "popularity": 0.8620363361090083,
                  "price": 2,
                  "rating": 8.2
            },
            {
                  "distance": 1005,
                  "location": {
                        "address": "8990 Sherbrooke Rue E",
                        "country": "CA",
                        "cross_street": "",
                        "formatted_address": "8990 Sherbrooke Rue E, Montr\u00e9al QC H1L 1C9",
                        "locality": "Montreal",
                        "postcode": "H1L 1C9",
                        "region": "QC"
                  },
                  "name": "Boulangerie MariePain",
                  "popularity": 0.9910933951551855,
                  "price": 1,
                  "rating": 7.9
            },
            {
                  "distance": 588,
                  "location": {
                        "address": "8746 Notre-Dame Rue E",
                        "country": "CA",
                        "cross_street": "",
                        "formatted_address": "8746 Notre-Dame Rue E, Montr\u00e9al QC H1L 3M1",
                        "locality": "Montreal",
                        "postcode": "H1L 3M1",
                        "region": "QC"
                  },
                  "name": "Coronel Restaurant",
                  "popularity": 0.9031746782740349,
                  "price": 2,
                  "rating": 7.0
            },
            {
                  "distance": 140,
                  "location": {
                        "address": "8980 Hochelaga Rue",
                        "country": "CA",
                        "cross_street": "",
                        "formatted_address": "8980 Hochelaga Rue, Montr\u00e9al QC H1L 2N7",
                        "locality": "Montreal",
                        "postcode": "H1L 2N7",
                        "region": "QC"
                  },
                  "name": "Dominic Sous-Marins",
                  "popularity": 0.905611279333838,
                  "price": 1
            },
            {
                  "distance": 307,
                  "location": {
                        "address": "8792 Hochelaga Rue",
                        "country": "CA",
                        "cross_street": "",
                        "formatted_address": "8792 Hochelaga Rue, Montr\u00e9al QC H1L 2M9",
                        "locality": "Montreal",
                        "postcode": "H1L 2M9",
                        "region": "QC"
                  },
                  "name": "Restaurant Zykaa",
                  "popularity": 0.9669876040878123,
                  "price": 2
            },
            {
                  "distance": 400,
                  "location": {
                        "address": "2263 des Ormeaux Rue",
                        "country": "CA",
                        "cross_street": "",
                        "formatted_address": "2263 des Ormeaux Rue, Montr\u00e9al QC H1L 4X2",
                        "locality": "Montreal",
                        "postcode": "H1L 4X2",
                        "region": "QC"
                  },
                  "name": "Chopine P\u00e2tisserie",
                  "popularity": 0.7051239591218774
            },
            {
                  "distance": 454,
                  "location": {
                        "address": "2525 des Ormeaux Rue",
                        "country": "CA",
                        "cross_street": "",
                        "formatted_address": "2525 des Ormeaux Rue, Montr\u00e9al QC H1L 4X4",
                        "locality": "Montreal",
                        "postcode": "H1L 4X4",
                        "region": "QC"
                  },
                  "name": "Kem CoBa",
                  "popularity": 0.31227526495079483,
                  "price": 1
            },
            {
                  "distance": 704,
                  "location": {
                        "address": "8517 Hochelaga Rue",
                        "country": "CA",
                        "cross_street": "Lebrun",
                        "formatted_address": "8517 Hochelaga Rue (Lebrun), Montr\u00e9al QC H1L 2M1",
                        "locality": "Montreal",
                        "postcode": "H1L 2M1",
                        "region": "QC"
                  },
                  "name": "Chez Simon Cantine Urbaine",
                  "popularity": 0.9938138720666162,
                  "price": 1
            },
            {
                  "distance": 747,
                  "location": {
                        "address": "8480 Hochelaga Rue",
                        "country": "CA",
                        "cross_street": "",
                        "formatted_address": "8480 Hochelaga Rue, Montr\u00e9al QC H1L 2L9",
                        "locality": "Montreal",
                        "postcode": "H1L 2L9",
                        "region": "QC"
                  },
                  "name": "Taverne Reeves Inc",
                  "popularity": 0.7225704958364875,
                  "price": 1
            },
            {
                  "distance": 1007,
                  "location": {
                        "address": "9100 Sherbrooke Rue E",
                        "country": "CA",
                        "cross_street": "",
                        "formatted_address": "9100 Sherbrooke Rue E, Montreal QC",
                        "locality": "Montreal",
                        "region": "QC"
                  },
                  "name": "Restaurant le Petit Quebec",
                  "popularity": 0.9605412566237699,
                  "price": 1
            },
            {
                  "distance": 3493,
                  "location": {
                        "address": "9020 Sherbrooke Rue E",
                        "country": "CA",
                        "cross_street": "Desmarteau",
                        "formatted_address": "9020 Sherbrooke Rue E (Desmarteau), Montr\u00e9al QC H1L 1C9",
                        "locality": "Montreal",
                        "postcode": "H1L 1C9",
                        "region": "QC"
                  },
                  "name": "Pizza 2 Pour 1",
                  "popularity": 0.14915310370931112,
                  "price": 1
            },
            {
                  "distance": 169,
                  "location": {
                        "address": "9007 Hochelaga Rue",
                        "country": "CA",
                        "formatted_address": "9007 Hochelaga Rue, Montreal QC H1L 2N6",
                        "locality": "Montreal",
                        "postcode": "H1L 2N6",
                        "region": "QC"
                  },
                  "name": "Restaurant Malaythai"
            },
            {
                  "distance": 207,
                  "location": {
                        "address": "8933 Hochelaga Rue",
                        "country": "CA",
                        "formatted_address": "8933 Hochelaga Rue, Montreal QC H1L 2N4",
                        "locality": "Montreal",
                        "postcode": "H1L 2N4",
                        "region": "QC"
                  },
                  "name": "Pub Romana"
            },
            {
                  "distance": 226,
                  "location": {
                        "address": "8874 Hochelaga Rue",
                        "country": "CA",
                        "formatted_address": "8874 Hochelaga Rue, Montreal QC H1L 2N2",
                        "locality": "Montreal",
                        "postcode": "H1L 2N2",
                        "region": "QC"
                  },
                  "name": "\u00d4 Poids Vert"
            },
            {
                  "distance": 316,
                  "location": {
                        "address": "9041 Notre-Dame Rue E",
                        "country": "CA",
                        "formatted_address": "9041 Notre-Dame Rue E, Montreal QC H1L 3M9",
                        "locality": "Montreal",
                        "postcode": "H1L 3M9",
                        "region": "QC"
                  },
                  "name": "resto chez Denise"
            },
            {
                  "distance": 391,
                  "location": {
                        "address": "2269 des Ormeaux Rue",
                        "country": "CA",
                        "formatted_address": "2269 des Ormeaux Rue, Montreal QC H1L 4X2",
                        "locality": "Montreal",
                        "postcode": "H1L 4X2",
                        "region": "QC"
                  },
                  "name": "Bar des Ormeaux"
            },
            {
                  "distance": 392,
                  "location": {
                        "address": "8726 Hochelaga St",
                        "country": "CA",
                        "formatted_address": "8726 Hochelaga St, Montreal QC H1L 2M7",
                        "locality": "Montreal",
                        "postcode": "H1L 2M7",
                        "region": "QC"
                  },
                  "name": "La Diperie"
            },
            {
                  "distance": 395,
                  "location": {
                        "address": "8720 Hochelaga Rue",
                        "country": "CA",
                        "formatted_address": "8720 Hochelaga Rue, Montreal QC H1L 2M7",
                        "locality": "Montreal",
                        "postcode": "H1L 2M7",
                        "region": "QC"
                  },
                  "name": "Au Go\u00fbt Tropical"
            },
            {
                  "distance": 417,
                  "location": {
                        "address": "9200 Dubuisson Ave",
                        "country": "CA",
                        "formatted_address": "9200 Dubuisson Ave, Montreal QC H1L 2X1",
                        "locality": "Montreal",
                        "postcode": "H1L 2X1",
                        "region": "QC"
                  },
                  "name": "Pecherie Atlantique"
            },
            {
                  "distance": 535,
                  "location": {
                        "address": "2557 Pierre-Tetreault Rue",
                        "country": "CA",
                        "formatted_address": "2557 Pierre-Tetreault Rue, Montreal QC H1L 4Z3",
                        "locality": "Montreal",
                        "postcode": "H1L 4Z3",
                        "region": "QC"
                  },
                  "name": "La Caba\u00f1a"
            },
            {
                  "distance": 607,
                  "location": {
                        "address": "8582 Hochelaga Rue",
                        "country": "CA",
                        "formatted_address": "8582 Hochelaga Rue, Montreal QC H1L 2M3",
                        "locality": "Montreal",
                        "postcode": "H1L 2M3",
                        "region": "QC"
                  },
                  "name": "Cafe d'Abord"
            },
            {
                  "distance": 619,
                  "location": {
                        "address": "8746 Notre-Dame Rue E",
                        "country": "CA",
                        "formatted_address": "8746 Notre-Dame Rue E, Montreal QC H1L 3M1",
                        "locality": "Montreal",
                        "postcode": "H1L 3M1",
                        "region": "QC"
                  },
                  "name": "Coronel Restaurant et Pizzeria"
            },
            {
                  "distance": 661,
                  "location": {
                        "address": "9191 rue de Marseille",
                        "country": "CA",
                        "formatted_address": "9191 rue de Marseille, Montreal QC H1L 1T2",
                        "locality": "Montreal",
                        "postcode": "H1L 1T2",
                        "region": "QC"
                  },
                  "name": "Restaurant le Quartier"
            },
            {
                  "distance": 665,
                  "location": {
                        "address": "2864 des Ormeaux Rue",
                        "country": "CA",
                        "formatted_address": "2864 des Ormeaux Rue, Montreal QC H1L 4X8",
                        "locality": "Montreal",
                        "postcode": "H1L 4X8",
                        "region": "QC"
                  },
                  "name": "Restaurant le des Ormeaux"
            },
            {
                  "distance": 668,
                  "location": {
                        "address": "9553 Notre-Dame Rue E",
                        "country": "CA",
                        "formatted_address": "9553 Notre-Dame Rue E, Montreal QC H1L 3P5",
                        "locality": "Montreal",
                        "postcode": "H1L 3P5",
                        "region": "QC"
                  },
                  "name": "Vincent Sous-Marins"
            },
            {
                  "distance": 706,
                  "location": {
                        "address": "9191 rue de Marseille",
                        "country": "CA",
                        "formatted_address": "9191 rue de Marseille, Montreal QC H1L 1T2",
                        "locality": "Montreal",
                        "postcode": "H1L 1T2",
                        "region": "QC"
                  },
                  "name": "Le Gout Secret des Caraibes"
            },
            {
                  "distance": 912,
                  "location": {
                        "address": "9751 Notre-Dame Rue E",
                        "country": "CA",
                        "formatted_address": "9751 Notre-Dame Rue E, Montreal-Est QC H1L 3R3",
                        "locality": "Montreal-Est",
                        "postcode": "H1L 3R3",
                        "region": "QC"
                  },
                  "name": "Le Relais du Voyageur"
            },
            {
                  "distance": 989,
                  "location": {
                        "address": "9100 Sherbrooke Rue E",
                        "country": "CA",
                        "formatted_address": "9100 Sherbrooke Rue E, Montreal QC H1L 1E3",
                        "locality": "Montreal",
                        "postcode": "H1L 1E3",
                        "region": "QC"
                  },
                  "name": "P'tit Quebec"
            },
            {
                  "distance": 998,
                  "location": {
                        "address": "8477 Notre-Dame Rue E",
                        "country": "CA",
                        "formatted_address": "8477 Notre-Dame Rue E, Montreal QC H1L 3L5",
                        "locality": "Montreal",
                        "postcode": "H1L 3L5",
                        "region": "QC"
                  },
                  "name": "Taverne Rancho"
            }
      ],
      "context": {
            "geo_bounds": {
                  "circle": {
                        "center": {
                              "latitude": 45.6044409,
                              "longitude": -73.51611838
                        },
                        "radius": 1000
                  }
            }
      }
}