{
      "results": [
            {
                  "distance": 913,
                  "location": {
                        "address": "8460 Lacordaire Blvd",
                        "country": "CA",
                        "formatted_address": "8460 Lacordaire Blvd, Saint-Leonard QC H1R 2A5",
                        "locality": "Saint-Leonard",
                        "postcode": "H1R 2A5",
                        "region": "QC"
                  },
                  "name": "Radikal Dezzertz",
                  "popularity": 0.9048306207418623,
                  "price": 1,
                  "rating": 6.7
            },
            {
                  "distance": 889,
                  "location": {
                        "address": "8492 Lacordaire Blvd",
                        "address_extended": "Place Toulon",
                        "country": "CA",
                        "cross_street": "",
                        "formatted_address": "8492 Lacordaire Blvd, Saint-Leonard QC H1R 2A5",
                        "locality": "Saint-Leonard",
                        "postcode": "H1R 2A5",
                        "region": "QC"
                  },
                  "name": "Subway",
                  "popularity": 0.8626987130961393,
                  "price": 1,
                  "rating": 6.4,
                  "store_id": "57208"
            },
            {
                  "distance": 203,
                  "location": {
                        "address": "8705 Viau Blvd",
                        "country": "CA",
                        "cross_street": "",
                        "formatted_address": "8705 Viau Blvd, Montr\u00e9al QC H1R 2T9",
                        "locality": "Montreal",
                        "postcode": "H1R 2T9",
                        "region": "QC"
                  },
                  "name": "Pizza Pizza",
                  "popularity": 0.9350279144587433,
                  "price": 1,
                  "rating": 6.2,
                  "store_id": "327"
            },
            {
                  "distance": 585,
                  "location": {
                        "address": "8415 Viau Blvd",
                        "country": "CA",
                        "cross_street": "",
                        "formatted_address": "8415 Viau Blvd, Saint-Leonard QC H1R 2T6",
                        "locality": "Saint-Leonard",
                        "postcode": "H1R 2T6",
                        "region": "QC"
                  },
                  "name": "Boulangerie P\u00e2tisserie Charcuterie Friulano",
                  "popularity": 0.09686080620741862,
                  "price": 1
            },
            {
                  "distance": 764,
                  "location": {
                        "address": "5055 Couture Blvd",
                        "country": "CA",
                        "cross_street": "",
                        "formatted_address": "5055 Couture Blvd, Saint-Leonard QC H1R 3B9",
                        "locality": "Saint-L\u00e9onard",
                        "postcode": "H1R 3B9",
                        "region": "QC"
                  },
                  "name": "Cafe Buongiorno",
                  "popularity": 0.8234528766086299,
                  "price": 1
            },
            {
                  "distance": 1003,
                  "location": {
                        "address": "8549 Pie-Ix Blvd",
                        "country": "CA",
                        "cross_street": "",
                        "formatted_address": "8549 Pie-Ix Blvd, Montr\u00e9al QC H1Z 3T9",
                        "locality": "Montreal",
                        "postcode": "H1Z 3T9",
                        "region": "QC"
                  },
                  "name": "Go\u00fbter Tropical",
                  "popularity": 0.7320093679031037,
                  "price": 2
            },
            {
                  "distance": 4038,
                  "location": {
                        "address": "4719 Lavoisier Blvd",
                        "country": "CA",
                        "cross_street": "",
                        "formatted_address": "4719 Lavoisier Blvd, Montr\u00e9al QC",
                        "locality": "Montreal",
                        "region": "QC"
                  },
                  "name": "Cafe Nada Bar & Grill",
                  "popularity": 0.7885361468584405,
                  "price": 1
            },
            {
                  "distance": 152,
                  "location": {
                        "address": "4745 Robert Blvd",
                        "country": "CA",
                        "formatted_address": "4745 Robert Blvd, Saint-Leonard QC H1R 3E6",
                        "locality": "Saint-Leonard",
                        "postcode": "H1R 3E6",
                        "region": "QC"
                  },
                  "name": "Cafe Benevento"
            },
            {
                  "distance": 180,
                  "location": {
                        "address": "4745 Robert Blvd",
                        "country": "CA",
                        "formatted_address": "4745 Robert Blvd, Saint-Leonard QC H1R 3E6",
                        "locality": "Saint-Leonard",
                        "postcode": "H1R 3E6",
                        "region": "QC"
                  },
                  "name": "Cafe du Sportif Benevento"
            },
            {
                  "distance": 202,
                  "location": {
                        "address": "4713 Robert Blvd",
                        "country": "CA",
                        "formatted_address": "4713 Robert Blvd, Saint-Leonard QC H1R 3E6",
                        "locality": "Saint-Leonard",
                        "postcode": "H1R 3E6",
                        "region": "QC"
                  },
                  "name": "Resto-Caf\u00e9 El Kaif"
            },
            {
                  "distance": 317,
                  "location": {
                        "address": "4687 Lavoisier Blvd",
                        "country": "CA",
                        "formatted_address": "4687 Lavoisier Blvd, Saint-Leonard QC H1R 3E9",
                        "locality": "Saint-Leonard",
                        "postcode": "H1R 3E9",
                        "region": "QC"
                  },
                  "name": "Enfant & Compagnie"
            },
            {
                  "distance": 322,
                  "location": {
                        "address": "4713 Lavoisier Blvd",
                        "country": "CA",
                        "formatted_address": "4713 Lavoisier Blvd, Saint-Leonard QC H1R 3E9",
                        "locality": "Saint-Leonard",
                        "postcode": "H1R 3E9",
                        "region": "QC"
                  },
                  "name": "Chicky Doo"
            },
            {
                  "distance": 322,
                  "location": {
                        "address": "4719 Lavoisier Blvd",
                        "country": "CA",
                        "formatted_address": "4719 Lavoisier Blvd, Saint-Leonard QC H1R 3E9",
                        "locality": "Saint-Leonard",
                        "postcode": "H1R 3E9",
                        "region": "QC"
                  },
                  "name": "Nada Sport Bar"
            },
            {
                  "distance": 503,
                  "location": {
                        "address": "8461 Viau Blvd",
                        "country": "CA",
                        "formatted_address": "8461 Viau Blvd, Saint-Leonard QC H1R 2T6",
                        "locality": "Saint-Leonard",
                        "postcode": "H1R 2T6",
                        "region": "QC"
                  },
                  "name": "Au Tacos Plaza Viau"
            },
            {
                  "distance": 537,
                  "location": {
                        "address": "4403 Denis Papin Rue",
                        "country": "CA",
                        "formatted_address": "4403 Denis Papin Rue, Saint-Leonard QC H1R 3J8",
                        "locality": "Saint-Leonard",
                        "postcode": "H1R 3J8",
                        "region": "QC"
                  },
                  "name": "Bari Fish Market Ltd"
            },
            {
                  "distance": 739,
                  "location": {
                        "address": "5057 Couture Blvd",
                        "country": "CA",
                        "formatted_address": "5057 Couture Blvd, Saint-Leonard QC H1R 3B9",
                        "locality": "Saint-Leonard",
                        "postcode": "H1R 3B9",
                        "region": "QC"
                  },
                  "name": "Pizza Approuv\u00e9"
            },
            {
                  "distance": 771,
                  "location": {
                        "address": "5047 Couture Blvd",
                        "country": "CA",
                        "formatted_address": "5047 Couture Blvd, Saint-Leonard QC H1R 3B9",
                        "locality": "Saint-Leonard",
                        "postcode": "H1R 3B9",
                        "region": "QC"
                  },
                  "name": "Bonheur & Gourmandise"
            },
            {
                  "distance": 823,
                  "location": {
                        "address": "8215 Viau Blvd",
                        "country": "CA",
                        "formatted_address": "8215 Viau Blvd, Saint-Leonard QC H1R 2T2",
                        "locality": "Saint-Leonard",
                        "postcode": "H1R 2T2",
                        "region": "QC"
                  },
                  "name": "Yummy Things"
            },
            {
                  "distance": 851,
                  "location": {
                        "address": "8461 All\u00e9e de Saint-L\u00e9onard",
                        "address_extended": "Bureau 3",
                        "country": "CA",
                        "formatted_address": "8461 All\u00e9e de Saint-L\u00e9onard, Montreal QC H1Z 1Z4",
                        "locality": "Montreal",
                        "postcode": "H1Z 1Z4",
                        "region": "QC"
                  },
                  "name": "Mon Resto St-Michel"
            },
            {
                  "distance": 920,
                  "location": {
                        "address": "8735 Pie Ix Blvd",
                        "country": "CA",
                        "formatted_address": "8735 Pie Ix Blvd, Montreal QC H1Z 0A7",
                        "locality": "Montreal",
                        "postcode": "H1Z 0A7",
                        "region": "QC"
                  },
                  "name": "Mon Resto Saint-Michel"
            },
            {
                  "distance": 945,
                  "location": {
                        "address": "8615 Pie I X Blvd",
                        "country": "CA",
                        "formatted_address": "8615 Pie I X Blvd, Montreal QC H1Z 3T9",
                        "locality": "Montreal",
                        "postcode": "H1Z 3T9",
                        "region": "QC"
                  },
                  "name": "Caff\u00e9 Mokka"
            },
            {
                  "distance": 951,
                  "location": {
                        "address": "8927 Pie-Ix Blvd",
                        "country": "CA",
                        "formatted_address": "8927 Pie-Ix Blvd, Montreal QC H1Z 3V3",
                        "locality": "Montreal",
                        "postcode": "H1Z 3V3",
                        "region": "QC"
                  },
                  "name": "Boulangerie P\u00e2tisserie Alkaram"
            },
            {
                  "distance": 956,
                  "location": {
                        "address": "8575 Pie Ix Blvd",
                        "country": "CA",
                        "formatted_address": "8575 Pie Ix Blvd, Montreal QC H1Z 3T9",
                        "locality": "Montreal",
                        "postcode": "H1Z 3T9",
                        "region": "QC"
                  },
                  "name": "Pfk , Succursales, Montreal"
            },
            {
                  "distance": 965,
                  "location": {
                        "address": "8565 Pie-Ix Blvd",
                        "country": "CA",
                        "formatted_address": "8565 Pie-Ix Blvd, Montreal QC H1Z 3T9",
                        "locality": "Montreal",
                        "postcode": "H1Z 3T9",
                        "region": "QC"
                  },
                  "name": "Boulangerie Patisserie Obeissance"
            },
            {
                  "distance": 984,
                  "location": {
                        "address": "4120 Robert Blvd",
                        "country": "CA",
                        "formatted_address": "4120 Robert Blvd, Montreal QC H1Z 1Y6",
                        "locality": "Montreal",
                        "postcode": "H1Z 1Y6",
                        "region": "QC"
                  },
                  "name": "Cafe Casa Mia"
            },
            {
                  "distance": 997,
                  "location": {
                        "address": "9186 25e Ave",
                        "country": "CA",
                        "formatted_address": "9186 25e Ave, Montreal QC H1Z 4C9",
                        "locality": "Montreal",
                        "postcode": "H1Z 4C9",
                        "region": "QC"
                  },
                  "name": "Que Taco Con Queso"
            }
      ],
      "context": {
            "geo_bounds": {
                  "circle": {
                        "center": {
                              "latitude": 45.58398773,
                              "longitude": -73.60809334
                        },
                        "radius": 1000
                  }
            }
      }
}