{
      "results": [
            {
                  "distance": 263,
                  "location": {
                        "address": "5076 rue de Bellechasse",
                        "country": "CA",
                        "cross_street": "39e avenue",
                        "formatted_address": "5076 rue de Bellechasse (39e avenue), Montr\u00e9al QC H1T 2A2",
                        "locality": "Montreal",
                        "postcode": "H1T 2A2",
                        "region": "QC"
                  },
                  "name": "Une nuit \u00e0 Bangkok",
                  "popularity": 0.9431065480696442,
                  "price": 2
            },
            {
                  "distance": 504,
                  "location": {
                        "address": "5195 Beaubien Rue E",
                        "country": "CA",
                        "cross_street": "41ieme avenue",
                        "formatted_address": "5195 Beaubien Rue E (41ieme avenue), Montr\u00e9al QC H1T 1V9",
                        "locality": "Montreal",
                        "postcode": "H1T 1V9",
                        "region": "QC"
                  },
                  "name": "Restaurant St-Aubin",
                  "popularity": 0.8631718395155186,
                  "price": 1
            },
            {
                  "distance": 662,
                  "location": {
                        "address": "4931 Beaubien Rue E",
                        "country": "CA",
                        "cross_street": "coin Viau",
                        "formatted_address": "4931 Beaubien Rue E (coin Viau), Montr\u00e9al QC H1T 1V1",
                        "locality": "Montreal",
                        "postcode": "H1T 1V1",
                        "region": "QC"
                  },
                  "name": "Sachi Sushi",
                  "popularity": 0.8922099735049205,
                  "price": 2
            },
            {
                  "distance": 342,
                  "location": {
                        "address": "4943 Rosemont Blvd",
                        "country": "CA",
                        "formatted_address": "4943 Rosemont Blvd, Montreal QC H1T 2E6",
                        "locality": "Montreal",
                        "postcode": "H1T 2E6",
                        "region": "QC"
                  },
                  "name": "Ryo Sushi"
            },
            {
                  "distance": 364,
                  "location": {
                        "address": "4933 Rosemont Blvd",
                        "country": "CA",
                        "formatted_address": "4933 Rosemont Blvd, Montreal QC H1T 2E6",
                        "locality": "Montreal",
                        "postcode": "H1T 2E6",
                        "region": "QC"
                  },
                  "name": "Dido Restaurant"
            },
            {
                  "distance": 487,
                  "location": {
                        "address": "5152 Beaubien Rue E",
                        "country": "CA",
                        "formatted_address": "5152 Beaubien Rue E, Montreal QC H1T 1W1",
                        "locality": "Montreal",
                        "postcode": "H1T 1W1",
                        "region": "QC"
                  },
                  "name": "Rich Bistro Cafe Inc"
            },
            {
                  "distance": 500,
                  "location": {
                        "address": "5142 Beaubien Rue E",
                        "country": "CA",
                        "formatted_address": "5142 Beaubien Rue E, Montreal QC H1T 1V7",
                        "locality": "Montreal",
                        "postcode": "H1T 1V7",
                        "region": "QC"
                  },
                  "name": "Cafe Navaro"
            },
            {
                  "distance": 566,
                  "location": {
                        "address": "5460 Beaubien Rue E",
                        "country": "CA",
                        "formatted_address": "5460 Beaubien Rue E, Montreal QC H1T 1W9",
                        "locality": "Montreal",
                        "postcode": "H1T 1W9",
                        "region": "QC"
                  },
                  "name": "Tora Sushi"
            },
            {
                  "distance": 601,
                  "location": {
                        "address": "4975 Beaubien Rue E",
                        "country": "CA",
                        "formatted_address": "4975 Beaubien Rue E, Montreal QC H1T 1V3",
                        "locality": "Montreal",
                        "postcode": "H1T 1V3",
                        "region": "QC"
                  },
                  "name": "Brasserie Cannebiere Inc"
            },
            {
                  "distance": 671,
                  "location": {
                        "address": "6510 Viau Rue",
                        "country": "CA",
                        "formatted_address": "6510 Viau Rue, Montreal QC H1T 2Y7",
                        "locality": "Montreal",
                        "postcode": "H1T 2Y7",
                        "region": "QC"
                  },
                  "name": "Meurtre et Mysteres"
            }
      ],
      "context": {
            "geo_bounds": {
                  "circle": {
                        "center": {
                              "latitude": 45.57178978,
                              "longitude": -73.56431499
                        },
                        "radius": 1000
                  }
            }
      }
}