{
      "results": [
            {
                  "distance": 667,
                  "location": {
                        "address": "1812 Sainte-Catherine Rue E",
                        "country": "CA",
                        "cross_street": "Av Papineau",
                        "formatted_address": "1812 Sainte-Catherine Rue E (Av Papineau), Montr\u00e9al QC H2K 2H3",
                        "locality": "Montreal",
                        "postcode": "H2K 2H3",
                        "region": "QC"
                  },
                  "name": "Bar le Stud",
                  "popularity": 0.9814534443603331,
                  "price": 2,
                  "rating": 7.5
            },
            {
                  "distance": 851,
                  "location": {
                        "address": "2308 Ontario Rue E",
                        "country": "CA",
                        "cross_street": "",
                        "formatted_address": "2308 Ontario Rue E, Montr\u00e9al QC H2K 1W1",
                        "locality": "Montreal",
                        "postcode": "H2K 1W1",
                        "region": "QC"
                  },
                  "name": "Cr\u00e8merie Confiserie le Gourmandin",
                  "popularity": 0.8898679977289932,
                  "price": 1,
                  "rating": 7.4
            },
            {
                  "distance": 883,
                  "location": {
                        "address": "1474 Rue Sainte-Catherine E",
                        "country": "CA",
                        "cross_street": "",
                        "formatted_address": "1474 Rue Sainte-Catherine E"
                  },
                  "name": "Sky Pub Terrasse",
                  "popularity": 0.8309519303557911,
                  "price": 2,
                  "rating": 7.0
            },
            {
                  "distance": 890,
                  "location": {
                        "address": "2120 Ontario Rue E",
                        "country": "CA",
                        "cross_street": "De Lormier",
                        "formatted_address": "2120 Ontario Rue E (De Lormier), Montr\u00e9al QC H2K 1V5",
                        "locality": "Montreal",
                        "postcode": "H2K 1V5",
                        "region": "QC"
                  },
                  "name": "Lafleur Restaurants",
                  "popularity": 0.9637348599545799,
                  "price": 1,
                  "rating": 6.9
            },
            {
                  "distance": 875,
                  "location": {
                        "address": "1474 Ste",
                        "country": "CA",
                        "cross_street": "at Alexandre-de-S\u00e8ve",
                        "formatted_address": "1474 Ste (at Alexandre-de-S\u00e8ve), Montr\u00e9al QC H2L 2J1",
                        "locality": "Montreal",
                        "postcode": "H2L 2J1",
                        "region": "QC"
                  },
                  "name": "Complexe Sky",
                  "popularity": 0.9533260787282362,
                  "price": 2,
                  "rating": 6.8
            },
            {
                  "distance": 584,
                  "location": {
                        "address": "1870 Sainte-Catherine Rue E",
                        "country": "CA",
                        "cross_street": "coin Cartier",
                        "formatted_address": "1870 Sainte-Catherine Rue E (coin Cartier), Montr\u00e9al QC H2K 2H5",
                        "locality": "Montreal",
                        "postcode": "H2K 2H5",
                        "region": "QC"
                  },
                  "name": "Lafayette Hot Dog",
                  "popularity": 0.9246191332323997,
                  "price": 1,
                  "rating": 6.8
            },
            {
                  "distance": 979,
                  "location": {
                        "address": "1365 Sainte Catherine Rue E",
                        "country": "CA",
                        "cross_street": "",
                        "formatted_address": "1365 Sainte Catherine Rue E, Montr\u00e9al QC H2L 2H7",
                        "locality": "Montreal",
                        "postcode": "H2L 2H7",
                        "region": "QC"
                  },
                  "name": "District Video Lounge",
                  "popularity": 0.9562712906888721,
                  "price": 3,
                  "rating": 6.7
            },
            {
                  "distance": 880,
                  "location": {
                        "address": "2544 Ontario Rue E",
                        "country": "CA",
                        "cross_street": "coin Frontenac",
                        "formatted_address": "2544 Ontario Rue E (coin Frontenac), Montr\u00e9al QC H2K 1W4",
                        "locality": "Montreal",
                        "postcode": "H2K 1W4",
                        "region": "QC"
                  },
                  "name": "Subway",
                  "popularity": 0.8541824375473126,
                  "price": 1,
                  "rating": 6.4,
                  "store_id": "38095"
            },
            {
                  "distance": 999,
                  "location": {
                        "address": "1356 Sainte-Catherine Rue E",
                        "country": "CA",
                        "cross_street": "Dalcourt",
                        "formatted_address": "1356 Sainte-Catherine Rue E (Dalcourt), Montr\u00e9al QC H2L 2H6",
                        "locality": "Montreal",
                        "postcode": "H2L 2H6",
                        "region": "QC"
                  },
                  "name": "Sushi Shop",
                  "popularity": 0.7877673164269493,
                  "price": 2,
                  "rating": 6.3
            },
            {
                  "distance": 923,
                  "location": {
                        "address": "1453 Sainte-Catherine Rue E",
                        "country": "CA",
                        "cross_street": "",
                        "formatted_address": "1453 Sainte-Catherine Rue E, Montr\u00e9al QC H2L 2H9",
                        "locality": "Montreal",
                        "postcode": "H2L 2H9",
                        "region": "QC"
                  },
                  "name": "Toro Rosso",
                  "popularity": 0.9418645912187736,
                  "price": 4,
                  "rating": 6.3
            },
            {
                  "distance": 537,
                  "location": {
                        "address": "2033 Blvd de Maisonneuve Est Petro Canada",
                        "country": "CA",
                        "cross_street": "",
                        "formatted_address": "2033 Blvd de Maisonneuve Est Petro Canada, Montr\u00e9al QC H2K 4M2",
                        "locality": "Montreal",
                        "postcode": "H2K 4M2",
                        "region": "QC"
                  },
                  "name": "A&W Restaurant",
                  "popularity": 0.9394989591218774,
                  "price": 1,
                  "rating": 6.2,
                  "store_id": "5516"
            },
            {
                  "distance": 487,
                  "location": {
                        "address": "2155 Blvd de Maisonneuve Est",
                        "country": "CA",
                        "cross_street": "coin Delorimier",
                        "formatted_address": "2155 Blvd de Maisonneuve Est (coin Delorimier), Montr\u00e9al QC H2K 4S3",
                        "locality": "Montreal",
                        "postcode": "H2K 4S3",
                        "region": "QC"
                  },
                  "name": "Tim Hortons",
                  "popularity": 0.992631056018168,
                  "price": 1,
                  "rating": 6.1
            },
            {
                  "distance": 626,
                  "location": {
                        "address": "1830 Sainte-Catherine Rue E",
                        "country": "CA",
                        "cross_street": "Cartier",
                        "formatted_address": "1830 Sainte-Catherine Rue E (Cartier), Montr\u00e9al QC H2K 2H3",
                        "locality": "Montreal",
                        "postcode": "H2K 2H3",
                        "region": "QC"
                  },
                  "name": "Restaurant Pho an Nam",
                  "popularity": 0.9299299772899319,
                  "price": 2,
                  "rating": 6.0
            },
            {
                  "distance": 581,
                  "location": {
                        "address": "1950 Blvd de Maisonneuve Est",
                        "country": "CA",
                        "cross_street": "",
                        "formatted_address": "1950 Blvd de Maisonneuve Est, Montr\u00e9al QC H2K 2C8",
                        "locality": "Montreal",
                        "postcode": "H2K 2C8",
                        "region": "QC"
                  },
                  "name": "Bar Taboo",
                  "popularity": 0.9578326078728236,
                  "price": 2,
                  "rating": 5.8
            },
            {
                  "distance": 987,
                  "location": {
                        "address": "2700 Ontario Rue E",
                        "country": "CA",
                        "cross_street": "Bercy",
                        "formatted_address": "2700 Ontario Rue E (Bercy), Montr\u00e9al QC H2K 1W9",
                        "locality": "Montreal",
                        "postcode": "H2K 1W9",
                        "region": "QC"
                  },
                  "name": "Tim Hortons",
                  "popularity": 0.967791919000757,
                  "price": 1,
                  "rating": 5.6
            },
            {
                  "distance": 863,
                  "location": {
                        "address": "2600 Ontario Rue E",
                        "country": "CA",
                        "cross_street": "coin Du Havre",
                        "formatted_address": "2600 Ontario Rue E (coin Du Havre), Montr\u00e9al QC H2K 4K4",
                        "locality": "Montreal",
                        "postcode": "H2K 4K4",
                        "region": "QC"
                  },
                  "name": "McDonald's",
                  "popularity": 0.9883729182437547,
                  "price": 1,
                  "rating": 4.6,
                  "store_id": "10089"
            },
            {
                  "distance": 274,
                  "location": {
                        "address": "2199 Sainte-Catherine Rue E",
                        "country": "CA",
                        "cross_street": "Parthenais",
                        "formatted_address": "2199 Sainte-Catherine Rue E (Parthenais), Montr\u00e9al QC H2K 2H9",
                        "locality": "Montreal",
                        "postcode": "H2K 2H9",
                        "region": "QC"
                  },
                  "name": "Canard caf\u00e9",
                  "popularity": 0.9539766275548827,
                  "price": 1
            },
            {
                  "distance": 546,
                  "location": {
                        "address": "789 Jean Talon Rue O",
                        "country": "CA",
                        "formatted_address": "789 Jean Talon Rue O, Montr\u00e9al QC H3N 1S3",
                        "locality": "Montreal",
                        "postcode": "H3N 1S3",
                        "region": "QC"
                  },
                  "name": "Panama Restaurant",
                  "popularity": 0.20819928084784253,
                  "price": 2
            },
            {
                  "distance": 736,
                  "location": {
                        "address": "1661 Sainte-Catherine Rue E",
                        "country": "CA",
                        "cross_street": "",
                        "formatted_address": "1661 Sainte-Catherine Rue E, Montr\u00e9al QC H2L 2J5",
                        "locality": "Montreal",
                        "postcode": "H2L 2J5",
                        "region": "QC"
                  },
                  "name": "Studio Backstage",
                  "popularity": 0.7568485049205148,
                  "price": 2
            },
            {
                  "distance": 743,
                  "location": {
                        "address": "1661 Sainte-Catherine Rue E",
                        "country": "CA",
                        "cross_street": "Champlain",
                        "formatted_address": "1661 Sainte-Catherine Rue E (Champlain), Montr\u00e9al QC H2L 2J5",
                        "locality": "Montreal",
                        "postcode": "H2L 2J5",
                        "region": "QC"
                  },
                  "name": "Cabaret Berlin",
                  "popularity": 0.8482683573050719,
                  "price": 2
            },
            {
                  "distance": 748,
                  "location": {
                        "address": "1659 Ste Rue",
                        "country": "CA",
                        "cross_street": "",
                        "formatted_address": "1659 Ste Rue, Montr\u00e9al QC H2L 2J5",
                        "locality": "Montreal",
                        "postcode": "H2L 2J5",
                        "region": "QC"
                  },
                  "name": "Cantine Emilia",
                  "popularity": 0.8558265518546556,
                  "price": 2
            },
            {
                  "distance": 818,
                  "location": {
                        "address": "1470 Rue de Champlain",
                        "country": "CA",
                        "cross_street": "",
                        "formatted_address": "1470 Rue de Champlain, Montr\u00e9al QC H2L 2B3",
                        "locality": "Montreal",
                        "postcode": "H2L 2B3",
                        "region": "QC"
                  },
                  "name": "Caf\u00e9 l'interm\u00e8de",
                  "popularity": 0.7469601627554883,
                  "price": 1
            },
            {
                  "distance": 891,
                  "location": {
                        "address": "1487 Sainte-Catherine Rue E",
                        "country": "CA",
                        "cross_street": "",
                        "formatted_address": "1487 Sainte-Catherine Rue E, Montr\u00e9al QC H2L 2H9",
                        "locality": "Montreal",
                        "postcode": "H2L 2H9",
                        "region": "QC"
                  },
                  "name": "Palme",
                  "popularity": 0.8981713663890991,
                  "price": 2
            },
            {
                  "distance": 920,
                  "location": {
                        "address": "2600 Ontario Rue E",
                        "address_extended": "# 10",
                        "country": "CA",
                        "cross_street": "Du Havre",
                        "formatted_address": "2600 Ontario Rue E (Du Havre), Montr\u00e9al QC H2K 4K4",
                        "locality": "Montreal",
                        "postcode": "H2K 4K4",
                        "region": "QC"
                  },
                  "name": "Restaurant Bercy",
                  "popularity": 0.8457844436033308,
                  "price": 2
            },
            {
                  "distance": 935,
                  "location": {
                        "address": "2054 Fullum Rue",
                        "country": "CA",
                        "cross_street": "Ontario",
                        "formatted_address": "2054 Fullum Rue (Ontario), Montr\u00e9al QC H2K 3N7",
                        "locality": "Montreal",
                        "postcode": "H2K 3N7",
                        "region": "QC"
                  },
                  "name": "Ikaros Pizzeria Enr",
                  "popularity": 0.8425908402725208,
                  "price": 1
            },
            {
                  "distance": 945,
                  "location": {
                        "address": "2043 Parthenais Rue",
                        "country": "CA",
                        "cross_street": "Larivi\u00e8re",
                        "formatted_address": "2043 Parthenais Rue (Larivi\u00e8re), Montr\u00e9al QC H2K 3T1",
                        "locality": "Montreal",
                        "postcode": "H2K 3T1",
                        "region": "QC"
                  },
                  "name": "Cafeteria Nonnini",
                  "popularity": 0.9463238077214232,
                  "price": 1
            },
            {
                  "distance": 984,
                  "location": {
                        "country": "CA",
                        "formatted_address": "Montr\u00e9al QC",
                        "locality": "Montreal",
                        "region": "QC"
                  },
                  "name": "Caf\u00e9t\u00e9ria",
                  "popularity": 0.8558147236941711
            },
            {
                  "distance": 993,
                  "location": {
                        "address": "1356 Sainte-Catherine Rue E",
                        "country": "CA",
                        "cross_street": "",
                        "formatted_address": "1356 Sainte-Catherine Rue E, Montr\u00e9al QC H2L 2H6",
                        "locality": "Montreal",
                        "postcode": "H2L 2H6",
                        "region": "QC"
                  },
                  "name": "Sushi Shop",
                  "popularity": 0.8426972937168812,
                  "price": 2
            },
            {
                  "distance": 683,
                  "location": {
                        "address": "1717 Rene-Levesque Blvd E",
                        "country": "CA",
                        "formatted_address": "1717 Rene-Levesque Blvd E, Montreal QC H2L 4T3",
                        "locality": "Montreal",
                        "postcode": "H2L 4T3",
                        "region": "QC"
                  },
                  "name": "Pizza Bonne Aventure"
            },
            {
                  "distance": 733,
                  "location": {
                        "address": "1669 Sainte-Catherine Rue E",
                        "country": "CA",
                        "formatted_address": "1669 Sainte-Catherine Rue E, Montreal QC H2L 2J5",
                        "locality": "Montreal",
                        "postcode": "H2L 2J5",
                        "region": "QC"
                  },
                  "name": "Bar l'Idem"
            },
            {
                  "distance": 748,
                  "location": {
                        "address": "1650 Sainte-Catherine Rue E",
                        "country": "CA",
                        "formatted_address": "1650 Sainte-Catherine Rue E, Montreal QC H2L 2J4",
                        "locality": "Montreal",
                        "postcode": "H2L 2J4",
                        "region": "QC"
                  },
                  "name": "Pavillon"
            },
            {
                  "distance": 809,
                  "location": {
                        "address": "1560 Ste",
                        "country": "CA",
                        "formatted_address": "1560 Ste, Montreal QC H2L 2J2",
                        "locality": "Montreal",
                        "postcode": "H2L 2J2",
                        "region": "QC"
                  },
                  "name": "Beach Club"
            },
            {
                  "distance": 816,
                  "location": {
                        "address": "1550 Sainte-Catherine Rue E",
                        "country": "CA",
                        "formatted_address": "1550 Sainte-Catherine Rue E, Montreal QC H2L 0J1",
                        "locality": "Montreal",
                        "postcode": "H2L 0J1",
                        "region": "QC"
                  },
                  "name": "Bella Maria Restaurant"
            },
            {
                  "distance": 864,
                  "location": {
                        "address": "2361 Ontario Rue E",
                        "country": "CA",
                        "formatted_address": "2361 Ontario Rue E, Montreal QC H2K 1W2",
                        "locality": "Montreal",
                        "postcode": "H2K 1W2",
                        "region": "QC"
                  },
                  "name": "Cooperative de Travail Touski"
            },
            {
                  "distance": 878,
                  "location": {
                        "address": "1474 Sainte Catherine Rue E",
                        "country": "CA",
                        "formatted_address": "1474 Sainte Catherine Rue E, Montreal QC H2L 2J1",
                        "locality": "Montreal",
                        "postcode": "H2L 2J1",
                        "region": "QC"
                  },
                  "name": "Sky Pub Club"
            }
      ],
      "context": {
            "geo_bounds": {
                  "circle": {
                        "center": {
                              "latitude": 45.52649998,
                              "longitude": -73.54575277
                        },
                        "radius": 1000
                  }
            }
      }
}