{
      "results": [
            {
                  "distance": 970,
                  "location": {
                        "address": "3205 Cremazie Blvd E",
                        "country": "CA",
                        "cross_street": "Cr\u00e9mazie",
                        "formatted_address": "3205 Cremazie Blvd E (Cr\u00e9mazie), Montr\u00e9al QC H1Z 4M5",
                        "locality": "Montreal",
                        "postcode": "H1Z 4M5",
                        "region": "QC"
                  },
                  "name": "Pho Ngon",
                  "popularity": 0.9768404617713853,
                  "price": 2,
                  "rating": 8.5
            },
            {
                  "distance": 812,
                  "location": {
                        "address": "7735 Saint-Michel Blvd",
                        "country": "CA",
                        "cross_street": "",
                        "formatted_address": "7735 Saint-Michel Blvd, Montr\u00e9al QC H2A 3A7",
                        "locality": "Montreal",
                        "postcode": "H2A 3A7",
                        "region": "QC"
                  },
                  "name": "Poissonnerie M\u00e9diterran\u00e9e",
                  "popularity": 0.8910153292959879,
                  "price": 1,
                  "rating": 7.9
            },
            {
                  "distance": 586,
                  "location": {
                        "address": "3296 Jean-Talon Rue E",
                        "country": "CA",
                        "cross_street": "Boul.St-Michel",
                        "formatted_address": "3296 Jean-Talon Rue E (Boul.St-Michel), Montr\u00e9al QC H2A 1W3",
                        "locality": "Montreal",
                        "postcode": "H2A 1W3",
                        "region": "QC"
                  },
                  "name": "Bar Zoe Karaoke et Cocktails",
                  "popularity": 0.974522142316427,
                  "price": 2,
                  "rating": 7.6
            },
            {
                  "distance": 837,
                  "location": {
                        "address": "4310 Belanger Rue",
                        "country": "CA",
                        "cross_street": "",
                        "formatted_address": "4310 Belanger Rue, Montr\u00e9al QC H1T 1A7",
                        "locality": "Montreal",
                        "postcode": "H1T 1A7",
                        "region": "QC"
                  },
                  "name": "Restobar Chez Toutou",
                  "popularity": 0.9815717259651779,
                  "price": 2,
                  "rating": 7.5
            },
            {
                  "distance": 885,
                  "location": {
                        "address": "3562 Jarry Rue E",
                        "country": "CA",
                        "cross_street": "15e Avenue",
                        "formatted_address": "3562 Jarry Rue E (15e Avenue), Montr\u00e9al QC H1Z 2G3",
                        "locality": "Montreal",
                        "postcode": "H1Z 2G3",
                        "region": "QC"
                  },
                  "name": "Nam Quan Restaurant",
                  "popularity": 0.9610498675246025,
                  "price": 2,
                  "rating": 7.4
            },
            {
                  "distance": 784,
                  "location": {
                        "address": "3250 Cremazie Blvd E",
                        "country": "CA",
                        "cross_street": "Saint-Michel",
                        "formatted_address": "3250 Cremazie Blvd E (Saint-Michel), Montr\u00e9al QC H2A 3N9",
                        "locality": "Montreal",
                        "postcode": "H2A 3N9",
                        "region": "QC"
                  },
                  "name": "Restaurant Pho Nam Inc",
                  "popularity": 0.9806254731264193,
                  "price": 2,
                  "rating": 6.8
            },
            {
                  "distance": 953,
                  "location": {
                        "address": "3397 Saint-Zotique Rue E",
                        "country": "CA",
                        "cross_street": "",
                        "formatted_address": "3397 Saint-Zotique Rue E, Montr\u00e9al QC H1X 1C7",
                        "locality": "Montreal",
                        "postcode": "H1X 1C7",
                        "region": "QC"
                  },
                  "name": "Au Coq",
                  "popularity": 0.962043433005299,
                  "price": 1,
                  "rating": 6.7
            },
            {
                  "distance": 936,
                  "location": {
                        "address": "8101 Pie-Ix Blvd",
                        "country": "CA",
                        "cross_street": "rue Jarry Est",
                        "formatted_address": "8101 Pie-Ix Blvd (rue Jarry Est), Montr\u00e9al QC H1Z 3T5",
                        "locality": "Montreal",
                        "postcode": "H1Z 3T5",
                        "region": "QC"
                  },
                  "name": "Subway",
                  "popularity": 0.9873083838001514,
                  "price": 1,
                  "rating": 6.4,
                  "store_id": "29313"
            },
            {
                  "distance": 796,
                  "location": {
                        "address": "7734 Saint-Michel Blvd",
                        "country": "CA",
                        "cross_street": "at Cr\u00e9mazie Est",
                        "formatted_address": "7734 Saint-Michel Blvd (at Cr\u00e9mazie Est), Montr\u00e9al QC H2A 3A5",
                        "locality": "Montreal",
                        "postcode": "H2A 3A5",
                        "region": "QC"
                  },
                  "name": "March\u00e9 Kim Hour Inc",
                  "popularity": 0.9871546177138532,
                  "price": 1,
                  "rating": 6.4
            },
            {
                  "distance": 559,
                  "location": {
                        "address": "4100 Jean-Talon St E",
                        "address_extended": "Le Boulevard Shopping Centre",
                        "country": "CA",
                        "cross_street": "",
                        "formatted_address": "4100 Jean-Talon St E, Montreal QC H1S 2V4",
                        "locality": "Montreal",
                        "postcode": "H1S 2V4",
                        "region": "QC"
                  },
                  "name": "Subway",
                  "popularity": 0.9066048448145344,
                  "price": 1,
                  "rating": 6.4,
                  "store_id": "26167"
            },
            {
                  "distance": 704,
                  "location": {
                        "address": "3410 Belanger Rue",
                        "country": "CA",
                        "cross_street": "13th Avenue",
                        "formatted_address": "3410 Belanger Rue (13th Avenue), Montr\u00e9al QC H1X 1A6",
                        "locality": "Montreal",
                        "postcode": "H1X 1A6",
                        "region": "QC"
                  },
                  "name": "Merson's Patisserie",
                  "popularity": 0.8872776305828918,
                  "price": 2,
                  "rating": 5.9
            },
            {
                  "distance": 561,
                  "location": {
                        "address": "4275 Jean-Talon Rue E",
                        "country": "CA",
                        "formatted_address": "4275 Jean-Talon Rue E, Montr\u00e9al QC H1S 1J9",
                        "locality": "Montreal",
                        "postcode": "H1S 1J9",
                        "region": "QC"
                  },
                  "name": "Fu Lam",
                  "popularity": 0.9726769492808478,
                  "rating": 5.7
            },
            {
                  "distance": 933,
                  "location": {
                        "address": "8100 Pie Ix Blvd",
                        "country": "CA",
                        "formatted_address": "8100 Pie Ix Blvd, Montr\u00e9al QC H1Z 4P1",
                        "locality": "Montreal",
                        "postcode": "H1Z 4P1",
                        "region": "QC"
                  },
                  "name": "Tim Hortons",
                  "popularity": 0.9972203822861468,
                  "price": 1,
                  "rating": 5.5
            },
            {
                  "distance": 726,
                  "location": {
                        "address": "7645 Saint-Michel Blvd",
                        "country": "CA",
                        "formatted_address": "7645 Saint-Michel Blvd, Montreal QC H2A 3M4",
                        "locality": "Montr\u00e9al-Nord",
                        "postcode": "H2A 3M4",
                        "region": "QC"
                  },
                  "name": "McDonald's",
                  "popularity": 0.9966408024224073,
                  "price": 1,
                  "rating": 5.3
            },
            {
                  "distance": 298,
                  "location": {
                        "address": "3924 Jean-Talon Rue E",
                        "country": "CA",
                        "cross_street": "",
                        "formatted_address": "3924 Jean-Talon Rue E, Montr\u00e9al QC H2A 1Y8",
                        "locality": "Montreal",
                        "postcode": "H2A 1Y8",
                        "region": "QC"
                  },
                  "name": "Caf\u00e9 Sable d'Or",
                  "popularity": 0.9942633421650265,
                  "price": 1
            },
            {
                  "distance": 551,
                  "location": {
                        "address": "4136 Jean- Talon Rue E",
                        "country": "CA",
                        "cross_street": "",
                        "formatted_address": "4136 Jean- Talon Rue E, Montr\u00e9al QC H1S 2V4",
                        "locality": "Montreal",
                        "postcode": "H1S 2V4",
                        "region": "QC"
                  },
                  "name": "Basha",
                  "popularity": 0.38836582134746406,
                  "price": 2
            },
            {
                  "distance": 567,
                  "location": {
                        "address": "4247 Jean-Talon Rue E",
                        "country": "CA",
                        "formatted_address": "4247 Jean-Talon Rue E, Saint-Leonard QC H1S 1J9",
                        "locality": "Saint-L\u00e9onard",
                        "postcode": "H1S 1J9",
                        "region": "QC"
                  },
                  "name": "Harvey's",
                  "popularity": 0.9872610711582135,
                  "price": 1,
                  "store_id": "2474"
            },
            {
                  "distance": 606,
                  "location": {
                        "address": "7001 Pie-Ix Blvd",
                        "country": "CA",
                        "cross_street": "",
                        "formatted_address": "7001 Pie-Ix Blvd, Montr\u00e9al QC H2A 2G3",
                        "locality": "Montreal",
                        "postcode": "H2A 2G3",
                        "region": "QC"
                  },
                  "name": "All\u00f4! Mon Coco",
                  "popularity": 0.992335352006056,
                  "price": 2
            },
            {
                  "distance": 627,
                  "location": {
                        "address": "3391 Belair Rue",
                        "country": "CA",
                        "cross_street": "13e avenue",
                        "formatted_address": "3391 Belair Rue (13e avenue), Montr\u00e9al QC H2A 2A6",
                        "locality": "Montreal",
                        "postcode": "H2A 2A6",
                        "region": "QC"
                  },
                  "name": "Montr\u00e9al Caf\u00e9 Restaurent Carthage",
                  "popularity": 0.8973788796366389,
                  "price": 1
            },
            {
                  "distance": 837,
                  "location": {
                        "address": "4326 Belanger Rue",
                        "country": "CA",
                        "cross_street": "26e Avenue",
                        "formatted_address": "4326 Belanger Rue (26e Avenue), Montr\u00e9al QC H1T 1A7",
                        "locality": "Montreal",
                        "postcode": "H1T 1A7",
                        "region": "QC"
                  },
                  "name": "Sushi Bako",
                  "popularity": 0.10050387963663891,
                  "price": 2
            },
            {
                  "distance": 281,
                  "location": {
                        "address": "3911 Jean-Talon Rue E",
                        "country": "CA",
                        "formatted_address": "3911 Jean-Talon Rue E, Montreal QC H2A 1Y9",
                        "locality": "Montreal",
                        "postcode": "H2A 1Y9",
                        "region": "QC"
                  },
                  "name": "Barbes Caf\u00e9-Resto"
            },
            {
                  "distance": 296,
                  "location": {
                        "address": "3575 Jean-Talon Rue E",
                        "country": "CA",
                        "formatted_address": "3575 Jean-Talon Rue E, Montreal QC H2A 1X4",
                        "locality": "Montreal",
                        "postcode": "H2A 1X4",
                        "region": "QC"
                  },
                  "name": "Caf\u00e9 Resto le M\u00e9dit\u00e9rran\u00e9en"
            },
            {
                  "distance": 311,
                  "location": {
                        "address": "3598 Jean Talon Rue E",
                        "country": "CA",
                        "formatted_address": "3598 Jean Talon Rue E, Montreal QC H2A 1X5",
                        "locality": "Montreal",
                        "postcode": "H2A 1X5",
                        "region": "QC"
                  },
                  "name": "Caf\u00e9-resto D\u00e9lices F\u00e8s"
            },
            {
                  "distance": 444,
                  "location": {
                        "address": "3436 Jean-Talon Rue E",
                        "country": "CA",
                        "formatted_address": "3436 Jean-Talon Rue E, Montreal QC H2A 1W9",
                        "locality": "Montreal",
                        "postcode": "H2A 1W9",
                        "region": "QC"
                  },
                  "name": "La Kasbah"
            },
            {
                  "distance": 467,
                  "location": {
                        "address": "7515 Pie-Ix Blvd",
                        "country": "CA",
                        "formatted_address": "7515 Pie-Ix Blvd, Montreal QC H2A 2G7",
                        "locality": "Montreal",
                        "postcode": "H2A 2G7",
                        "region": "QC"
                  },
                  "name": "Real Nightlife Productions"
            },
            {
                  "distance": 474,
                  "location": {
                        "address": "4128 Jean-Talon Rue E",
                        "country": "CA",
                        "formatted_address": "4128 Jean-Talon Rue E, Montreal QC",
                        "locality": "Montreal",
                        "region": "QC"
                  },
                  "name": "Poisson Poulet"
            },
            {
                  "distance": 584,
                  "location": {
                        "address": "4134 Jean-Talon Rue E",
                        "country": "CA",
                        "formatted_address": "4134 Jean-Talon Rue E, Montreal QC H1S 2V4",
                        "locality": "Montreal",
                        "postcode": "H1S 2V4",
                        "region": "QC"
                  },
                  "name": "Pizza Go"
            },
            {
                  "distance": 592,
                  "location": {
                        "address": "3296 Jean-Talon Rue E",
                        "country": "CA",
                        "formatted_address": "3296 Jean-Talon Rue E, Montreal QC H2A 1W3",
                        "locality": "Montreal",
                        "postcode": "H2A 1W3",
                        "region": "QC"
                  },
                  "name": "Zo\u00e9 Fondues-Karaoke"
            },
            {
                  "distance": 756,
                  "location": {
                        "address": "7971 15e Ave",
                        "country": "CA",
                        "formatted_address": "7971 15e Ave, Montreal QC H1Z 3N5",
                        "locality": "Montreal",
                        "postcode": "H1Z 3N5",
                        "region": "QC"
                  },
                  "name": "Les Saveurs de Montr\u00e9al"
            },
            {
                  "distance": 813,
                  "location": {
                        "address": "3055A Villeray Rue",
                        "country": "CA",
                        "formatted_address": "3055A Villeray Rue, Montreal QC H2A 1E8",
                        "locality": "Montreal",
                        "postcode": "H2A 1E8",
                        "region": "QC"
                  },
                  "name": "Cafe Bistro la Dolce Vita"
            },
            {
                  "distance": 836,
                  "location": {
                        "address": "7682 Saint-Michel Blvd",
                        "country": "CA",
                        "formatted_address": "7682 Saint-Michel Blvd, Montreal QC H2A 3A5",
                        "locality": "Montreal",
                        "postcode": "H2A 3A5",
                        "region": "QC"
                  },
                  "name": "Brasserie Chez le Pere Gedeon"
            },
            {
                  "distance": 840,
                  "location": {
                        "address": "4460 Jean Talon Rue E",
                        "country": "CA",
                        "formatted_address": "4460 Jean Talon Rue E, Saint-Leonard QC H1S 1K1",
                        "locality": "Saint-Leonard",
                        "postcode": "H1S 1K1",
                        "region": "QC"
                  },
                  "name": "Cabana Dacilor"
            },
            {
                  "distance": 955,
                  "location": {
                        "address": "3181 Belanger Rue",
                        "country": "CA",
                        "formatted_address": "3181 Belanger Rue, Montreal QC H1Y 1B6",
                        "locality": "Montreal",
                        "postcode": "H1Y 1B6",
                        "region": "QC"
                  },
                  "name": "Restaurant Pnt Inc"
            },
            {
                  "distance": 976,
                  "location": {
                        "address": "7961 Saint-Michel Blvd",
                        "country": "CA",
                        "formatted_address": "7961 Saint-Michel Blvd, Montreal QC H1Z 3C9",
                        "locality": "Montreal",
                        "postcode": "H1Z 3C9",
                        "region": "QC"
                  },
                  "name": "Duy Anh"
            }
      ],
      "context": {
            "geo_bounds": {
                  "circle": {
                        "center": {
                              "latitude": 45.56481129,
                              "longitude": -73.59580413
                        },
                        "radius": 1000
                  }
            }
      }
}