{
      "results": [
            {
                  "distance": 880,
                  "location": {
                        "address": "350 Rue de Liege Est",
                        "country": "CA",
                        "cross_street": "coin rue Drolet",
                        "formatted_address": "350 Rue de Liege Est (coin rue Drolet), Montr\u00e9al QC H2P 1J5",
                        "locality": "Montreal",
                        "postcode": "H2P 1J5",
                        "region": "QC"
                  },
                  "name": "L'Oeufrier",
                  "popularity": 0.9471636071158214,
                  "price": 1,
                  "rating": 8.6
            },
            {
                  "distance": 594,
                  "location": {
                        "address": "190 Cremazie Blvd E",
                        "country": "CA",
                        "cross_street": "",
                        "formatted_address": "190 Cremazie Blvd E, Montr\u00e9al QC H2P 1E2",
                        "locality": "Montreal",
                        "postcode": "H2P 1E2",
                        "region": "QC"
                  },
                  "name": "Starbucks",
                  "popularity": 0.9921934140802422,
                  "price": 1,
                  "rating": 8.1,
                  "store_id": "1009058"
            },
            {
                  "distance": 426,
                  "location": {
                        "address": "8870 Lajeunesse Rue",
                        "country": "CA",
                        "cross_street": "Ave Emile-Journault",
                        "formatted_address": "8870 Lajeunesse Rue (Ave Emile-Journault), Montr\u00e9al QC H2M 1R6",
                        "locality": "Montreal",
                        "postcode": "H2M 1R6",
                        "region": "QC"
                  },
                  "name": "Auberge du Dragon Rouge",
                  "popularity": 0.9823760408781226,
                  "price": 2,
                  "rating": 8.0
            },
            {
                  "distance": 865,
                  "location": {
                        "address": "755 Cremazie Blvd E",
                        "country": "CA",
                        "cross_street": "Chateaubriand",
                        "formatted_address": "755 Cremazie Blvd E (Chateaubriand), Montr\u00e9al QC H2M 1M1",
                        "locality": "Montreal",
                        "postcode": "H2M 1M1",
                        "region": "QC"
                  },
                  "name": "Patate Rouge",
                  "popularity": 0.9723812452687358,
                  "price": 1,
                  "rating": 7.7
            },
            {
                  "distance": 891,
                  "location": {
                        "address": "8523 Saint-Laurent Blvd",
                        "country": "CA",
                        "cross_street": "",
                        "formatted_address": "8523 Saint-Laurent Blvd, Montr\u00e9al QC H2P 2M9",
                        "locality": "Montreal",
                        "postcode": "H2P 2M9",
                        "region": "QC"
                  },
                  "name": "Pho Express",
                  "popularity": 0.8575889477668432,
                  "price": 2,
                  "rating": 7.1
            },
            {
                  "distance": 886,
                  "location": {
                        "address": "8500 Saint-Denis Rue",
                        "country": "CA",
                        "cross_street": "coin Li\u00e8ge",
                        "formatted_address": "8500 Saint-Denis Rue (coin Li\u00e8ge), Montr\u00e9al QC H2P 2H2",
                        "locality": "Montreal",
                        "postcode": "H2P 2H2",
                        "region": "QC"
                  },
                  "name": "Caf\u00e9 in",
                  "popularity": 0.83736279333838,
                  "price": 1,
                  "rating": 7.0
            },
            {
                  "distance": 625,
                  "location": {
                        "address": "55 Cremazie Blvd O",
                        "country": "CA",
                        "cross_street": "Boulevard St-Laurent",
                        "formatted_address": "55 Cremazie Blvd O (Boulevard St-Laurent), Montr\u00e9al QC H2N 1L3",
                        "locality": "Montreal",
                        "postcode": "H2N 1L3",
                        "region": "QC"
                  },
                  "name": "Burger King",
                  "popularity": 0.9704177706283119,
                  "price": 1,
                  "rating": 6.8,
                  "store_id": "7455"
            },
            {
                  "distance": 975,
                  "location": {
                        "address": "790 Cremazie Blvd E",
                        "country": "CA",
                        "cross_street": "coin avenue de Ch\u00e2teaubriand",
                        "formatted_address": "790 Cremazie Blvd E (coin avenue de Ch\u00e2teaubriand), Montr\u00e9al QC H2P 1G3",
                        "locality": "Montreal",
                        "postcode": "H2P 1G3",
                        "region": "QC"
                  },
                  "name": "Tim Hortons",
                  "popularity": 0.9834760598031794,
                  "price": 1,
                  "rating": 6.8
            },
            {
                  "distance": 564,
                  "location": {
                        "address": "8779 Lajeunesse Rue",
                        "country": "CA",
                        "cross_street": "at boul. Cr\u00e9mazie E",
                        "formatted_address": "8779 Lajeunesse Rue (at boul. Cr\u00e9mazie E), Montr\u00e9al QC H2M 1R7",
                        "locality": "Montreal",
                        "postcode": "H2M 1R7",
                        "region": "QC"
                  },
                  "name": "Sushi Naniyori",
                  "popularity": 0.8812452687358062,
                  "price": 2,
                  "rating": 6.6
            },
            {
                  "distance": 882,
                  "location": {
                        "address": "9720 St Laurent Blvd",
                        "country": "CA",
                        "cross_street": "Port-Royal",
                        "formatted_address": "9720 St Laurent Blvd (Port-Royal), Montr\u00e9al QC H3L 2N3",
                        "locality": "Montreal",
                        "postcode": "H3L 2N3",
                        "region": "QC"
                  },
                  "name": "Subway",
                  "popularity": 0.9250212906888721,
                  "price": 1,
                  "rating": 6.6,
                  "store_id": "Restaurant #29723"
            },
            {
                  "distance": 591,
                  "location": {
                        "address": "8753 Lajeunesse Rue",
                        "country": "CA",
                        "cross_street": "Cr\u00e9mazie",
                        "formatted_address": "8753 Lajeunesse Rue (Cr\u00e9mazie), Montr\u00e9al QC H2M 1R7",
                        "locality": "Montreal",
                        "postcode": "H2M 1R7",
                        "region": "QC"
                  },
                  "name": "Brasserie du M\u00e9tro",
                  "popularity": 0.9003004352763059,
                  "price": 1,
                  "rating": 6.5
            },
            {
                  "distance": 541,
                  "location": {
                        "address": "8780 St-Laurent Blvd",
                        "address_extended": "Unit 3A",
                        "country": "CA",
                        "cross_street": "",
                        "formatted_address": "8780 St-Laurent Blvd, Montr\u00e9al QC H2N 1M4",
                        "locality": "Montreal",
                        "postcode": "H2N 1M4",
                        "region": "QC"
                  },
                  "name": "Subway",
                  "popularity": 0.11242666540499621,
                  "price": 1,
                  "rating": 6.2,
                  "store_id": "#21498"
            },
            {
                  "distance": 940,
                  "location": {
                        "address": "255 Cremazie Blvd O",
                        "country": "CA",
                        "formatted_address": "255 Cremazie Blvd O, Montr\u00e9al QC H2N 1L8",
                        "locality": "Montreal",
                        "postcode": "H2N 1L8",
                        "region": "QC"
                  },
                  "name": "Harvey's",
                  "popularity": 0.9109576078728236,
                  "price": 2,
                  "rating": 6.1,
                  "store_id": "2263"
            },
            {
                  "distance": 543,
                  "location": {
                        "address": "9485 St Laurent Blvd",
                        "country": "CA",
                        "cross_street": "Chabanel West",
                        "formatted_address": "9485 St Laurent Blvd (Chabanel West), Montr\u00e9al QC H2N 1P6",
                        "locality": "Montreal",
                        "postcode": "H2N 1P6",
                        "region": "QC"
                  },
                  "name": "Tim Hortons",
                  "popularity": 0.9955880961392884,
                  "price": 1,
                  "rating": 5.7
            },
            {
                  "distance": 715,
                  "location": {
                        "address": "115 Cremazie Blvd O",
                        "country": "CA",
                        "cross_street": "entre St-Urbain & De Reims",
                        "formatted_address": "115 Cremazie Blvd O (entre St-Urbain & De Reims), Montr\u00e9al QC H2N 1L4",
                        "locality": "Montreal",
                        "postcode": "H2N 1L4",
                        "region": "QC"
                  },
                  "name": "Tim Hortons",
                  "popularity": 0.9939203255109765,
                  "price": 1,
                  "rating": 5.1
            },
            {
                  "distance": 294,
                  "location": {
                        "address": "9100 Lajeunesse Rue",
                        "country": "CA",
                        "cross_street": "Legendre",
                        "formatted_address": "9100 Lajeunesse Rue (Legendre), Montr\u00e9al QC",
                        "locality": "Montreal",
                        "region": "QC"
                  },
                  "name": "Ono Sushi",
                  "popularity": 0.9068295798637396,
                  "price": 2
            },
            {
                  "distance": 365,
                  "location": {
                        "address": "8899 Berri Rue",
                        "country": "CA",
                        "cross_street": "",
                        "formatted_address": "8899 Berri Rue, Montr\u00e9al QC H2M 1P5",
                        "locality": "Montreal",
                        "postcode": "H2M 1P5",
                        "region": "QC"
                  },
                  "name": "Tasty",
                  "popularity": 0.9246309613928841,
                  "price": 1
            },
            {
                  "distance": 580,
                  "location": {
                        "address": "8762 Lajeunesse Rue",
                        "country": "CA",
                        "formatted_address": "8762 Lajeunesse Rue, Montr\u00e9al QC H2M 1R6",
                        "locality": "Montreal",
                        "postcode": "H2M 1R6",
                        "region": "QC"
                  },
                  "name": "Restaurant Da Remo",
                  "popularity": 0.14357021196063588
            },
            {
                  "distance": 610,
                  "location": {
                        "address": "769 Legendre Rue E",
                        "country": "CA",
                        "cross_street": "Rue Saint-Hubert",
                        "formatted_address": "769 Legendre Rue E (Rue Saint-Hubert), Montr\u00e9al QC H2M 1H1",
                        "locality": "Montreal",
                        "postcode": "H2M 1H1",
                        "region": "QC"
                  },
                  "name": "Casa Cr\u00e9ole Inc",
                  "popularity": 0.3330336866010598,
                  "price": 2
            },
            {
                  "distance": 634,
                  "location": {
                        "address": "795 Legendre Rue E",
                        "country": "CA",
                        "cross_street": "",
                        "formatted_address": "795 Legendre Rue E, Montr\u00e9al QC H2M 1H1",
                        "locality": "Montreal",
                        "postcode": "H2M 1H1",
                        "region": "QC"
                  },
                  "name": "Boulangerie P\u00e2tisserie C Chaud",
                  "popularity": 0.1991625662376987,
                  "price": 2
            },
            {
                  "distance": 689,
                  "location": {
                        "address": "352 Cure-Labelle Blvd",
                        "country": "CA",
                        "cross_street": "",
                        "formatted_address": "352 Cure-Labelle Blvd, Laval QC H7V 2S1",
                        "locality": "Laval",
                        "postcode": "H7V 2S1",
                        "region": "QC"
                  },
                  "name": "Marouch",
                  "popularity": 0.9162566237698713,
                  "price": 2
            },
            {
                  "distance": 832,
                  "location": {
                        "address": "9705 Saint-Laurent Blvd",
                        "country": "CA",
                        "cross_street": "Boulevard Saint-Laurent",
                        "formatted_address": "9705 Saint-Laurent Blvd (Boulevard Saint-Laurent), Montr\u00e9al QC H3L 2N4",
                        "locality": "Montreal",
                        "postcode": "H3L 2N4",
                        "region": "QC"
                  },
                  "name": "Domino's Pizza",
                  "popularity": 0.9154759651778955,
                  "price": 1
            },
            {
                  "distance": 856,
                  "location": {
                        "address": "8551 Saint-Laurent Blvd",
                        "country": "CA",
                        "cross_street": "",
                        "formatted_address": "8551 Saint-Laurent Blvd, Montreal QC H2P 2M9",
                        "locality": "Montreal",
                        "postcode": "H2P 2M9",
                        "region": "QC"
                  },
                  "name": "Restaurant la Goelette",
                  "popularity": 0.11648372445117336,
                  "price": 2
            },
            {
                  "distance": 864,
                  "location": {
                        "address": "8567 Saint-Laurent Blvd",
                        "country": "CA",
                        "cross_street": "",
                        "formatted_address": "8567 Saint-Laurent Blvd, Montr\u00e9al QC H2P 2M9",
                        "locality": "Montreal",
                        "postcode": "H2P 2M9",
                        "region": "QC"
                  },
                  "name": "Pho Saigon 27",
                  "popularity": 0.42647615442846326,
                  "price": 2
            },
            {
                  "distance": 889,
                  "location": {
                        "address": "304 Chabanel Rue O",
                        "country": "CA",
                        "cross_street": "",
                        "formatted_address": "304 Chabanel Rue O, Montreal QC H2N 1G5",
                        "locality": "Montreal",
                        "postcode": "H2N 1G5",
                        "region": "QC"
                  },
                  "name": "Thai City",
                  "popularity": 0.526435938682816,
                  "price": 2
            },
            {
                  "distance": 892,
                  "location": {
                        "address": "8519 Saint-Laurent Blvd",
                        "country": "CA",
                        "cross_street": "Rue de Li\u00e8ge Est",
                        "formatted_address": "8519 Saint-Laurent Blvd (Rue de Li\u00e8ge Est), Montr\u00e9al QC H2P 2M9",
                        "locality": "Montreal",
                        "postcode": "H2P 2M9",
                        "region": "QC"
                  },
                  "name": "Sushi Saumon",
                  "popularity": 0.8595169379258137,
                  "price": 2
            },
            {
                  "distance": 292,
                  "location": {
                        "address": "410 Chabanel Rue O",
                        "country": "CA",
                        "formatted_address": "410 Chabanel Rue O, Montreal QC H2N 1G7",
                        "locality": "Montreal",
                        "postcode": "H2N 1G7",
                        "region": "QC"
                  },
                  "name": "Fashion Bistro"
            },
            {
                  "distance": 310,
                  "location": {
                        "address": "8998 Lajeunesse Rue",
                        "country": "CA",
                        "formatted_address": "8998 Lajeunesse Rue, Montreal QC H2M 1R9",
                        "locality": "Montreal",
                        "postcode": "H2M 1R9",
                        "region": "QC"
                  },
                  "name": "Resto Bar Don Mario"
            },
            {
                  "distance": 314,
                  "location": {
                        "address": "9183 Lajeunesse Rue",
                        "country": "CA",
                        "formatted_address": "9183 Lajeunesse Rue, Montreal QC H2M 1S3",
                        "locality": "Montreal",
                        "postcode": "H2M 1S3",
                        "region": "QC"
                  },
                  "name": "Bistro Lajeunesse Inc"
            },
            {
                  "distance": 396,
                  "location": {
                        "address": "8899 Saint-Laurent Blvd",
                        "country": "CA",
                        "formatted_address": "8899 Saint-Laurent Blvd, Montreal QC H2N 1M2",
                        "locality": "Montreal",
                        "postcode": "H2N 1M2",
                        "region": "QC"
                  },
                  "name": "Resto Bar Beauharnois"
            },
            {
                  "distance": 521,
                  "location": {
                        "address": "8780 Saint-Laurent Blvd",
                        "country": "CA",
                        "formatted_address": "8780 Saint-Laurent Blvd, Montreal QC H2N 1M4",
                        "locality": "Montreal",
                        "postcode": "H2N 1M4",
                        "region": "QC"
                  },
                  "name": "Restaurant Baccha"
            },
            {
                  "distance": 540,
                  "location": {
                        "address": "8780 Saint-Laurent Blvd",
                        "country": "CA",
                        "formatted_address": "8780 Saint-Laurent Blvd, Montreal QC",
                        "locality": "Montreal",
                        "region": "QC"
                  },
                  "name": "Thai Express - Cr\u00e9mazie"
            },
            {
                  "distance": 661,
                  "location": {
                        "address": "111 Chabanel St O W",
                        "address_extended": "Suite 101",
                        "country": "CA",
                        "formatted_address": "111 Chabanel St O W, Montreal QC H2N 1C9",
                        "locality": "Montreal",
                        "postcode": "H2N 1C9",
                        "region": "QC"
                  },
                  "name": "Coats Bell Inc"
            },
            {
                  "distance": 701,
                  "location": {
                        "address": "190 Chabanel Rue W",
                        "country": "CA",
                        "formatted_address": "190 Chabanel Rue W, Montreal QC H2N 1G1",
                        "locality": "Montreal",
                        "postcode": "H2N 1G1",
                        "region": "QC"
                  },
                  "name": "Cafe Restaurant Savana's"
            },
            {
                  "distance": 701,
                  "location": {
                        "address": "190 Chabanel Rue O",
                        "country": "CA",
                        "formatted_address": "190 Chabanel Rue O, Montreal QC H2N 1G1",
                        "locality": "Montreal",
                        "postcode": "H2N 1G1",
                        "region": "QC"
                  },
                  "name": "Restaurant Est West"
            }
      ],
      "context": {
            "geo_bounds": {
                  "circle": {
                        "center": {
                              "latitude": 45.54603559,
                              "longitude": -73.64659846
                        },
                        "radius": 1000
                  }
            }
      }
}