{
      "results": [
            {
                  "distance": 729,
                  "location": {
                        "address": "1431 Saint-Laurent Blvd",
                        "country": "CA",
                        "cross_street": "entre De Maisonneuve & Ste-Catherine",
                        "formatted_address": "1431 Saint-Laurent Blvd (entre De Maisonneuve & Ste-Catherine), Montr\u00e9al QC H2X 2S8",
                        "locality": "Montreal",
                        "postcode": "H2X 2S8",
                        "region": "QC"
                  },
                  "name": "Cadet",
                  "popularity": 0.9538465177895533,
                  "price": 2,
                  "rating": 9.4
            },
            {
                  "distance": 653,
                  "location": {
                        "address": "1595 Saint-Laurent Blvd",
                        "country": "CA",
                        "cross_street": "entre De Maisonneuve & Ontario",
                        "formatted_address": "1595 Saint-Laurent Blvd (entre De Maisonneuve & Ontario), Montr\u00e9al QC H2X 2S9",
                        "locality": "Montreal",
                        "postcode": "H2X 2S9",
                        "region": "QC"
                  },
                  "name": "Bouillon Bilk",
                  "popularity": 0.962682153671461,
                  "price": 3,
                  "rating": 9.3
            },
            {
                  "distance": 757,
                  "location": {
                        "address": "705 Sainte-Catherine Rue O",
                        "country": "CA",
                        "cross_street": "",
                        "formatted_address": "705 Sainte-Catherine Rue O, Montr\u00e9al QC H3B 4G5",
                        "locality": "Montreal",
                        "postcode": "H3B 4G5",
                        "region": "QC"
                  },
                  "name": "Time Out Market Montr\u00e9al",
                  "popularity": 0.9987107305071915,
                  "price": 2,
                  "rating": 9.1
            },
            {
                  "distance": 994,
                  "location": {
                        "address": "1067 Rue de Bleury",
                        "country": "CA",
                        "cross_street": "De la Gaucheti\u00e8re",
                        "formatted_address": "1067 Rue de Bleury (De la Gaucheti\u00e8re), Montr\u00e9al QC H2Z 1N1",
                        "locality": "Montreal",
                        "postcode": "H2Z 1N1",
                        "region": "QC"
                  },
                  "name": "La Finca caf\u00e9 & bureau",
                  "popularity": 0.9523798258894777,
                  "price": 1,
                  "rating": 9.1
            },
            {
                  "distance": 473,
                  "location": {
                        "address": "19 Prince-Arthur Rue O",
                        "country": "CA",
                        "cross_street": "entre St-Laurent & Clark",
                        "formatted_address": "19 Prince-Arthur Rue O (entre St-Laurent & Clark), Montr\u00e9al QC H2X 1S4",
                        "locality": "Montreal",
                        "postcode": "H2X 1S4",
                        "region": "QC"
                  },
                  "name": "Caf\u00e9 Nocturne",
                  "popularity": 0.9314912944738835,
                  "price": 1,
                  "rating": 9.0
            },
            {
                  "distance": 989,
                  "location": {
                        "address": "1106B Saint Laurent Blvd",
                        "country": "CA",
                        "cross_street": "coin Ren\u00e9-L\u00e9vesque",
                        "formatted_address": "1106B Saint Laurent Blvd (coin Ren\u00e9-L\u00e9vesque), Montr\u00e9al QC H2Z 1J5",
                        "locality": "Montreal",
                        "postcode": "H2Z 1J5",
                        "region": "QC"
                  },
                  "name": "Bar le Mal N\u00e9cessaire",
                  "popularity": 0.9491152535957608,
                  "price": 3,
                  "rating": 9.0
            },
            {
                  "distance": 870,
                  "location": {
                        "address": "3990 Saint-Urbain Rue",
                        "country": "CA",
                        "cross_street": "coin Duluth",
                        "formatted_address": "3990 Saint-Urbain Rue (coin Duluth), Montr\u00e9al QC H2W 1T7",
                        "locality": "Montreal",
                        "postcode": "H2W 1T7",
                        "region": "QC"
                  },
                  "name": "Caf\u00e9 Santropol",
                  "popularity": 0.9517529333838002,
                  "price": 2,
                  "rating": 8.9
            },
            {
                  "distance": 945,
                  "location": {
                        "address": "4021 Saint-Laurent Blvd",
                        "country": "CA",
                        "cross_street": "coin Duluth",
                        "formatted_address": "4021 Saint-Laurent Blvd (coin Duluth), Montr\u00e9al QC H2W 1Y4",
                        "locality": "Montreal",
                        "postcode": "H2W 1Y4",
                        "region": "QC"
                  },
                  "name": "Dispatch Coffee",
                  "popularity": 0.9505346328538986,
                  "price": 1,
                  "rating": 8.9
            },
            {
                  "distance": 821,
                  "location": {
                        "address": "3901A Saint-Laurent Blvd",
                        "country": "CA",
                        "cross_street": "entre St-Cuthbert & Napol\u00e9on",
                        "formatted_address": "3901A Saint-Laurent Blvd (entre St-Cuthbert & Napol\u00e9on), Montr\u00e9al QC H2W 1X9",
                        "locality": "Montreal",
                        "postcode": "H2W 1X9",
                        "region": "QC"
                  },
                  "name": "Schwartz's Montreal Hebrew Delicatessen (Schwartz's Charcuterie H\u00e9bra\u00efque de Montr\u00e9al)",
                  "popularity": 0.989804125662377,
                  "price": 2,
                  "rating": 8.7
            },
            {
                  "distance": 673,
                  "location": {
                        "address": "1250 Rue de Bleury",
                        "country": "CA",
                        "cross_street": "at Sainte-Catherine",
                        "formatted_address": "1250 Rue de Bleury (at Sainte-Catherine), Montr\u00e9al QC H3B 2W4",
                        "locality": "Montreal",
                        "postcode": "H3B 2W4",
                        "region": "QC"
                  },
                  "name": "Nyks Bistro Pub",
                  "popularity": 0.9770888531415595,
                  "price": 2,
                  "rating": 8.6
            },
            {
                  "distance": 943,
                  "location": {
                        "address": "301 Emery Rue",
                        "country": "CA",
                        "cross_street": "entre St-Denis & Sanguinet",
                        "formatted_address": "301 Emery Rue (entre St-Denis & Sanguinet), Montr\u00e9al QC H2X 1J2",
                        "locality": "Montreal",
                        "postcode": "H2X 1J2",
                        "region": "QC"
                  },
                  "name": "Caf\u00e9 Saint-Henri Quartier Latin",
                  "popularity": 0.9289718962906889,
                  "price": 1,
                  "rating": 8.6
            },
            {
                  "distance": 964,
                  "location": {
                        "address": "9 Duluth Ave E",
                        "country": "CA",
                        "cross_street": "entre St-Laurent & St-Dominique",
                        "formatted_address": "9 Duluth Ave E (entre St-Laurent & St-Dominique), Montr\u00e9al QC H2W 1G7",
                        "locality": "Montreal",
                        "postcode": "H2W 1G7",
                        "region": "QC"
                  },
                  "name": "R\u00e9servoir",
                  "popularity": 0.9331708932626798,
                  "price": 1,
                  "rating": 8.5
            },
            {
                  "distance": 838,
                  "location": {
                        "address": "156 Roy Rue E",
                        "country": "CA",
                        "cross_street": "coin De Bullion",
                        "formatted_address": "156 Roy Rue E (coin De Bullion), Montr\u00e9al QC H2W 1M2",
                        "locality": "Montreal",
                        "postcode": "H2W 1M2",
                        "region": "QC"
                  },
                  "name": "Else's",
                  "popularity": 0.9207868092354277,
                  "price": 2,
                  "rating": 8.4
            },
            {
                  "distance": 506,
                  "location": {
                        "address": "3600 Saint-Laurent Blvd",
                        "address_extended": "coin Prince-Arthur",
                        "country": "CA",
                        "cross_street": "coin Prince-Arthur",
                        "formatted_address": "3600 Saint-Laurent Blvd (coin Prince-Arthur), Montr\u00e9al QC H2X 2V4",
                        "locality": "Montreal",
                        "postcode": "H2X 2V4",
                        "region": "QC"
                  },
                  "name": "Juliette et Chocolat",
                  "popularity": 0.971304882664648,
                  "price": 2,
                  "rating": 8.2
            },
            {
                  "distance": 409,
                  "location": {
                        "address": "51 Sherbrooke Rue O",
                        "country": "CA",
                        "cross_street": "coin Clark",
                        "formatted_address": "51 Sherbrooke Rue O (coin Clark), Montr\u00e9al QC H2X 1X2",
                        "locality": "Montreal",
                        "postcode": "H2X 1X2",
                        "region": "QC"
                  },
                  "name": "Caf\u00e9 OSMO",
                  "popularity": 0.9720027441332324,
                  "price": 1,
                  "rating": 8.2
            },
            {
                  "distance": 226,
                  "location": {
                        "address": "245 Sherbrooke Rue O",
                        "country": "CA",
                        "cross_street": "coin Jeanne-Mance",
                        "formatted_address": "245 Sherbrooke Rue O (coin Jeanne-Mance), Montr\u00e9al QC H2X 1X7",
                        "locality": "Montreal",
                        "postcode": "H2X 1X7",
                        "region": "QC"
                  },
                  "name": "Benelux",
                  "popularity": 0.9719790878122634,
                  "price": 1,
                  "rating": 8.2
            },
            {
                  "distance": 689,
                  "location": {
                        "address": "150 St Catherine Rue W",
                        "address_extended": "Room 201C",
                        "country": "CA",
                        "cross_street": "",
                        "formatted_address": "150 St Catherine Rue W, Montr\u00e9al QC H2X 3Y2",
                        "locality": "Montreal",
                        "postcode": "H2X 3Y2",
                        "region": "QC"
                  },
                  "name": "La Cage",
                  "popularity": 0.9884202308856926,
                  "price": 2,
                  "rating": 8.2,
                  "store_id": "LC_08"
            },
            {
                  "distance": 486,
                  "location": {
                        "address": "3515 Saint-Laurent Blvd",
                        "country": "CA",
                        "cross_street": "entre Sherbrooke & Prince-Arthur",
                        "formatted_address": "3515 Saint-Laurent Blvd (entre Sherbrooke & Prince-Arthur), Montr\u00e9al QC H2X 2T6",
                        "locality": "Montreal",
                        "postcode": "H2X 2T6",
                        "region": "QC"
                  },
                  "name": "McKibbin's Irish Pub",
                  "popularity": 0.9739189061317184,
                  "price": 2,
                  "rating": 8.2
            },
            {
                  "distance": 967,
                  "location": {
                        "address": "20 Duluth Ave E",
                        "country": "CA",
                        "cross_street": "entre St-Laurent & St-Dominique",
                        "formatted_address": "20 Duluth Ave E (entre St-Laurent & St-Dominique), Montr\u00e9al QC H2W 1G6",
                        "locality": "Montreal",
                        "postcode": "H2W 1G6",
                        "region": "QC"
                  },
                  "name": "Bar Suzanne",
                  "popularity": 0.9205620741862226,
                  "price": 2,
                  "rating": 8.1
            },
            {
                  "distance": 652,
                  "location": {
                        "address": "1579 Saint-Laurent Blvd",
                        "country": "CA",
                        "cross_street": "",
                        "formatted_address": "1579 Saint-Laurent Blvd, Montr\u00e9al QC H2X 2S9",
                        "locality": "Montreal",
                        "postcode": "H2X 2S9",
                        "region": "QC"
                  },
                  "name": "Bar Pamplemousse",
                  "popularity": 0.9600563020439061,
                  "rating": 8.1
            },
            {
                  "distance": 817,
                  "location": {
                        "address": "1250 Robert-Bourassa Blvd",
                        "country": "CA",
                        "cross_street": "",
                        "formatted_address": "1250 Robert-Bourassa Blvd, Montr\u00e9al QC H3B 3B8",
                        "locality": "Montreal",
                        "postcode": "H3B 3B8",
                        "region": "QC"
                  },
                  "name": "Le East",
                  "popularity": 0.9653316616199848,
                  "price": 2,
                  "rating": 8.1
            },
            {
                  "distance": 908,
                  "location": {
                        "address": "1080 Rue de Bleury",
                        "country": "CA",
                        "cross_street": "",
                        "formatted_address": "1080 Rue de Bleury, Montr\u00e9al QC H2Z 1N2",
                        "locality": "Montreal",
                        "postcode": "H2Z 1N2",
                        "region": "QC"
                  },
                  "name": "Chifa",
                  "popularity": 0.9603165215745647,
                  "price": 2,
                  "rating": 8.0
            },
            {
                  "distance": 830,
                  "location": {
                        "address": "732 Sainte-Catherine Rue O",
                        "country": "CA",
                        "cross_street": "McGill Av.",
                        "formatted_address": "732 Sainte-Catherine Rue O (McGill Av.), Montr\u00e9al QC H3B 1B9",
                        "locality": "Montreal",
                        "postcode": "H3B 1B9",
                        "region": "QC"
                  },
                  "name": "Les 3 Brasseurs",
                  "popularity": 0.9831566994700984,
                  "price": 2,
                  "rating": 8.0
            },
            {
                  "distance": 988,
                  "location": {
                        "address": "2049 Saint-Denis Rue",
                        "country": "CA",
                        "cross_street": "entre Ontario & Sherbrooke",
                        "formatted_address": "2049 Saint-Denis Rue (entre Ontario & Sherbrooke), Montr\u00e9al QC H2X 3K8",
                        "locality": "Montreal",
                        "postcode": "H2X 3K8",
                        "region": "QC"
                  },
                  "name": "Brasserie Artisanale l'Am\u00e8re a Boire Inc",
                  "popularity": 0.9146479939439819,
                  "price": 2,
                  "rating": 7.9
            },
            {
                  "distance": 1007,
                  "location": {
                        "address": "1710 Saint-Denis Rue",
                        "country": "CA",
                        "cross_street": "entre Ontario et Emery",
                        "formatted_address": "1710 Saint-Denis Rue (entre Ontario et Emery), Montr\u00e9al QC H2X 3K6",
                        "locality": "Montreal",
                        "postcode": "H2X 3K6",
                        "region": "QC"
                  },
                  "name": "Frite Alors",
                  "popularity": 0.9397473504920515,
                  "price": 2,
                  "rating": 7.8
            },
            {
                  "distance": 475,
                  "location": {
                        "address": "20 Prince-Arthur Rue O",
                        "country": "CA",
                        "cross_street": "coin Saint-Laurent",
                        "formatted_address": "20 Prince-Arthur Rue O (coin Saint-Laurent), Montr\u00e9al QC H2X 1S3",
                        "locality": "Montreal",
                        "postcode": "H2X 1S3",
                        "region": "QC"
                  },
                  "name": "Ye Olde Orchard Pub & Grill",
                  "popularity": 0.9363171839515518,
                  "price": 2,
                  "rating": 7.8
            },
            {
                  "distance": 854,
                  "location": {
                        "address": "3908 Saint-Laurent Blvd",
                        "country": "CA",
                        "cross_street": "",
                        "formatted_address": "3908 Saint-Laurent Blvd, Montr\u00e9al QC H2W 1Y2",
                        "locality": "Montreal",
                        "postcode": "H2W 1Y2",
                        "region": "QC"
                  },
                  "name": "North Star Machines \u00e0 Piastres",
                  "popularity": 0.9947719530658592,
                  "price": 2,
                  "rating": 7.8
            },
            {
                  "distance": 149,
                  "location": {
                        "address": "224 Milton Rue",
                        "country": "CA",
                        "cross_street": "",
                        "formatted_address": "224 Milton Rue, Montr\u00e9al QC H2X 1V6",
                        "locality": "Montreal",
                        "postcode": "H2X 1V6",
                        "region": "QC"
                  },
                  "name": "Mae Sri Comptoir Thai",
                  "popularity": 0.9586132664647994,
                  "price": 2,
                  "rating": 7.7
            },
            {
                  "distance": 952,
                  "location": {
                        "address": "1 Ville-Marie Pl",
                        "country": "CA",
                        "cross_street": "Robert-Bourassa",
                        "formatted_address": "1 Ville-Marie Pl (Robert-Bourassa), Montr\u00e9al QC H3B 2C4",
                        "locality": "Montreal",
                        "postcode": "H3B 2C4",
                        "region": "QC"
                  },
                  "name": "Les Enfants Terribles",
                  "popularity": 0.9822814155942468,
                  "price": 3,
                  "rating": 7.7
            },
            {
                  "distance": 1002,
                  "location": {
                        "address": "1249 Metcalfe Rue",
                        "country": "CA",
                        "cross_street": "entre Sainte-Catherine Ouest et Square Dorchester",
                        "formatted_address": "1249 Metcalfe Rue (entre Sainte-Catherine Ouest et Square Dorchester), Montr\u00e9al QC H3B 2V5",
                        "locality": "Montreal",
                        "postcode": "H3B 2V5",
                        "region": "QC"
                  },
                  "name": "Dunn's Famous",
                  "popularity": 0.9749716124148372,
                  "price": 2,
                  "rating": 7.6
            },
            {
                  "distance": 875,
                  "location": {
                        "address": "1251 McGill College Ave",
                        "country": "CA",
                        "cross_street": "Rue Sainte-Catherine O",
                        "formatted_address": "1251 McGill College Ave (Rue Sainte-Catherine O), Montr\u00e9al QC H3B 2Y4",
                        "locality": "Montreal",
                        "postcode": "H3B 2Y4",
                        "region": "QC"
                  },
                  "name": "Enoteca Monza Pizzeria Moderna",
                  "popularity": 0.9676736373959122,
                  "price": 2,
                  "rating": 7.5
            },
            {
                  "distance": 1001,
                  "location": {
                        "address": "1111 Saint-Urbain Rue",
                        "address_extended": "M05",
                        "country": "CA",
                        "cross_street": "coin Ren\u00e9-Levesque",
                        "formatted_address": "1111 Saint-Urbain Rue (coin Ren\u00e9-Levesque), Montr\u00e9al QC H2Z 1Y6",
                        "locality": "Montreal",
                        "postcode": "H2Z 1Y6",
                        "region": "QC"
                  },
                  "name": "Maison Kam Fung",
                  "popularity": 0.9822695874337622,
                  "price": 2,
                  "rating": 7.5
            },
            {
                  "distance": 697,
                  "location": {
                        "address": "93 St Catherine Rue O",
                        "country": "CA",
                        "cross_street": "",
                        "formatted_address": "93 St Catherine Rue O, Montr\u00e9al QC H2X 1Z7",
                        "locality": "Montreal",
                        "postcode": "H2X 1Z7",
                        "region": "QC"
                  },
                  "name": "Tim Hortons",
                  "popularity": 0.980542676003028,
                  "price": 1,
                  "rating": 7.5
            },
            {
                  "distance": 13,
                  "location": {
                        "address": "3498 Ave du Parc",
                        "country": "CA",
                        "cross_street": "Milton Street",
                        "formatted_address": "3498 Ave du Parc (Milton Street), Montr\u00e9al QC H2X 2H5",
                        "locality": "Montreal",
                        "postcode": "H2X 2H5",
                        "region": "QC"
                  },
                  "name": "Milton B",
                  "popularity": 0.9634864685844058,
                  "price": 1,
                  "rating": 7.4
            },
            {
                  "distance": 496,
                  "location": {
                        "address": "3481 Saint-Laurent Blvd",
                        "country": "CA",
                        "cross_street": "",
                        "formatted_address": "3481 Saint-Laurent Blvd, Montr\u00e9al QC H2X 2T6",
                        "locality": "Montreal",
                        "postcode": "H2X 2T6",
                        "region": "QC"
                  },
                  "name": "Bootlegger, l'Authentique",
                  "popularity": 0.9536099545798638,
                  "price": 3,
                  "rating": 7.2
            }
      ],
      "context": {
            "geo_bounds": {
                  "circle": {
                        "center": {
                              "latitude": 45.50936143,
                              "longitude": -73.57386366
                        },
                        "radius": 1000
                  }
            }
      }
}