{
      "results": [
            {
                  "distance": 819,
                  "location": {
                        "address": "5411 rue de Verdun",
                        "country": "CA",
                        "cross_street": "coin Argyle",
                        "formatted_address": "5411 rue de Verdun (coin Argyle), Verdun QC H4H 1K6",
                        "locality": "Verdun",
                        "postcode": "H4H 1K6",
                        "region": "QC"
                  },
                  "name": "Bagel St-Lo",
                  "popularity": 0.9861965367146102,
                  "price": 1,
                  "rating": 8.9
            },
            {
                  "distance": 994,
                  "location": {
                        "address": "6588 Monk Blvd",
                        "country": "CA",
                        "cross_street": "",
                        "formatted_address": "6588 Monk Blvd, Montr\u00e9al QC H4E 3J1",
                        "locality": "Montreal",
                        "postcode": "H4E 3J1",
                        "region": "QC"
                  },
                  "name": "Restaurant Pizza Nino",
                  "popularity": 0.9347795230885693,
                  "price": 4,
                  "rating": 7.9
            },
            {
                  "distance": 862,
                  "location": {
                        "address": "5561 Rue de Verdun",
                        "country": "CA",
                        "cross_street": "Egan",
                        "formatted_address": "5561 Rue de Verdun (Egan), Verdun QC H4H 1L2",
                        "locality": "Verdun",
                        "postcode": "H4H 1L2",
                        "region": "QC"
                  },
                  "name": "Restaurant Bingo Regd",
                  "popularity": 0.9477313588190764,
                  "price": 1,
                  "rating": 7.3
            },
            {
                  "distance": 814,
                  "location": {
                        "address": "4702 Rue de Verdun",
                        "country": "CA",
                        "cross_street": "2e Av.",
                        "formatted_address": "4702 Rue de Verdun (2e Av.), Verdun QC H4G 1M8",
                        "locality": "Verdun",
                        "postcode": "H4G 1M8",
                        "region": "QC"
                  },
                  "name": "Mory's Original Pizza",
                  "popularity": 0.9097393073429221,
                  "price": 1,
                  "rating": 6.8
            },
            {
                  "distance": 839,
                  "location": {
                        "address": "4650 Rue de Verdun",
                        "country": "CA",
                        "cross_street": "2\u00e8me Avenue",
                        "formatted_address": "4650 Rue de Verdun (2\u00e8me Avenue), Verdun QC H4G 1M5",
                        "locality": "Verdun",
                        "postcode": "H4G 1M5",
                        "region": "QC"
                  },
                  "name": "Subway",
                  "popularity": 0.9555142884178652,
                  "price": 1,
                  "rating": 6.7,
                  "store_id": "52918"
            },
            {
                  "distance": 789,
                  "location": {
                        "address": "4801 Rue de Verdun",
                        "country": "CA",
                        "cross_street": "3ieme Avenue",
                        "formatted_address": "4801 Rue de Verdun (3ieme Avenue), Montr\u00e9al QC H4G 1N2",
                        "locality": "Montreal",
                        "postcode": "H4G 1N2",
                        "region": "QC"
                  },
                  "name": "Palais d'Ajit",
                  "popularity": 0.9808738644965935,
                  "price": 2,
                  "rating": 6.6
            },
            {
                  "distance": 788,
                  "location": {
                        "address": "4804 Verdun St",
                        "country": "CA",
                        "cross_street": "3rd Avenue",
                        "formatted_address": "4804 Verdun St (3rd Avenue), Verdun QC H4G 1N1",
                        "locality": "Verdun",
                        "postcode": "H4G 1N1",
                        "region": "QC"
                  },
                  "name": "Sushi Taiyo",
                  "popularity": 0.3622137585162756,
                  "price": 2
            },
            {
                  "distance": 805,
                  "location": {
                        "address": "5300 rue de Verdun",
                        "country": "CA",
                        "cross_street": "rue Melrose",
                        "formatted_address": "5300 rue de Verdun (rue Melrose), Verdun QC H4H 1K4",
                        "locality": "Verdun",
                        "postcode": "H4H 1K4",
                        "region": "QC"
                  },
                  "name": "Le Roi du Hot Dog",
                  "popularity": 0.982139477668433,
                  "price": 1
            },
            {
                  "distance": 839,
                  "location": {
                        "address": "5590 Laurendeau Rue",
                        "country": "CA",
                        "cross_street": "Le Caron",
                        "formatted_address": "5590 Laurendeau Rue (Le Caron), Montr\u00e9al QC H4E 3W3",
                        "locality": "Montreal",
                        "postcode": "H4E 3W3",
                        "region": "QC"
                  },
                  "name": "Yo & Co Espresso Bar",
                  "popularity": 0.9572293716881151,
                  "price": 1
            },
            {
                  "distance": 914,
                  "location": {
                        "address": "5523 Laurendeau Rue",
                        "country": "CA",
                        "cross_street": "",
                        "formatted_address": "5523 Laurendeau Rue, Montreal QC H4E 3V9",
                        "locality": "Montreal",
                        "postcode": "H4E 3V9",
                        "region": "QC"
                  },
                  "name": "Bar Laitier Annick",
                  "popularity": 0.7811790310370931,
                  "price": 1
            },
            {
                  "distance": 982,
                  "location": {
                        "address": "6556 Monk Blvd",
                        "country": "CA",
                        "cross_street": "Springland",
                        "formatted_address": "6556 Monk Blvd (Springland), Montr\u00e9al QC H4E 3J1",
                        "locality": "Montreal",
                        "postcode": "H4E 3J1",
                        "region": "QC"
                  },
                  "name": "Ville-\u00c9mard Bagels",
                  "popularity": 0.8834689629068887,
                  "price": 1
            },
            {
                  "distance": 1003,
                  "location": {
                        "address": "6688 Monk Blvd",
                        "country": "CA",
                        "cross_street": "Boul allard",
                        "formatted_address": "6688 Monk Blvd (Boul allard), Montr\u00e9al QC H4E 3J1",
                        "locality": "Montreal",
                        "postcode": "H4E 3J1",
                        "region": "QC"
                  },
                  "name": "Sports Rock Cafe",
                  "popularity": 0.9659230696442089
            },
            {
                  "distance": 422,
                  "location": {
                        "address": "5077 Bannantyne Rue",
                        "country": "CA",
                        "formatted_address": "5077 Bannantyne Rue, Verdun QC H4G 1G2",
                        "locality": "Verdun",
                        "postcode": "H4G 1G2",
                        "region": "QC"
                  },
                  "name": "Terrasse Chez Laurette"
            },
            {
                  "distance": 765,
                  "location": {
                        "address": "5001 Rue de Verdun",
                        "country": "CA",
                        "formatted_address": "5001 Rue de Verdun, Verdun QC H4G 1N5",
                        "locality": "Verdun",
                        "postcode": "H4G 1N5",
                        "region": "QC"
                  },
                  "name": "New Verdun Restaurant"
            },
            {
                  "distance": 781,
                  "location": {
                        "address": "4804 Rue de Verdun",
                        "country": "CA",
                        "formatted_address": "4804 Rue de Verdun, Verdun QC H4G 1N1",
                        "locality": "Verdun",
                        "postcode": "H4G 1N1",
                        "region": "QC"
                  },
                  "name": "Sushi Taiyo"
            },
            {
                  "distance": 809,
                  "location": {
                        "address": "4830 rue de Verdun",
                        "country": "CA",
                        "formatted_address": "4830 rue de Verdun, Verdun QC H4G 1N1",
                        "locality": "Verdun",
                        "postcode": "H4G 1N1",
                        "region": "QC"
                  },
                  "name": "Bienvenue Chez Fusion"
            },
            {
                  "distance": 818,
                  "location": {
                        "address": "4609 rue de Verdun",
                        "country": "CA",
                        "formatted_address": "4609 rue de Verdun, Verdun QC H4G 1M6",
                        "locality": "Verdun",
                        "postcode": "H4G 1M6",
                        "region": "QC"
                  },
                  "name": "Luciano Salon Rouge Restorante"
            },
            {
                  "distance": 823,
                  "location": {
                        "address": "5300 rue de Verdun",
                        "country": "CA",
                        "formatted_address": "5300 rue de Verdun, Verdun QC H4H 1K4",
                        "locality": "Verdun",
                        "postcode": "H4H 1K4",
                        "region": "QC"
                  },
                  "name": "Les Cremerie Dairy King Ltee"
            },
            {
                  "distance": 831,
                  "location": {
                        "address": "1408 Ave de l Eglise",
                        "country": "CA",
                        "formatted_address": "1408 Ave de l Eglise, Montreal QC H4E 1G2",
                        "locality": "Montreal",
                        "postcode": "H4E 1G2",
                        "region": "QC"
                  },
                  "name": "Restaurant Il Boccalini"
            },
            {
                  "distance": 842,
                  "location": {
                        "address": "5511 rue de Verdun",
                        "country": "CA",
                        "formatted_address": "5511 rue de Verdun, Verdun QC H4H 1K9",
                        "locality": "Verdun",
                        "postcode": "H4H 1K9",
                        "region": "QC"
                  },
                  "name": "Restaurant Napolitana"
            },
            {
                  "distance": 842,
                  "location": {
                        "address": "5511 rue de Verdun",
                        "country": "CA",
                        "formatted_address": "5511 rue de Verdun, Verdun QC H4H 1K9",
                        "locality": "Verdun",
                        "postcode": "H4H 1K9",
                        "region": "QC"
                  },
                  "name": "Cafe Benetictins"
            },
            {
                  "distance": 847,
                  "location": {
                        "address": "4609 rue de Verdun",
                        "country": "CA",
                        "formatted_address": "4609 rue de Verdun, Verdun QC H4G 1M6",
                        "locality": "Verdun",
                        "postcode": "H4G 1M6",
                        "region": "QC"
                  },
                  "name": "Connexions Quebec"
            },
            {
                  "distance": 877,
                  "location": {
                        "address": "4594 Rue de verdun",
                        "country": "CA",
                        "formatted_address": "4594 Rue de verdun, Verdun QC H4G 1M3",
                        "locality": "Verdun",
                        "postcode": "H4G 1M3",
                        "region": "QC"
                  },
                  "name": "Pizza Charlevoix"
            },
            {
                  "distance": 879,
                  "location": {
                        "address": "2110 Jolicoeur Rue",
                        "country": "CA",
                        "formatted_address": "2110 Jolicoeur Rue, Montreal QC H4E 1X6",
                        "locality": "Montreal",
                        "postcode": "H4E 1X6",
                        "region": "QC"
                  },
                  "name": "Restaurant Carmen"
            },
            {
                  "distance": 890,
                  "location": {
                        "address": "341 Desmarchais Ave",
                        "country": "CA",
                        "formatted_address": "341 Desmarchais Ave, Verdun QC H4H 1S5",
                        "locality": "Verdun",
                        "postcode": "H4H 1S5",
                        "region": "QC"
                  },
                  "name": "Toty Cupcakes"
            },
            {
                  "distance": 902,
                  "location": {
                        "address": "6462 Briand Rue",
                        "country": "CA",
                        "formatted_address": "6462 Briand Rue, Montreal QC H4E 3L1",
                        "locality": "Montreal",
                        "postcode": "H4E 3L1",
                        "region": "QC"
                  },
                  "name": "Kurde Pizza Restaurant"
            },
            {
                  "distance": 974,
                  "location": {
                        "address": "6574 Monk Blvd",
                        "country": "CA",
                        "formatted_address": "6574 Monk Blvd, Montreal QC H4E 3J1",
                        "locality": "Montreal",
                        "postcode": "H4E 3J1",
                        "region": "QC"
                  },
                  "name": "Caff\u00e8 Napoletana"
            }
      ],
      "context": {
            "geo_bounds": {
                  "circle": {
                        "center": {
                              "latitude": 45.45608546,
                              "longitude": -73.5819371
                        },
                        "radius": 1000
                  }
            }
      }
}