{
      "results": [
            {
                  "distance": 324,
                  "location": {
                        "address": "4006 Sainte-Catherine Rue O",
                        "country": "CA",
                        "cross_street": "coin Atwater",
                        "formatted_address": "4006 Sainte-Catherine Rue O (coin Atwater), Westmount QC H3Z 1P2",
                        "locality": "Westmount",
                        "postcode": "H3Z 1P2",
                        "region": "QC"
                  },
                  "name": "Imadake",
                  "popularity": 0.9621822690638562,
                  "price": 2,
                  "rating": 8.7
            },
            {
                  "distance": 815,
                  "location": {
                        "address": "1504 Sherbrooke Rue O",
                        "country": "CA",
                        "cross_street": "",
                        "formatted_address": "1504 Sherbrooke Rue O, Montr\u00e9al QC H3G 1L3",
                        "locality": "Montreal",
                        "postcode": "H3G 1L3",
                        "region": "QC"
                  },
                  "name": "Ristorante Beatrice",
                  "popularity": 0.9627058099924299,
                  "price": 3,
                  "rating": 8.6
            },
            {
                  "distance": 920,
                  "location": {
                        "address": "1448 Sherbrooke Rue O",
                        "country": "CA",
                        "formatted_address": "1448 Sherbrooke Rue O, Montr\u00e9al QC H3G 1K4",
                        "locality": "Montreal",
                        "postcode": "H3G 1K4",
                        "region": "QC"
                  },
                  "name": "Cafe Aunja",
                  "popularity": 0.9581401400454201,
                  "price": 1,
                  "rating": 8.6
            },
            {
                  "distance": 996,
                  "location": {
                        "address": "1254 MacKay Rue",
                        "country": "CA",
                        "formatted_address": "1254 MacKay Rue, Montr\u00e9al QC H3G 2H4",
                        "locality": "Montreal",
                        "postcode": "H3G 2H4",
                        "region": "QC"
                  },
                  "name": "Upstairs Jazz Bar & Grill",
                  "popularity": 0.9743210635881908,
                  "rating": 8.3
            },
            {
                  "distance": 1004,
                  "location": {
                        "address": "1238 MacKay Rue",
                        "country": "CA",
                        "cross_street": "South of Sainte-catherine",
                        "formatted_address": "1238 MacKay Rue (South of Sainte-catherine), Montr\u00e9al QC H3G 2H4",
                        "locality": "Montreal",
                        "postcode": "H3G 2H4",
                        "region": "QC"
                  },
                  "name": "Garage Beirut",
                  "popularity": 0.9214373580620742,
                  "rating": 8.3
            },
            {
                  "distance": 777,
                  "location": {
                        "address": "1626 Blvd de Maisonneuve Ouest",
                        "country": "CA",
                        "cross_street": "",
                        "formatted_address": "1626 Blvd de Maisonneuve Ouest, Montr\u00e9al QC H3H 1J5",
                        "locality": "Montreal",
                        "postcode": "H3H 1J5",
                        "region": "QC"
                  },
                  "name": "Antep Kabab",
                  "popularity": 0.9862201930355791,
                  "price": 1,
                  "rating": 8.3
            },
            {
                  "distance": 718,
                  "location": {
                        "address": "1612 Sherbrooke Rue O",
                        "country": "CA",
                        "cross_street": "",
                        "formatted_address": "1612 Sherbrooke Rue O, Montr\u00e9al QC H3H 1C9",
                        "locality": "Montreal",
                        "postcode": "H3H 1C9",
                        "region": "QC"
                  },
                  "name": "Chez Hailar",
                  "popularity": 0.9650241294473884,
                  "price": 2,
                  "rating": 8.3
            },
            {
                  "distance": 695,
                  "location": {
                        "address": "1441 Saint Mathieu Rue",
                        "country": "CA",
                        "cross_street": "entre De Maisonneuve & Ste-Catherine",
                        "formatted_address": "1441 Saint Mathieu Rue (entre De Maisonneuve & Ste-Catherine), Montr\u00e9al QC H3H 2M4",
                        "locality": "Montreal",
                        "postcode": "H3H 2M4",
                        "region": "QC"
                  },
                  "name": "Otto Yakitori Izakaya",
                  "popularity": 0.9624337623012869,
                  "price": 2,
                  "rating": 8.2
            },
            {
                  "distance": 880,
                  "location": {
                        "address": "1515 Sainte-Catherine Rue O",
                        "country": "CA",
                        "cross_street": "boul. de Maisonneuve",
                        "formatted_address": "1515 Sainte-Catherine Rue O (boul. de Maisonneuve), Montr\u00e9al QC H3G 2W1",
                        "locality": "Montreal",
                        "postcode": "H3G 2W1",
                        "region": "QC"
                  },
                  "name": "Jugo Juice",
                  "popularity": 0.9863976154428463,
                  "price": 1,
                  "rating": 8.2
            },
            {
                  "distance": 334,
                  "location": {
                        "address": "4024B Sainte Catherine Rue O",
                        "country": "CA",
                        "cross_street": "",
                        "formatted_address": "4024B Sainte Catherine Rue O, Westmount QC H3Z 1P2",
                        "locality": "Westmount",
                        "postcode": "H3Z 1P2",
                        "region": "QC"
                  },
                  "name": "Sparta Rotisserie&Grill",
                  "popularity": 0.9783013019218847,
                  "price": 2,
                  "rating": 8.1
            },
            {
                  "distance": 563,
                  "location": {
                        "address": "1909 Sainte-Catherine Rue O",
                        "country": "CA",
                        "cross_street": "St-Marc Street",
                        "formatted_address": "1909 Sainte-Catherine Rue O (St-Marc Street), Montr\u00e9al QC H3H 1M3",
                        "locality": "Montreal",
                        "postcode": "H3H 1M3",
                        "region": "QC"
                  },
                  "name": "Sammi & Soupe Dumpling",
                  "popularity": 0.9820921650264951,
                  "price": 1,
                  "rating": 8.0
            },
            {
                  "distance": 757,
                  "location": {
                        "address": "1626 Sainte-Catherine Rue O",
                        "address_extended": "Coin Guy",
                        "country": "CA",
                        "cross_street": "Coin Guy",
                        "formatted_address": "1626 Sainte-Catherine Rue O (Coin Guy), Montr\u00e9al QC H3H 2S7",
                        "locality": "Montreal",
                        "postcode": "H3H 2S7",
                        "region": "QC"
                  },
                  "name": "Juliette & Chocolat",
                  "popularity": 0.9505819454958365,
                  "price": 2,
                  "rating": 8.0
            },
            {
                  "distance": 1010,
                  "location": {
                        "address": "1244 MacKay Rue",
                        "country": "CA",
                        "cross_street": "entre St-Catherine & Ren\u00e9-L\u00e9vesque",
                        "formatted_address": "1244 MacKay Rue (entre St-Catherine & Ren\u00e9-L\u00e9vesque), Montr\u00e9al QC H3G 2H4",
                        "locality": "Montreal",
                        "postcode": "H3G 2H4",
                        "region": "QC"
                  },
                  "name": "N sur Mackay",
                  "popularity": 0.951208838001514,
                  "price": 3,
                  "rating": 7.9
            },
            {
                  "distance": 787,
                  "location": {
                        "address": "2000 Guy Rue",
                        "country": "CA",
                        "cross_street": "coin de Maisonneuve",
                        "formatted_address": "2000 Guy Rue (coin de Maisonneuve), Montr\u00e9al QC H3H 2L8",
                        "locality": "Montreal",
                        "postcode": "H3H 2L8",
                        "region": "QC"
                  },
                  "name": "Starbucks",
                  "popularity": 0.9943106548069645,
                  "price": 2,
                  "rating": 7.8,
                  "store_id": "4056-140777"
            },
            {
                  "distance": 679,
                  "location": {
                        "address": "1684 Blvd Maisonneuve Ouest",
                        "country": "CA",
                        "cross_street": "St. Mathieu",
                        "formatted_address": "1684 Blvd Maisonneuve Ouest (St. Mathieu), Montr\u00e9al QC H3H 1J7",
                        "locality": "Montreal",
                        "postcode": "H3H 1J7",
                        "region": "QC"
                  },
                  "name": "All\u00f4! Mon Coco",
                  "popularity": 0.9630843111279334,
                  "price": 1,
                  "rating": 7.8
            },
            {
                  "distance": 900,
                  "location": {
                        "address": "2002 MacKay Rue",
                        "country": "CA",
                        "cross_street": "De Maisonneuve",
                        "formatted_address": "2002 MacKay Rue (De Maisonneuve), Montr\u00e9al QC H3G 2J1",
                        "locality": "Montreal",
                        "postcode": "H3G 2J1",
                        "region": "QC"
                  },
                  "name": "Hinnawi Bros Bagel & Caf\u00e9",
                  "popularity": 0.97194360333081,
                  "price": 1,
                  "rating": 7.7
            },
            {
                  "distance": 225,
                  "location": {
                        "address": "1455 Lambert-Closse Rue",
                        "country": "CA",
                        "cross_street": "De Maisonneuve",
                        "formatted_address": "1455 Lambert-Closse Rue (De Maisonneuve), Montr\u00e9al QC H3H 1Z5",
                        "locality": "Montreal",
                        "postcode": "H3H 1Z5",
                        "region": "QC"
                  },
                  "name": "Shaughnessy Caf\u00e9",
                  "popularity": 0.9712575700227101,
                  "price": 1,
                  "rating": 7.7
            },
            {
                  "distance": 718,
                  "location": {
                        "address": "1662 Blvd de Maisonneuve Ouest",
                        "country": "CA",
                        "cross_street": "Saint-Mathieu",
                        "formatted_address": "1662 Blvd de Maisonneuve Ouest (Saint-Mathieu), Montr\u00e9al QC H3H 1J7",
                        "locality": "Montreal",
                        "postcode": "H3H 1J7",
                        "region": "QC"
                  },
                  "name": "Angela Pizzeria & Restaurant",
                  "popularity": 0.9539647993943982,
                  "price": 1,
                  "rating": 7.6
            },
            {
                  "distance": 743,
                  "location": {
                        "address": "1645 Blvd de Maisonneuve Ouest",
                        "country": "CA",
                        "cross_street": "Rue Pierce",
                        "formatted_address": "1645 Blvd de Maisonneuve Ouest (Rue Pierce), Montr\u00e9al QC H3H 2N3",
                        "locality": "Montreal",
                        "postcode": "H3H 2N3",
                        "region": "QC"
                  },
                  "name": "Cocktail Hawaii",
                  "popularity": 0.9786501703255109,
                  "price": 1,
                  "rating": 7.5
            },
            {
                  "distance": 824,
                  "location": {
                        "address": "1623 Sainte Catherine Rue O",
                        "country": "CA",
                        "cross_street": "",
                        "formatted_address": "1623 Sainte Catherine Rue O, Montr\u00e9al QC H3H 1L8",
                        "locality": "Montreal",
                        "postcode": "H3H 1L8",
                        "region": "QC"
                  },
                  "name": "Poulet Rouge",
                  "popularity": 0.9914600681302044,
                  "price": 1,
                  "rating": 7.4
            },
            {
                  "distance": 912,
                  "location": {
                        "address": "1241 Guy Rue",
                        "country": "CA",
                        "cross_street": "",
                        "formatted_address": "1241 Guy Rue, Montr\u00e9al QC H3H 2K5",
                        "locality": "Montreal",
                        "postcode": "H3H 2K5",
                        "region": "QC"
                  },
                  "name": "Arabesque",
                  "popularity": 0.907846801665405,
                  "price": 1,
                  "rating": 7.3
            },
            {
                  "distance": 869,
                  "location": {
                        "address": "1540 Blvd de Maisonneuve Ouest",
                        "country": "CA",
                        "cross_street": "",
                        "formatted_address": "1540 Blvd de Maisonneuve Ouest, Montr\u00e9al QC H3G 1N1",
                        "locality": "Montreal",
                        "postcode": "H3G 1N1",
                        "region": "QC"
                  },
                  "name": "A&W Restaurant",
                  "popularity": 0.9720264004542014,
                  "price": 1,
                  "rating": 7.1,
                  "store_id": "5530"
            },
            {
                  "distance": 628,
                  "location": {
                        "address": "1801 Blvd de Maisonneuve Ouest",
                        "country": "CA",
                        "cross_street": "Rue St-Mathieu",
                        "formatted_address": "1801 Blvd de Maisonneuve Ouest (Rue St-Mathieu), Montr\u00e9al QC H3H 1J9",
                        "locality": "Montreal",
                        "postcode": "H3H 1J9",
                        "region": "QC"
                  },
                  "name": "Presse Caf\u00e9",
                  "popularity": 0.9522970287660864,
                  "price": 1,
                  "rating": 6.9
            },
            {
                  "distance": 792,
                  "location": {
                        "address": "2140 Guy Rue",
                        "country": "CA",
                        "cross_street": "Lincoln",
                        "formatted_address": "2140 Guy Rue (Lincoln), Montr\u00e9al QC H3H 2L8",
                        "locality": "Montreal",
                        "postcode": "H3H 2L8",
                        "region": "QC"
                  },
                  "name": "Chateaukabab",
                  "popularity": 0.9798448145344436,
                  "price": 2,
                  "rating": 6.8
            },
            {
                  "distance": 646,
                  "location": {
                        "address": "2160 Saint-Mathieu Rue",
                        "country": "CA",
                        "cross_street": "",
                        "formatted_address": "2160 Saint-Mathieu Rue, Montr\u00e9al QC H3H 2J4",
                        "locality": "Montreal",
                        "postcode": "H3H 2J4",
                        "region": "QC"
                  },
                  "name": "Zoe Dessert",
                  "popularity": 0.9237201930355791,
                  "price": 1,
                  "rating": 6.7
            },
            {
                  "distance": 284,
                  "location": {
                        "address": "2313 Sainte-Catherine Rue O",
                        "country": "CA",
                        "cross_street": "",
                        "formatted_address": "2313 Sainte-Catherine Rue O, Montr\u00e9al QC H3H 1N2",
                        "locality": "Montreal",
                        "postcode": "H3H 1N2",
                        "region": "QC"
                  },
                  "name": "A&W Restaurant",
                  "popularity": 0.9711629447388342,
                  "price": 1,
                  "rating": 6.7,
                  "store_id": "5587"
            },
            {
                  "distance": 790,
                  "location": {
                        "address": "1237 Guy Rue",
                        "country": "CA",
                        "cross_street": "Boulevard de Maisonneuve O",
                        "formatted_address": "1237 Guy Rue (Boulevard de Maisonneuve O), Montr\u00e9al QC H3H 2K5",
                        "locality": "Montreal",
                        "postcode": "H3H 2K5",
                        "region": "QC"
                  },
                  "name": "Al Taib",
                  "popularity": 0.9828846517789553,
                  "price": 2,
                  "rating": 6.6
            },
            {
                  "distance": 725,
                  "location": {
                        "address": "1801 Sainte-Catherine Rue O",
                        "country": "CA",
                        "cross_street": "",
                        "formatted_address": "1801 Sainte-Catherine Rue O, Montr\u00e9al QC H3H 1M2",
                        "locality": "Montreal",
                        "postcode": "H3H 1M2",
                        "region": "QC"
                  },
                  "name": "Sushi Ste-Catherine",
                  "popularity": 0.9550529901589705,
                  "price": 2,
                  "rating": 6.3
            },
            {
                  "distance": 682,
                  "location": {
                        "address": "1812 Sainte-Catherine Rue O",
                        "country": "CA",
                        "cross_street": "",
                        "formatted_address": "1812 Sainte-Catherine Rue O, Montr\u00e9al QC H3H 1M1",
                        "locality": "Montreal",
                        "postcode": "H3H 1M1",
                        "region": "QC"
                  },
                  "name": "Kumamoto Ramen",
                  "popularity": 0.9252460257380772,
                  "rating": 6.2
            },
            {
                  "distance": 818,
                  "location": {
                        "address": "2081 Guy Rue",
                        "country": "CA",
                        "cross_street": "coin boul. de Maisonneuve O",
                        "formatted_address": "2081 Guy Rue (coin boul. de Maisonneuve O), Montr\u00e9al QC H3H 2L9",
                        "locality": "Montreal",
                        "postcode": "H3H 2L9",
                        "region": "QC"
                  },
                  "name": "Tim Hortons",
                  "popularity": 0.9868825700227101,
                  "price": 1,
                  "rating": 6.1
            },
            {
                  "distance": 764,
                  "location": {
                        "address": "1622 Lincoln Ave",
                        "country": "CA",
                        "formatted_address": "1622 Lincoln Ave, Montr\u00e9al QC H3H 1G9",
                        "locality": "Montreal",
                        "postcode": "H3H 1G9",
                        "region": "QC"
                  },
                  "name": "Poulet Bronz\u00e9",
                  "popularity": 0.978035105980318,
                  "price": 1,
                  "rating": 6.0
            },
            {
                  "distance": 817,
                  "location": {
                        "address": "1570 Blvd de Maisonneuve Ouest",
                        "country": "CA",
                        "cross_street": "rue Guy",
                        "formatted_address": "1570 Blvd de Maisonneuve Ouest (rue Guy), Montr\u00e9al QC H3G 1N1",
                        "locality": "Montreal",
                        "postcode": "H3G 1N1",
                        "region": "QC"
                  },
                  "name": "Thai Express",
                  "popularity": 0.9763555071915215,
                  "price": 2,
                  "rating": 5.7,
                  "store_id": "61"
            },
            {
                  "distance": 410,
                  "location": {
                        "address": "2127 Sainte-Catherine Rue O",
                        "country": "CA",
                        "cross_street": "",
                        "formatted_address": "2127 Sainte-Catherine Rue O, Montr\u00e9al QC H3H 1M6",
                        "locality": "Montreal",
                        "postcode": "H3H 1M6",
                        "region": "QC"
                  },
                  "name": "La Maison du Bulgogi",
                  "popularity": 0.9061317183951552,
                  "price": 2,
                  "rating": 5.7
            },
            {
                  "distance": 285,
                  "location": {
                        "address": "1500 Atwater Ave",
                        "address_extended": "# 8810",
                        "country": "CA",
                        "formatted_address": "1500 Atwater Ave, Montr\u00e9al QC H3Z 1X5",
                        "locality": "Montreal",
                        "postcode": "H3Z 1X5",
                        "region": "QC"
                  },
                  "name": "McDonald's",
                  "popularity": 0.9969001859888407,
                  "price": 1,
                  "rating": 5.7
            },
            {
                  "distance": 267,
                  "location": {
                        "address": "2313 Sainte-Catherine Rue O",
                        "country": "CA",
                        "cross_street": "Atwater",
                        "formatted_address": "2313 Sainte-Catherine Rue O (Atwater), Montr\u00e9al QC H3H 1N2",
                        "locality": "Montreal",
                        "postcode": "H3H 1N2",
                        "region": "QC"
                  },
                  "name": "Forum de Montr\u00e9al",
                  "popularity": 0.9844341408024224,
                  "rating": 5.6
            }
      ],
      "context": {
            "geo_bounds": {
                  "circle": {
                        "center": {
                              "latitude": 45.49122585,
                              "longitude": -73.58763009
                        },
                        "radius": 1000
                  }
            }
      }
}