{
      "results": [
            {
                  "distance": 587,
                  "location": {
                        "address": "45 Mozart Ave O",
                        "country": "CA",
                        "cross_street": "",
                        "formatted_address": "45 Mozart Ave O, Montr\u00e9al QC H2S 1C1",
                        "locality": "Montreal",
                        "postcode": "H2S 1C1",
                        "region": "QC"
                  },
                  "name": "Marconi",
                  "popularity": 0.9417699659348978,
                  "price": 2,
                  "rating": 9.2
            },
            {
                  "distance": 641,
                  "location": {
                        "address": "6840 Saint-Laurent Blvd",
                        "country": "CA",
                        "formatted_address": "6840 Saint-Laurent Blvd, Montr\u00e9al QC H2S 3C7",
                        "locality": "Montreal",
                        "postcode": "H2S 3C7",
                        "region": "QC"
                  },
                  "name": "Cafe Italia",
                  "popularity": 0.9526163890991673,
                  "price": 1,
                  "rating": 9.1
            },
            {
                  "distance": 533,
                  "location": {
                        "address": "511 Villeray Rue",
                        "country": "CA",
                        "cross_street": "coin Berri",
                        "formatted_address": "511 Villeray Rue (coin Berri), Montr\u00e9al QC H2R 1H5",
                        "locality": "Montreal",
                        "postcode": "H2R 1H5",
                        "region": "QC"
                  },
                  "name": "Tapeo",
                  "popularity": 0.9402914458743377,
                  "price": 2,
                  "rating": 9.1
            },
            {
                  "distance": 664,
                  "location": {
                        "address": "7032 Waverly Rue",
                        "country": "CA",
                        "cross_street": "",
                        "formatted_address": "7032 Waverly Rue, Montr\u00e9al QC H2S 3J2",
                        "locality": "Montreal",
                        "postcode": "H2S 3J2",
                        "region": "QC"
                  },
                  "name": "D\u00e9panneur le Pick Up",
                  "popularity": 0.9210233724451173,
                  "price": 1,
                  "rating": 9.0
            },
            {
                  "distance": 936,
                  "location": {
                        "address": "901 Saint-Zotique Rue E",
                        "country": "CA",
                        "cross_street": "Saint-Andr\u00e9",
                        "formatted_address": "901 Saint-Zotique Rue E (Saint-Andr\u00e9), Montr\u00e9al QC H2S 1M9",
                        "locality": "Montreal",
                        "postcode": "H2S 1M9",
                        "region": "QC"
                  },
                  "name": "Y\u00efsst",
                  "popularity": 0.9474829674489024,
                  "price": 2,
                  "rating": 8.8
            },
            {
                  "distance": 474,
                  "location": {
                        "address": "95 Jean-Talon Rue O",
                        "country": "CA",
                        "cross_street": "Saint-Urbain",
                        "formatted_address": "95 Jean-Talon Rue O (Saint-Urbain), Montr\u00e9al QC H2R 2W8",
                        "locality": "Montreal",
                        "postcode": "H2R 2W8",
                        "region": "QC"
                  },
                  "name": "Brasserie Harricana",
                  "popularity": 0.95985522331567,
                  "rating": 8.8
            },
            {
                  "distance": 588,
                  "location": {
                        "address": "277 Dante Rue",
                        "country": "CA",
                        "cross_street": "",
                        "formatted_address": "277 Dante Rue, Montr\u00e9al QC H2S 1K3",
                        "locality": "Montreal",
                        "postcode": "H2S 1K3",
                        "region": "QC"
                  },
                  "name": "Pasticceria Alati-Caserta",
                  "popularity": 0.9710328349735049,
                  "price": 1,
                  "rating": 8.8
            },
            {
                  "distance": 388,
                  "location": {
                        "address": "260 Pl du March\u00e9 du Nord",
                        "country": "CA",
                        "cross_street": "",
                        "formatted_address": "260 Pl du March\u00e9 du Nord, Montr\u00e9al QC H2S 1A1",
                        "locality": "Montreal",
                        "postcode": "H2S 1A1",
                        "region": "QC"
                  },
                  "name": "Caf\u00e9 Saint-Henri MJT",
                  "popularity": 0.9128146290688872,
                  "price": 1,
                  "rating": 8.7
            },
            {
                  "distance": 825,
                  "location": {
                        "address": "6704 Clark Rue",
                        "country": "CA",
                        "cross_street": "coin St-Zotique",
                        "formatted_address": "6704 Clark Rue (coin St-Zotique), Montr\u00e9al QC H2S 3E9",
                        "locality": "Montreal",
                        "postcode": "H2S 3E9",
                        "region": "QC"
                  },
                  "name": "Dinette Triple Crown",
                  "popularity": 0.9051618092354277,
                  "price": 2,
                  "rating": 8.7
            },
            {
                  "distance": 825,
                  "location": {
                        "address": "6696 Rue de Saint-Vallier",
                        "country": "CA",
                        "cross_street": "Saint-Zotique",
                        "formatted_address": "6696 Rue de Saint-Vallier (Saint-Zotique), Montr\u00e9al QC H2S 2P7",
                        "locality": "Montreal",
                        "postcode": "H2S 2P7",
                        "region": "QC"
                  },
                  "name": "Restaurant Santa Barbara",
                  "popularity": 0.9257901211203634,
                  "price": 3,
                  "rating": 8.7
            },
            {
                  "distance": 401,
                  "location": {
                        "address": "7129 Saint-Laurent Blvd",
                        "address_extended": "Coin avenue Shamrock",
                        "country": "CA",
                        "cross_street": "Coin avenue Shamrock",
                        "formatted_address": "7129 Saint-Laurent Blvd (Coin avenue Shamrock), Montr\u00e9al QC H2S 0B2",
                        "locality": "Montreal",
                        "postcode": "H2S 0B2",
                        "region": "QC"
                  },
                  "name": "Birra",
                  "popularity": 0.9695779712339136,
                  "price": 2,
                  "rating": 8.6
            },
            {
                  "distance": 791,
                  "location": {
                        "address": "378 Saint-Zotique Rue E",
                        "country": "CA",
                        "cross_street": "",
                        "formatted_address": "378 Saint-Zotique Rue E, Montr\u00e9al QC H2S 1L7",
                        "locality": "Montreal",
                        "postcode": "H2S 1L7",
                        "region": "QC"
                  },
                  "name": "La Brume Dans Mes Lunettes",
                  "popularity": 0.9542605034065103,
                  "price": 1,
                  "rating": 8.6
            },
            {
                  "distance": 792,
                  "location": {
                        "address": "83 Saint-Zotique Rue E",
                        "country": "CA",
                        "cross_street": "",
                        "formatted_address": "83 Saint-Zotique Rue E, Montr\u00e9al QC H2S 1K7",
                        "locality": "Montreal",
                        "postcode": "H2S 1K7",
                        "region": "QC"
                  },
                  "name": "\u00c9picerie Pumpui",
                  "popularity": 0.9057650454201362,
                  "price": 2,
                  "rating": 8.6
            },
            {
                  "distance": 243,
                  "location": {
                        "address": "232 Jean-Talon Rue E",
                        "country": "CA",
                        "cross_street": "coin Casgrain",
                        "formatted_address": "232 Jean-Talon Rue E (coin Casgrain), Montr\u00e9al QC H2R 1S7",
                        "locality": "Montreal",
                        "postcode": "H2R 1S7",
                        "region": "QC"
                  },
                  "name": "Le Roi du Taco",
                  "popularity": 0.9488195495836488,
                  "price": 1,
                  "rating": 8.6
            },
            {
                  "distance": 493,
                  "location": {
                        "address": "6956 Drolet Rue",
                        "country": "CA",
                        "cross_street": "entre Mozart & B\u00e9langer",
                        "formatted_address": "6956 Drolet Rue (entre Mozart & B\u00e9langer), Montr\u00e9al QC H2S 2T3",
                        "locality": "Montreal",
                        "postcode": "H2S 2T3",
                        "region": "QC"
                  },
                  "name": "Chez Tousignant",
                  "popularity": 0.9384225965177896,
                  "rating": 8.6
            },
            {
                  "distance": 940,
                  "location": {
                        "address": "6631 Saint-Laurent Blvd",
                        "country": "CA",
                        "cross_street": "sud de St-Zotique",
                        "formatted_address": "6631 Saint-Laurent Blvd (sud de St-Zotique), Montr\u00e9al QC H2S 3C5",
                        "locality": "Montreal",
                        "postcode": "H2S 3C5",
                        "region": "QC"
                  },
                  "name": "Vices & Versa Bistro du Terroir Inc",
                  "popularity": 0.9497303179409539,
                  "price": 2,
                  "rating": 8.5
            },
            {
                  "distance": 483,
                  "location": {
                        "address": "7349 Saint Hubert Rue",
                        "country": "CA",
                        "cross_street": "",
                        "formatted_address": "7349 Saint Hubert Rue, Montr\u00e9al QC H2R 2N4",
                        "locality": "Montreal",
                        "postcode": "H2R 2N4",
                        "region": "QC"
                  },
                  "name": "Mr. Azteca",
                  "popularity": 0.9330762679788039,
                  "price": 1,
                  "rating": 8.5
            },
            {
                  "distance": 639,
                  "location": {
                        "address": "6827 St-Dominique Rue",
                        "country": "CA",
                        "cross_street": "Dante",
                        "formatted_address": "6827 St-Dominique Rue (Dante), Montr\u00e9al QC H2S 3B1",
                        "locality": "Montreal",
                        "postcode": "H2S 3B1",
                        "region": "QC"
                  },
                  "name": "Pizzeria Gema",
                  "popularity": 0.9067586109008327,
                  "price": 2,
                  "rating": 7.9
            },
            {
                  "distance": 593,
                  "location": {
                        "address": "189 Dante Rue",
                        "country": "CA",
                        "cross_street": "coin De Gasp\u00e9",
                        "formatted_address": "189 Dante Rue (coin De Gasp\u00e9), Montr\u00e9al QC H2S 1K1",
                        "locality": "Montreal",
                        "postcode": "H2S 1K1",
                        "region": "QC"
                  },
                  "name": "Pizzeria Napoletana",
                  "popularity": 0.9475775927327782,
                  "price": 1,
                  "rating": 7.9
            },
            {
                  "distance": 807,
                  "location": {
                        "address": "6700 Saint-Laurent Blvd",
                        "country": "CA",
                        "cross_street": "St-Zotique",
                        "formatted_address": "6700 Saint-Laurent Blvd (St-Zotique), Montr\u00e9al QC H2S 3C7",
                        "locality": "Montreal",
                        "postcode": "H2S 3C7",
                        "region": "QC"
                  },
                  "name": "Saint-Houblon Petite-Italie",
                  "popularity": 0.9672951362604087,
                  "price": 3,
                  "rating": 7.9
            },
            {
                  "distance": 639,
                  "location": {
                        "address": "48 Dante Rue",
                        "country": "CA",
                        "cross_street": "St-Dominique",
                        "formatted_address": "48 Dante Rue (St-Dominique), Montr\u00e9al QC H2S 1J5",
                        "locality": "Montreal",
                        "postcode": "H2S 1J5",
                        "region": "QC"
                  },
                  "name": "Impasto",
                  "popularity": 0.8786075889477668,
                  "price": 2,
                  "rating": 7.8
            },
            {
                  "distance": 986,
                  "location": {
                        "address": "300 Jarry Rue E",
                        "country": "CA",
                        "cross_street": "",
                        "formatted_address": "300 Jarry Rue E, Montr\u00e9al QC H2P 1T7",
                        "locality": "Montreal",
                        "postcode": "H2P 1T7",
                        "region": "QC"
                  },
                  "name": "Pho Ong Rau",
                  "popularity": 0.9140329295987888,
                  "price": 2,
                  "rating": 7.8
            },
            {
                  "distance": 930,
                  "location": {
                        "address": "6584 Saint-Laurent Blvd",
                        "country": "CA",
                        "cross_street": "",
                        "formatted_address": "6584 Saint-Laurent Blvd, Montr\u00e9al QC H2S 3C6",
                        "locality": "Montreal",
                        "postcode": "H2S 3C6",
                        "region": "QC"
                  },
                  "name": "Taverne Cobra",
                  "popularity": 0.920254542013626,
                  "price": 1,
                  "rating": 7.7
            },
            {
                  "distance": 742,
                  "location": {
                        "address": "7335 Rue du Mile-End",
                        "country": "CA",
                        "cross_street": "Rue de Castelnau",
                        "formatted_address": "7335 Rue du Mile-End (Rue de Castelnau), Montr\u00e9al QC H2R 2Z7",
                        "locality": "Montreal",
                        "postcode": "H2R 2Z7",
                        "region": "QC"
                  },
                  "name": "Caf\u00e9 St-Henri HQ",
                  "popularity": 0.9647993943981832,
                  "price": 1,
                  "rating": 7.7
            },
            {
                  "distance": 809,
                  "location": {
                        "address": "414 Saint-Zotique Rue E",
                        "country": "CA",
                        "cross_street": "St-Denis",
                        "formatted_address": "414 Saint-Zotique Rue E (St-Denis), Montr\u00e9al QC H2S 1L9",
                        "locality": "Montreal",
                        "postcode": "H2S 1L9",
                        "region": "QC"
                  },
                  "name": "Beaufort - Bistro",
                  "popularity": 0.9029144587433763,
                  "price": 2,
                  "rating": 7.7
            },
            {
                  "distance": 897,
                  "location": {
                        "address": "6705 Saint-Hubert Rue",
                        "country": "CA",
                        "cross_street": "",
                        "formatted_address": "6705 Saint-Hubert Rue, Montr\u00e9al QC H2S 2M7",
                        "locality": "Montreal",
                        "postcode": "H2S 2M7",
                        "region": "QC"
                  },
                  "name": "Le Roi du Smoked Meat",
                  "popularity": 0.9673069644208933,
                  "price": 1,
                  "rating": 7.6
            },
            {
                  "distance": 780,
                  "location": {
                        "address": "150 Saint-Zotique Rue E",
                        "country": "CA",
                        "cross_street": "",
                        "formatted_address": "150 Saint-Zotique Rue E, Montr\u00e9al QC H2S 1K8",
                        "locality": "Montreal",
                        "postcode": "H2S 1K8",
                        "region": "QC"
                  },
                  "name": "Mon Lapin",
                  "popularity": 0.9240158970476912,
                  "price": 2,
                  "rating": 7.5
            },
            {
                  "distance": 363,
                  "location": {
                        "address": "519 Faillon Rue E",
                        "country": "CA",
                        "formatted_address": "519 Faillon Rue E, Montr\u00e9al QC H2R 1L6",
                        "locality": "Montreal",
                        "postcode": "H2R 1L6",
                        "region": "QC"
                  },
                  "name": "Daou Restaurant",
                  "popularity": 0.9034112414837244,
                  "price": 2,
                  "rating": 7.5
            },
            {
                  "distance": 469,
                  "location": {
                        "address": "220 Villeray Rue",
                        "country": "CA",
                        "cross_street": "coin Henri-Julien",
                        "formatted_address": "220 Villeray Rue (coin Henri-Julien), Montr\u00e9al QC H2R 1G5",
                        "locality": "Montreal",
                        "postcode": "H2R 1G5",
                        "region": "QC"
                  },
                  "name": "Miss Villeray",
                  "popularity": 0.9195448523845572,
                  "price": 2,
                  "rating": 7.4
            },
            {
                  "distance": 308,
                  "location": {
                        "address": "414 Jean-Talon Rue E",
                        "country": "CA",
                        "cross_street": "Saint-Denis",
                        "formatted_address": "414 Jean-Talon Rue E (Saint-Denis), Montr\u00e9al QC H2R 1T5",
                        "locality": "Montreal",
                        "postcode": "H2R 1T5",
                        "region": "QC"
                  },
                  "name": "Ligne Rouge Souvlaki",
                  "popularity": 0.9433904239212718,
                  "price": 1,
                  "rating": 7.3
            },
            {
                  "distance": 784,
                  "location": {
                        "address": "350 Saint-Zotique Rue E",
                        "country": "CA",
                        "formatted_address": "350 Saint-Zotique Rue E, Montr\u00e9al QC H2S 1L7",
                        "locality": "Montreal",
                        "postcode": "H2S 1L7",
                        "region": "QC"
                  },
                  "name": "Restaurant la Carreta",
                  "popularity": 0.9261567940953823,
                  "rating": 7.1
            },
            {
                  "distance": 209,
                  "location": {
                        "address": "323 Jean-Talon Rue E",
                        "country": "CA",
                        "cross_street": "entre Drolet & Henri-Julien",
                        "formatted_address": "323 Jean-Talon Rue E (entre Drolet & Henri-Julien), Montr\u00e9al QC H2R 1T2",
                        "locality": "Montreal",
                        "postcode": "H2R 1T2",
                        "region": "QC"
                  },
                  "name": "Tim Hortons",
                  "popularity": 0.9721683383800152,
                  "price": 1,
                  "rating": 6.6
            },
            {
                  "distance": 391,
                  "location": {
                        "address": "236 Pl du Marche du Nord",
                        "country": "CA",
                        "cross_street": "",
                        "formatted_address": "236 Pl du Marche du Nord, Montr\u00e9al QC H2S 1A1",
                        "locality": "Montreal",
                        "postcode": "H2S 1A1",
                        "region": "QC"
                  },
                  "name": "Le Caf\u00e9 du March\u00e9",
                  "popularity": 0.9081306775170326,
                  "price": 1,
                  "rating": 6.6
            },
            {
                  "distance": 885,
                  "location": {
                        "address": "5363 St Zotique E",
                        "country": "CA",
                        "cross_street": "",
                        "formatted_address": "5363 St Zotique E, Montr\u00e9al QC",
                        "locality": "Montreal",
                        "region": "QC"
                  },
                  "name": "Amir",
                  "popularity": 0.9322482967448902,
                  "price": 2,
                  "rating": 6.5
            },
            {
                  "distance": 267,
                  "location": {
                        "address": "7275 Saint Laurent Blvd",
                        "country": "CA",
                        "cross_street": "coin De Castelnau",
                        "formatted_address": "7275 Saint Laurent Blvd (coin De Castelnau), Montr\u00e9al QC H2R 1W5",
                        "locality": "Montreal",
                        "postcode": "H2R 1W5",
                        "region": "QC"
                  },
                  "name": "McDonald's",
                  "popularity": 0.9951504542013626,
                  "price": 1,
                  "rating": 4.8,
                  "store_id": "7956"
            }
      ],
      "context": {
            "geo_bounds": {
                  "circle": {
                        "center": {
                              "latitude": 45.53789111,
                              "longitude": -73.61821532
                        },
                        "radius": 1000
                  }
            }
      }
}