{
      "results": [
            {
                  "distance": 582,
                  "location": {
                        "address": "195 Young Rue",
                        "country": "CA",
                        "cross_street": "entre Ottawa & Wellington",
                        "formatted_address": "195 Young Rue (entre Ottawa & Wellington), Montr\u00e9al QC H3C 2E9",
                        "locality": "Montreal",
                        "postcode": "H3C 2E9",
                        "region": "QC"
                  },
                  "name": "La B\u00eate \u00e0 Pain",
                  "popularity": 0.967153198334595,
                  "price": 1,
                  "rating": 9.3
            },
            {
                  "distance": 840,
                  "location": {
                        "address": "1940 rue du Ctr",
                        "country": "CA",
                        "cross_street": "rue Jardin",
                        "formatted_address": "1940 rue du Ctr (rue Jardin), Montr\u00e9al QC H3K 1J2",
                        "locality": "Montreal",
                        "postcode": "H3K 1J2",
                        "region": "QC"
                  },
                  "name": "Le Caf\u00e9 Bloom",
                  "popularity": 0.9499195685087055,
                  "price": 2,
                  "rating": 9.0
            },
            {
                  "distance": 472,
                  "location": {
                        "address": "1886 Notre-Dame Rue O",
                        "country": "CA",
                        "cross_street": "coin Des Seigneurs",
                        "formatted_address": "1886 Notre-Dame Rue O (coin Des Seigneurs), Montr\u00e9al QC H3J 1M6",
                        "locality": "Montreal",
                        "postcode": "H3J 1M6",
                        "region": "QC"
                  },
                  "name": "Le Boucan",
                  "popularity": 0.9390494890234671,
                  "price": 3,
                  "rating": 8.8
            },
            {
                  "distance": 323,
                  "location": {
                        "address": "1708 Notre-Dame Rue O",
                        "country": "CA",
                        "cross_street": "entre Richmond & St-Martin",
                        "formatted_address": "1708 Notre-Dame Rue O (entre Richmond & St-Martin), Montr\u00e9al QC H3J 1M3",
                        "locality": "Montreal",
                        "postcode": "H3J 1M3",
                        "region": "QC"
                  },
                  "name": "Grinder",
                  "popularity": 0.9388838947766843,
                  "price": 3,
                  "rating": 8.7
            },
            {
                  "distance": 564,
                  "location": {
                        "address": "1974 Notre-Dame Rue O",
                        "country": "CA",
                        "cross_street": "entre Canning & Chatham",
                        "formatted_address": "1974 Notre-Dame Rue O (entre Canning & Chatham), Montr\u00e9al QC H3J 1M8",
                        "locality": "Montreal",
                        "postcode": "H3J 1M8",
                        "region": "QC"
                  },
                  "name": "Chez Sophie",
                  "popularity": 0.927304125662377,
                  "price": 3,
                  "rating": 8.6
            },
            {
                  "distance": 286,
                  "location": {
                        "address": "1638 Notre-Dame Rue O",
                        "country": "CA",
                        "cross_street": "entre Guy & Richmond",
                        "formatted_address": "1638 Notre-Dame Rue O (entre Guy & Richmond), Montr\u00e9al QC H3J 1M1",
                        "locality": "Montreal",
                        "postcode": "H3J 1M1",
                        "region": "QC"
                  },
                  "name": "Foxy",
                  "popularity": 0.9481216881150644,
                  "price": 2,
                  "rating": 8.6
            },
            {
                  "distance": 47,
                  "location": {
                        "address": "1485 Ottawa Rue",
                        "country": "CA",
                        "cross_street": "coin Guy",
                        "formatted_address": "1485 Ottawa Rue (coin Guy), Montr\u00e9al QC H3C 1S9",
                        "locality": "Montreal",
                        "postcode": "H3C 1S9",
                        "region": "QC"
                  },
                  "name": "Brasseur de Montr\u00e9al",
                  "popularity": 0.9854750189250567,
                  "price": 2,
                  "rating": 8.5
            },
            {
                  "distance": 760,
                  "location": {
                        "address": "1871 Rue du Ctr",
                        "country": "CA",
                        "cross_street": "Shearer",
                        "formatted_address": "1871 Rue du Ctr (Shearer), Montr\u00e9al QC H3K 1J1",
                        "locality": "Montreal",
                        "postcode": "H3K 1J1",
                        "region": "QC"
                  },
                  "name": "Knox Taverne",
                  "popularity": 0.9547572861468584,
                  "price": 2,
                  "rating": 8.3
            },
            {
                  "distance": 266,
                  "location": {
                        "address": "1380 Notre-Dame Rue O",
                        "country": "CA",
                        "cross_street": "Rue de l'aqueduc",
                        "formatted_address": "1380 Notre-Dame Rue O (Rue de l'aqueduc), Montr\u00e9al QC H3C 1K8",
                        "locality": "Montreal",
                        "postcode": "H3C 1K8",
                        "region": "QC"
                  },
                  "name": "Rockaberry",
                  "popularity": 0.9618423542770629,
                  "rating": 8.3
            },
            {
                  "distance": 268,
                  "location": {
                        "address": "1642 Notre-Dame Rue O",
                        "country": "CA",
                        "cross_street": "entre Richmond & Guy",
                        "formatted_address": "1642 Notre-Dame Rue O (entre Richmond & Guy), Montr\u00e9al QC H3J 1M1",
                        "locality": "Montreal",
                        "postcode": "H3J 1M1",
                        "region": "QC"
                  },
                  "name": "Le Bureau Bar a Tapas",
                  "popularity": 0.9004305450416351,
                  "price": 3,
                  "rating": 8.3
            },
            {
                  "distance": 302,
                  "location": {
                        "address": "300 Rue de la Montagne",
                        "country": "CA",
                        "cross_street": "Rue Du Seminaire",
                        "formatted_address": "300 Rue de la Montagne (Rue Du Seminaire), Montr\u00e9al QC H3C 2B1",
                        "locality": "Montreal",
                        "postcode": "H3C 2B1",
                        "region": "QC"
                  },
                  "name": "Le Petit Dep",
                  "popularity": 0.9751963474640424,
                  "price": 1,
                  "rating": 8.2
            },
            {
                  "distance": 420,
                  "location": {
                        "address": "1850 Notre-Dame Rue O",
                        "country": "CA",
                        "cross_street": "Rue des Seigneurs",
                        "formatted_address": "1850 Notre-Dame Rue O (Rue des Seigneurs), Montr\u00e9al QC H3J 1M5",
                        "locality": "Montreal",
                        "postcode": "H3J 1M5",
                        "region": "QC"
                  },
                  "name": "Caf\u00e9 Lali",
                  "popularity": 0.9049134178652536,
                  "price": 1,
                  "rating": 8.1
            },
            {
                  "distance": 657,
                  "location": {
                        "address": "100 Peel Rue",
                        "country": "CA",
                        "cross_street": "coin Smith",
                        "formatted_address": "100 Peel Rue (coin Smith), Montr\u00e9al QC H3C 0L8",
                        "locality": "Montreal",
                        "postcode": "H3C 0L8",
                        "region": "QC"
                  },
                  "name": "Zibo",
                  "popularity": 0.9744275170325511,
                  "price": 2,
                  "rating": 8.1
            },
            {
                  "distance": 665,
                  "location": {
                        "address": "1059 Wellington Rue",
                        "country": "CA",
                        "cross_street": "Rue Peel",
                        "formatted_address": "1059 Wellington Rue (Rue Peel), Montr\u00e9al QC H3C 1V6",
                        "locality": "Montreal",
                        "postcode": "H3C 1V6",
                        "region": "QC"
                  },
                  "name": "Pizzeria Moretti",
                  "popularity": 0.965237036336109,
                  "price": 2,
                  "rating": 8.0
            },
            {
                  "distance": 868,
                  "location": {
                        "address": "1265 des Canadiens-De-Montreal Ave",
                        "country": "CA",
                        "cross_street": "",
                        "formatted_address": "1265 des Canadiens-De-Montreal Ave, Montr\u00e9al QC H3B 0G6",
                        "locality": "Montreal",
                        "postcode": "H3B 0G6",
                        "region": "QC"
                  },
                  "name": "Starbucks",
                  "popularity": 0.9798684708554126,
                  "price": 1,
                  "rating": 7.7,
                  "store_id": "1016766"
            },
            {
                  "distance": 235,
                  "location": {
                        "address": "1524 Notre-Dame Rue O",
                        "country": "CA",
                        "cross_street": "",
                        "formatted_address": "1524 Notre-Dame Rue O, Montr\u00e9al QC H3C 1L1",
                        "locality": "Montreal",
                        "postcode": "H3C 1L1",
                        "region": "QC"
                  },
                  "name": "Maman",
                  "popularity": 0.9602692089326268,
                  "price": 3,
                  "rating": 7.6
            },
            {
                  "distance": 390,
                  "location": {
                        "address": "265 des Seigneurs Rue",
                        "country": "CA",
                        "cross_street": "entre William & Basin",
                        "formatted_address": "265 des Seigneurs Rue (entre William & Basin), Montr\u00e9al QC H3J 0B3",
                        "locality": "Montreal",
                        "postcode": "H3J 0B3",
                        "region": "QC"
                  },
                  "name": "Lord William Pub",
                  "popularity": 0.9671058856926571,
                  "price": 1,
                  "rating": 7.1
            },
            {
                  "distance": 494,
                  "location": {
                        "address": "1197 Notre-Dame Rue O",
                        "country": "CA",
                        "cross_street": "",
                        "formatted_address": "1197 Notre-Dame Rue O, Montr\u00e9al QC H3C 0B1",
                        "locality": "Montreal",
                        "postcode": "H3C 0B1",
                        "region": "QC"
                  },
                  "name": "Okane Sushi Bar",
                  "popularity": 0.966195117335352,
                  "price": 2,
                  "rating": 6.9
            },
            {
                  "distance": 305,
                  "location": {
                        "address": "323 rue de la Montagne",
                        "country": "CA",
                        "cross_street": "",
                        "formatted_address": "323 rue de la Montagne, Montr\u00e9al QC H3C 0S6",
                        "locality": "Montreal",
                        "postcode": "H3C 0S6",
                        "region": "QC"
                  },
                  "name": "Boulangerie l'Amour du Pain",
                  "popularity": 0.9667510408781226,
                  "price": 1,
                  "rating": 6.8
            },
            {
                  "distance": 971,
                  "location": {
                        "address": "1000 Rue de la Gauchetiere O",
                        "address_extended": "# 028A",
                        "country": "CA",
                        "cross_street": "",
                        "formatted_address": "1000 Rue de la Gauchetiere O, Montr\u00e9al QC H3B 4W5",
                        "locality": "Montreal",
                        "postcode": "H3B 4W5",
                        "region": "QC"
                  },
                  "name": "Starbucks",
                  "popularity": 0.9904901589704769,
                  "price": 1,
                  "rating": 6.6,
                  "store_id": "47948-256355"
            },
            {
                  "distance": 681,
                  "location": {
                        "address": "1055 Wellington St",
                        "address_extended": "Commerce C",
                        "country": "CA",
                        "cross_street": "",
                        "formatted_address": "1055 Wellington St, Montr\u00e9al QC H3C 1V6",
                        "locality": "Montreal",
                        "postcode": "H3C 1V6",
                        "region": "QC"
                  },
                  "name": "Subway",
                  "popularity": 0.607435181680545,
                  "price": 1,
                  "rating": 6.6,
                  "store_id": "66836"
            },
            {
                  "distance": 802,
                  "location": {
                        "address": "997 Saint-Jacques Rue",
                        "country": "CA",
                        "cross_street": "Coin De La Cath\u00e9drale",
                        "formatted_address": "997 Saint-Jacques Rue (Coin De La Cath\u00e9drale), Montr\u00e9al QC H3C 1G6",
                        "locality": "Montreal",
                        "postcode": "H3C 1G6",
                        "region": "QC"
                  },
                  "name": "Time Supper Club",
                  "popularity": 0.9734694360333082,
                  "price": 3,
                  "rating": 6.5
            },
            {
                  "distance": 856,
                  "location": {
                        "address": "1016 de la Montagne",
                        "country": "CA",
                        "cross_street": "Rue Des Canadiens",
                        "formatted_address": "1016 de la Montagne (Rue Des Canadiens), Montr\u00e9al QC H3G 1Y7",
                        "locality": "Montreal",
                        "postcode": "H3G 1Y7",
                        "region": "QC"
                  },
                  "name": "McDonald's",
                  "popularity": 0.988455715367146,
                  "price": 1,
                  "rating": 6.4,
                  "store_id": "40517"
            },
            {
                  "distance": 814,
                  "location": {
                        "address": "1212 rue de la Gaucheti\u00e8re O - Ctr Bell",
                        "address_extended": "Entre rue de la Montagne & Cours Windsor",
                        "country": "CA",
                        "cross_street": "Entre rue de la Montagne & Cours Windsor",
                        "formatted_address": "1212 rue de la Gaucheti\u00e8re O - Ctr Bell (Entre rue de la Montagne & Cours Windsor), Montr\u00e9al QC H3B 2S2",
                        "locality": "Montreal",
                        "postcode": "H3B 2S2",
                        "region": "QC"
                  },
                  "name": "La Cage aux Sports",
                  "popularity": 0.9816781794095383,
                  "price": 2,
                  "rating": 6.4
            },
            {
                  "distance": 621,
                  "location": {
                        "address": "241 Peel Rue",
                        "country": "CA",
                        "cross_street": "Ottawa",
                        "formatted_address": "241 Peel Rue (Ottawa), Montr\u00e9al QC H3C 2G6",
                        "locality": "Montreal",
                        "postcode": "H3C 2G6",
                        "region": "QC"
                  },
                  "name": "Tim Hortons",
                  "popularity": 0.9711511165783497,
                  "price": 1,
                  "rating": 6.4
            },
            {
                  "distance": 977,
                  "location": {
                        "address": "1000 Rue de la Gauchetiere W Montreal",
                        "country": "CA",
                        "cross_street": "",
                        "formatted_address": "1000 Rue de la Gauchetiere W Montreal, Montr\u00e9al QC H3B 4W5",
                        "locality": "Montreal",
                        "postcode": "H3B 4W5",
                        "region": "QC"
                  },
                  "name": "La Fabrique de Bagel de Montr\u00e9al",
                  "popularity": 0.9724995268735807,
                  "price": 1,
                  "rating": 6.4
            },
            {
                  "distance": 638,
                  "location": {
                        "address": "215 Peel Rue",
                        "address_extended": "B123",
                        "country": "CA",
                        "cross_street": "",
                        "formatted_address": "215 Peel Rue, Montr\u00e9al QC H3C 2G6",
                        "locality": "Montreal",
                        "postcode": "H3C 2G6",
                        "region": "QC"
                  },
                  "name": "McDonald's",
                  "popularity": 0.969388720666162,
                  "price": 1,
                  "rating": 6.2,
                  "store_id": "40371"
            },
            {
                  "distance": 150,
                  "location": {
                        "address": "1613 William Rue",
                        "country": "CA",
                        "cross_street": "",
                        "formatted_address": "1613 William Rue, Montr\u00e9al QC H3J 1R1",
                        "locality": "Montreal",
                        "postcode": "H3J 1R1",
                        "region": "QC"
                  },
                  "name": "Petros Griffintown",
                  "popularity": 0.9564132286146858,
                  "price": 2
            },
            {
                  "distance": 218,
                  "location": {
                        "address": "1510 Notre-Dame Rue O",
                        "country": "CA",
                        "cross_street": "",
                        "formatted_address": "1510 Notre-Dame Rue O, Montr\u00e9al QC H3C 1L1",
                        "locality": "Montreal",
                        "postcode": "H3C 1L1",
                        "region": "QC"
                  },
                  "name": "Lime Griffintown",
                  "popularity": 0.9447743186979561,
                  "price": 2
            },
            {
                  "distance": 223,
                  "location": {
                        "address": "1420 Notre-Dame Rue O",
                        "country": "CA",
                        "cross_street": "Versailles",
                        "formatted_address": "1420 Notre-Dame Rue O (Versailles), Montr\u00e9al QC H3C 1K9",
                        "locality": "Montreal",
                        "postcode": "H3C 1K9",
                        "region": "QC"
                  },
                  "name": "Escape Lab",
                  "popularity": 0.9060725775927327,
                  "price": 1
            },
            {
                  "distance": 234,
                  "location": {
                        "address": "1414 Notre-Dame Rue O",
                        "country": "CA",
                        "cross_street": "",
                        "formatted_address": "1414 Notre-Dame Rue O, Montr\u00e9al QC H3C 1K8",
                        "locality": "Montreal",
                        "postcode": "H3C 1K8",
                        "region": "QC"
                  },
                  "name": "Shay",
                  "popularity": 0.9483227668433005,
                  "price": 2
            },
            {
                  "distance": 322,
                  "location": {
                        "address": "248 Rue de la Montagne",
                        "country": "CA",
                        "cross_street": "",
                        "formatted_address": "248 Rue de la Montagne, Montr\u00e9al QC H3C 2A7",
                        "locality": "Montreal",
                        "postcode": "H3C 2A7",
                        "region": "QC"
                  },
                  "name": "Caf\u00e9 Bodega",
                  "popularity": 0.9818910862982589,
                  "price": 1
            },
            {
                  "distance": 390,
                  "location": {
                        "address": "1845 William Rue",
                        "country": "CA",
                        "cross_street": "",
                        "formatted_address": "1845 William Rue, Montr\u00e9al QC H3J 0A5",
                        "locality": "Montreal",
                        "postcode": "H3J 0A5",
                        "region": "QC"
                  },
                  "name": "Le Trou - Fabrique de Bagels Griffintown",
                  "popularity": 0.9281794095382286,
                  "price": 1
            },
            {
                  "distance": 574,
                  "location": {
                        "address": "1986 Notre-Dame Rue O",
                        "country": "CA",
                        "cross_street": "William",
                        "formatted_address": "1986 Notre-Dame Rue O (William), Montreal QC H3J 1M8",
                        "locality": "Montreal",
                        "postcode": "H3J 1M8",
                        "region": "QC"
                  },
                  "name": "La Diperie",
                  "popularity": 0.9300719152157456,
                  "price": 1
            },
            {
                  "distance": 656,
                  "location": {
                        "address": "100 Peel Rue",
                        "address_extended": "Suite 110",
                        "country": "CA",
                        "cross_street": "Wellington",
                        "formatted_address": "100 Peel Rue (Wellington), Montr\u00e9al QC H3C 0L8",
                        "locality": "Montreal",
                        "postcode": "H3C 0L8",
                        "region": "QC"
                  },
                  "name": "K\u00fcto",
                  "popularity": 0.13508942089326267,
                  "price": 2
            }
      ],
      "context": {
            "geo_bounds": {
                  "circle": {
                        "center": {
                              "latitude": 45.48972725,
                              "longitude": -73.56406286
                        },
                        "radius": 1000
                  }
            }
      }
}