{
      "results": [
            {
                  "distance": 864,
                  "location": {
                        "address": "2110 Belanger Rue",
                        "country": "CA",
                        "cross_street": "",
                        "formatted_address": "2110 Belanger Rue, Montr\u00e9al QC H2G 1C2",
                        "locality": "Montreal",
                        "postcode": "H2G 1C2",
                        "region": "QC"
                  },
                  "name": "Paquebot",
                  "popularity": 0.9647520817562453,
                  "price": 1,
                  "rating": 9.2
            },
            {
                  "distance": 690,
                  "location": {
                        "address": "7349 Saint Hubert Rue",
                        "country": "CA",
                        "cross_street": "",
                        "formatted_address": "7349 Saint Hubert Rue, Montr\u00e9al QC H2R 2N4",
                        "locality": "Montreal",
                        "postcode": "H2R 2N4",
                        "region": "QC"
                  },
                  "name": "Mr. Azteca",
                  "popularity": 0.9330762679788039,
                  "price": 1,
                  "rating": 8.5
            },
            {
                  "distance": 969,
                  "location": {
                        "address": "1309 Saint-Zotique Rue E",
                        "country": "CA",
                        "cross_street": "coin Chambord",
                        "formatted_address": "1309 Saint-Zotique Rue E (coin Chambord), Montr\u00e9al QC H2G 1G6",
                        "locality": "Montreal",
                        "postcode": "H2G 1G6",
                        "region": "QC"
                  },
                  "name": "Bar le Jockey",
                  "popularity": 0.9420538417865254,
                  "price": 2,
                  "rating": 8.2
            },
            {
                  "distance": 516,
                  "location": {
                        "address": "1950 Jean-Talon Rue E",
                        "country": "CA",
                        "cross_street": "Chabot",
                        "formatted_address": "1950 Jean-Talon Rue E (Chabot), Montr\u00e9al QC H2E 1T8",
                        "locality": "Montreal",
                        "postcode": "H2E 1T8",
                        "region": "QC"
                  },
                  "name": "Boulangerie & Charcuterie San Pietro",
                  "popularity": 0.953763720666162,
                  "price": 1,
                  "rating": 8.2
            },
            {
                  "distance": 855,
                  "location": {
                        "address": "8115 Papineau Ave",
                        "country": "CA",
                        "cross_street": "coin Jarry Est",
                        "formatted_address": "8115 Papineau Ave (coin Jarry Est), Montr\u00e9al QC H2E 2H7",
                        "locality": "Montreal",
                        "postcode": "H2E 2H7",
                        "region": "QC"
                  },
                  "name": "Tim Hortons",
                  "popularity": 0.9937783875851628,
                  "price": 1,
                  "rating": 8.0
            },
            {
                  "distance": 929,
                  "location": {
                        "address": "519 Faillon Rue E",
                        "country": "CA",
                        "formatted_address": "519 Faillon Rue E, Montr\u00e9al QC H2R 1L6",
                        "locality": "Montreal",
                        "postcode": "H2R 1L6",
                        "region": "QC"
                  },
                  "name": "Daou Restaurant",
                  "popularity": 0.9034112414837244,
                  "price": 2,
                  "rating": 7.5
            },
            {
                  "distance": 417,
                  "location": {
                        "address": "7690 Papineau Ave",
                        "country": "CA",
                        "formatted_address": "7690 Papineau Ave, Montreal QC H2E 2H2",
                        "locality": "Montreal",
                        "postcode": "H2E 2H2",
                        "region": "QC"
                  },
                  "name": "Restaurant Deli-Plus",
                  "popularity": 0.9771243376230129,
                  "price": 1,
                  "rating": 6.6
            },
            {
                  "distance": 780,
                  "location": {
                        "address": "1280 Jarry Rue E",
                        "country": "CA",
                        "cross_street": "",
                        "formatted_address": "1280 Jarry Rue E, Montr\u00e9al QC H2P 1X1",
                        "locality": "Montreal",
                        "postcode": "H2P 1X1",
                        "region": "QC"
                  },
                  "name": "Subway",
                  "popularity": 0.9300955715367146,
                  "price": 1,
                  "rating": 6.4,
                  "store_id": "26612"
            },
            {
                  "distance": 823,
                  "location": {
                        "address": "1700 Jarry Rue E",
                        "country": "CA",
                        "cross_street": "",
                        "formatted_address": "1700 Jarry Rue E, Montr\u00e9al QC H2E 1B3",
                        "locality": "Montreal",
                        "postcode": "H2E 1B3",
                        "region": "QC"
                  },
                  "name": "KFC",
                  "popularity": 0.9714349924299773,
                  "price": 1,
                  "rating": 6.1
            },
            {
                  "distance": 380,
                  "location": {
                        "address": "1370 Villeray Rue",
                        "country": "CA",
                        "cross_street": "",
                        "formatted_address": "1370 Villeray Rue, Montr\u00e9al QC H2E 1G6",
                        "locality": "Montreal",
                        "postcode": "H2E 1G6",
                        "region": "QC"
                  },
                  "name": "Tabac",
                  "popularity": 0.9707489591218774,
                  "price": 1
            },
            {
                  "distance": 416,
                  "location": {
                        "address": "1840 Jean Talon Rue E",
                        "country": "CA",
                        "cross_street": "Papineau",
                        "formatted_address": "1840 Jean Talon Rue E (Papineau), Montr\u00e9al QC H2E 1T5",
                        "locality": "Montreal",
                        "postcode": "H2E 1T5",
                        "region": "QC"
                  },
                  "name": "Dilallo Burger et Bar",
                  "popularity": 0.9578207797123391,
                  "price": 2
            },
            {
                  "distance": 714,
                  "location": {
                        "address": "7245 Saint-Hubert Rue",
                        "country": "CA",
                        "cross_street": "",
                        "formatted_address": "7245 Saint-Hubert Rue, Montr\u00e9al QC H2R 2N2",
                        "locality": "Montreal",
                        "postcode": "H2R 2N2",
                        "region": "QC"
                  },
                  "name": "Restaurant Pachamama",
                  "popularity": 0.9621025738077215,
                  "price": 2
            },
            {
                  "distance": 718,
                  "location": {
                        "address": "7217 Saint-Hubert Rue",
                        "country": "CA",
                        "cross_street": "De Castelnau",
                        "formatted_address": "7217 Saint-Hubert Rue (De Castelnau), Montr\u00e9al QC H2R 2N2",
                        "locality": "Montreal",
                        "postcode": "H2R 2N2",
                        "region": "QC"
                  },
                  "name": "Les Importations Eche",
                  "popularity": 0.9637585162755489,
                  "price": 1
            },
            {
                  "distance": 738,
                  "location": {
                        "address": "7614 Saint-Hubert Rue",
                        "country": "CA",
                        "cross_street": "",
                        "formatted_address": "7614 Saint-Hubert Rue, Montr\u00e9al QC H2R 2N6",
                        "locality": "Montreal",
                        "postcode": "H2R 2N6",
                        "region": "QC"
                  },
                  "name": "Pizzellicoq Restaurant",
                  "popularity": 0.8172076078728236,
                  "price": 2
            },
            {
                  "distance": 748,
                  "location": {
                        "address": "1127 Belanger Rue",
                        "country": "CA",
                        "cross_street": "",
                        "formatted_address": "1127 Belanger Rue, Montr\u00e9al QC H2S 1H6",
                        "locality": "Montreal",
                        "postcode": "H2S 1H6",
                        "region": "QC"
                  },
                  "name": "Le Far Breton",
                  "popularity": 0.6438540878122634,
                  "price": 1
            },
            {
                  "distance": 776,
                  "location": {
                        "address": "1534 Jarry Rue E",
                        "country": "CA",
                        "cross_street": "",
                        "formatted_address": "1534 Jarry Rue E, Montr\u00e9al QC H2E 1A9",
                        "locality": "Montreal",
                        "postcode": "H2E 1A9",
                        "region": "QC"
                  },
                  "name": "Pizza Montreal",
                  "popularity": 0.9646456283118849,
                  "price": 1
            },
            {
                  "distance": 792,
                  "location": {
                        "address": "1660 Jarry Rue E",
                        "country": "CA",
                        "cross_street": "",
                        "formatted_address": "1660 Jarry Rue E, Montr\u00e9al QC H2E 1B3",
                        "locality": "Montreal",
                        "postcode": "H2E 1B3",
                        "region": "QC"
                  },
                  "name": "Le Gras Dur",
                  "popularity": 0.8562287093111279,
                  "price": 2
            },
            {
                  "distance": 856,
                  "location": {
                        "address": "7046 Saint-Hubert Rue",
                        "country": "CA",
                        "cross_street": "",
                        "formatted_address": "7046 Saint-Hubert Rue, Montr\u00e9al QC H2S 2M9",
                        "locality": "Montreal",
                        "postcode": "H2S 2M9",
                        "region": "QC"
                  },
                  "name": "Domino's Pizza",
                  "popularity": 0.9229868470855412,
                  "price": 1,
                  "store_id": "10710"
            },
            {
                  "distance": 981,
                  "location": {
                        "address": "426 Faillon Rue E",
                        "country": "CA",
                        "cross_street": "Berri",
                        "formatted_address": "426 Faillon Rue E (Berri), Montr\u00e9al QC H2R 1L4",
                        "locality": "Montreal",
                        "postcode": "H2R 1L4",
                        "region": "QC"
                  },
                  "name": "Caf\u00e9 Coquetel",
                  "popularity": 0.9526873580620742,
                  "price": 1
            },
            {
                  "distance": 1001,
                  "location": {
                        "address": "1251 St Zotique",
                        "country": "CA",
                        "cross_street": "De Normanville",
                        "formatted_address": "1251 St Zotique (De Normanville), Montr\u00e9al QC",
                        "locality": "Montreal",
                        "region": "QC"
                  },
                  "name": "Le Norman Zotique",
                  "popularity": 0.7669615821347464,
                  "price": 1
            },
            {
                  "distance": 358,
                  "location": {
                        "address": "7203 Papineau Ave",
                        "country": "CA",
                        "formatted_address": "7203 Papineau Ave, Montreal QC H2E 2G7",
                        "locality": "Montreal",
                        "postcode": "H2E 2G7",
                        "region": "QC"
                  },
                  "name": "El Chasqui Latino"
            },
            {
                  "distance": 587,
                  "location": {
                        "address": "7481 Ave de Lorimier",
                        "country": "CA",
                        "formatted_address": "7481 Ave de Lorimier, Montreal QC H2E 2P4",
                        "locality": "Montreal",
                        "postcode": "H2E 2P4",
                        "region": "QC"
                  },
                  "name": "Restaurant Pizza & Pasta"
            },
            {
                  "distance": 666,
                  "location": {
                        "address": "7429 Saint-Hubert Rue",
                        "country": "CA",
                        "formatted_address": "7429 Saint-Hubert Rue, Montreal QC H2R 2N4",
                        "locality": "Montreal",
                        "postcode": "H2R 2N4",
                        "region": "QC"
                  },
                  "name": "Bistro Bar Bizzwack"
            },
            {
                  "distance": 698,
                  "location": {
                        "address": "7450 Saint-Hubert Rue",
                        "country": "CA",
                        "formatted_address": "7450 Saint-Hubert Rue, Montreal QC H2R 2N3",
                        "locality": "Montreal",
                        "postcode": "H2R 2N3",
                        "region": "QC"
                  },
                  "name": "Paraiso Tropical"
            },
            {
                  "distance": 704,
                  "location": {
                        "address": "1268 rue B\u00e9langer",
                        "country": "CA",
                        "formatted_address": "1268 rue B\u00e9langer, Montreal QC H2S 1H9",
                        "locality": "Montreal",
                        "postcode": "H2S 1H9",
                        "region": "QC"
                  },
                  "name": "Le Cake Studio"
            },
            {
                  "distance": 718,
                  "location": {
                        "address": "1238 Belanger Rue",
                        "country": "CA",
                        "formatted_address": "1238 Belanger Rue, Montreal QC H2S 1H8",
                        "locality": "Montreal",
                        "postcode": "H2S 1H8",
                        "region": "QC"
                  },
                  "name": "Club Helios Inc"
            },
            {
                  "distance": 723,
                  "location": {
                        "address": "1828 Belanger Rue",
                        "country": "CA",
                        "formatted_address": "1828 Belanger Rue, Montreal QC H2G 1B4",
                        "locality": "Montreal",
                        "postcode": "H2G 1B4",
                        "region": "QC"
                  },
                  "name": "Restaurant Chez Flore"
            },
            {
                  "distance": 729,
                  "location": {
                        "address": "1224 Belanger Rue",
                        "country": "CA",
                        "formatted_address": "1224 Belanger Rue, Montreal QC H2S 1H8",
                        "locality": "Montreal",
                        "postcode": "H2S 1H8",
                        "region": "QC"
                  },
                  "name": "Le Panivore"
            },
            {
                  "distance": 731,
                  "location": {
                        "address": "7183 Saint-Hubert Rue",
                        "country": "CA",
                        "formatted_address": "7183 Saint-Hubert Rue, Montreal QC H2R 2N2",
                        "locality": "Montreal",
                        "postcode": "H2R 2N2",
                        "region": "QC"
                  },
                  "name": "Restaurant El Jibaro"
            },
            {
                  "distance": 745,
                  "location": {
                        "address": "7163 Saint-Hubert Rue",
                        "country": "CA",
                        "formatted_address": "7163 Saint-Hubert Rue, Montreal QC H2R 2N2",
                        "locality": "Montreal",
                        "postcode": "H2R 2N2",
                        "region": "QC"
                  },
                  "name": "Pho Vinh Vinh"
            },
            {
                  "distance": 747,
                  "location": {
                        "address": "1212 Belanger Rue",
                        "country": "CA",
                        "formatted_address": "1212 Belanger Rue, Montreal QC H2S 1H8",
                        "locality": "Montreal",
                        "postcode": "H2S 1H8",
                        "region": "QC"
                  },
                  "name": "Roseville cafe bar"
            },
            {
                  "distance": 767,
                  "location": {
                        "address": "1190 Belanger Rue",
                        "country": "CA",
                        "formatted_address": "1190 Belanger Rue, Montreal QC H2S 1H4",
                        "locality": "Montreal",
                        "postcode": "H2S 1H4",
                        "region": "QC"
                  },
                  "name": "Restaurant l'Elysee Enr"
            },
            {
                  "distance": 782,
                  "location": {
                        "address": "1590 Jarry Rue E",
                        "country": "CA",
                        "formatted_address": "1590 Jarry Rue E, Montreal QC H2E 1B2",
                        "locality": "Montreal",
                        "postcode": "H2E 1B2",
                        "region": "QC"
                  },
                  "name": "Caf\u00e9 Bar Cosenza"
            },
            {
                  "distance": 957,
                  "location": {
                        "address": "432 rue de Castelnau E",
                        "country": "CA",
                        "formatted_address": "432 rue de Castelnau E, Montreal QC H2R 1R3",
                        "locality": "Montreal",
                        "postcode": "H2R 1R3",
                        "region": "QC"
                  },
                  "name": "Caf\u00e9 le Caf\u00e9 Boutique Ferlucci"
            }
      ],
      "context": {
            "geo_bounds": {
                  "circle": {
                        "center": {
                              "latitude": 45.54758153,
                              "longitude": -73.61220852
                        },
                        "radius": 1000
                  }
            }
      }
}