{
      "results": [
            {
                  "distance": 704,
                  "location": {
                        "address": "2059 Saint-Martin Blvd O",
                        "country": "CA",
                        "cross_street": "at Rue Maurice Gauvin",
                        "formatted_address": "2059 Saint-Martin Blvd O (at Rue Maurice Gauvin), Laval QC H7S 1N3",
                        "locality": "Laval",
                        "postcode": "H7S 1N3",
                        "region": "QC"
                  },
                  "name": "Bottega Pizzeria",
                  "popularity": 0.8805677050789967,
                  "price": 2,
                  "rating": 7.6
            },
            {
                  "distance": 670,
                  "location": {
                        "address": "2021 Saint-Martin Blvd O",
                        "country": "CA",
                        "cross_street": "",
                        "formatted_address": "2021 Saint-Martin Blvd O, Laval QC H7S 1N3",
                        "locality": "Laval",
                        "postcode": "H7S 1N3",
                        "region": "QC"
                  },
                  "name": "A&W Restaurant",
                  "popularity": 0.9274301526376864,
                  "price": 1,
                  "rating": 7.5,
                  "store_id": "5285"
            },
            {
                  "distance": 456,
                  "location": {
                        "address": "2125 le Carref Blvd",
                        "country": "CA",
                        "cross_street": "boul. le Corbusier",
                        "formatted_address": "2125 le Carref Blvd (boul. le Corbusier), Laval QC H7S 2J7",
                        "locality": "Laval",
                        "postcode": "H7S 2J7",
                        "region": "QC"
                  },
                  "name": "Steak Frites St-Paul",
                  "popularity": 0.9071677229313577,
                  "price": 2,
                  "rating": 7.2
            },
            {
                  "distance": 445,
                  "location": {
                        "address": "2121 le Carref Blvd",
                        "country": "CA",
                        "formatted_address": "2121 le Carref Blvd, Laval QC H7S 2J7",
                        "locality": "Laval",
                        "postcode": "H7S 2J7",
                        "region": "QC"
                  },
                  "name": "Giorgio",
                  "popularity": 0.8649468892261002,
                  "price": 2,
                  "rating": 6.8
            },
            {
                  "distance": 996,
                  "location": {
                        "address": "1459 Saint-Martin Blvd O",
                        "country": "CA",
                        "formatted_address": "1459 Saint-Martin Blvd O, Laval QC H7S 1N1",
                        "locality": "Laval",
                        "postcode": "H7S 1N1",
                        "region": "QC"
                  },
                  "name": "Restaurant Ottavio",
                  "popularity": 0.9750066946353655,
                  "price": 3,
                  "rating": 6.5
            },
            {
                  "distance": 650,
                  "location": {
                        "address": "1849 St Martin Blvd O",
                        "country": "CA",
                        "cross_street": "",
                        "formatted_address": "1849 St Martin Blvd O, Laval QC H7S 1N2",
                        "locality": "Laval",
                        "postcode": "H7S 1N2",
                        "region": "QC"
                  },
                  "name": "Tim Hortons",
                  "popularity": 0.9863429438543247,
                  "price": 1,
                  "rating": 6.4
            },
            {
                  "distance": 788,
                  "location": {
                        "address": "1678 Saint-Martin Blvd O",
                        "country": "CA",
                        "formatted_address": "1678 Saint-Martin Blvd O, Laval QC H7S 1M9",
                        "locality": "Laval",
                        "postcode": "H7S 1M9",
                        "region": "QC"
                  },
                  "name": "Sushi Shop",
                  "popularity": 0.8417388199589396,
                  "price": 2,
                  "rating": 6.3
            },
            {
                  "distance": 734,
                  "location": {
                        "address": "1785 Sainte Martin Blvd O",
                        "country": "CA",
                        "cross_street": "",
                        "formatted_address": "1785 Sainte Martin Blvd O, Laval QC H7S 1N2",
                        "locality": "Laval",
                        "postcode": "H7S 1N2",
                        "region": "QC"
                  },
                  "name": "Pizza Pizza",
                  "popularity": 0.8631616531286262,
                  "price": 1,
                  "rating": 6.1,
                  "store_id": "315"
            },
            {
                  "distance": 929,
                  "location": {
                        "address": "1505 St Martin Blvd O",
                        "country": "CA",
                        "cross_street": "",
                        "formatted_address": "1505 St Martin Blvd O, Laval QC H7S 1N2",
                        "locality": "Laval",
                        "postcode": "H7S 1N2",
                        "region": "QC"
                  },
                  "name": "Burger King",
                  "popularity": 0.9428724448808354,
                  "price": 1,
                  "rating": 5.6,
                  "store_id": "1716"
            },
            {
                  "distance": 625,
                  "location": {
                        "address": "2005 Saint-Martin Blvd O",
                        "country": "CA",
                        "cross_street": "coin Le Corbusier",
                        "formatted_address": "2005 Saint-Martin Blvd O (coin Le Corbusier), Laval QC H7S 1N3",
                        "locality": "Laval",
                        "postcode": "H7S 1N3",
                        "region": "QC"
                  },
                  "name": "McDonald's",
                  "popularity": 0.9977684548781577,
                  "price": 1,
                  "rating": 5.5
            },
            {
                  "distance": 147,
                  "location": {
                        "address": "2100 le Corbusier Blvd",
                        "address_extended": "# 7",
                        "country": "CA",
                        "formatted_address": "2100 le Corbusier Blvd, Laval QC H7S 2C9",
                        "locality": "Laval",
                        "postcode": "H7S 2C9",
                        "region": "QC"
                  },
                  "name": "Restaurant Charme Cochinchine",
                  "popularity": 0.8489690261537088,
                  "price": 2
            },
            {
                  "distance": 359,
                  "location": {
                        "address": "2405 le Corbusier Blvd",
                        "country": "CA",
                        "cross_street": "",
                        "formatted_address": "2405 le Corbusier Blvd, Laval QC H7S 1Z4",
                        "locality": "Laval",
                        "postcode": "H7S 1Z4",
                        "region": "QC"
                  },
                  "name": "La Belle Province",
                  "popularity": 0.9716147460501652,
                  "price": 1
            },
            {
                  "distance": 471,
                  "location": {
                        "address": "2133 le Carref Blvd",
                        "country": "CA",
                        "cross_street": "",
                        "formatted_address": "2133 le Carref Blvd, Laval QC H7S 2J7",
                        "locality": "Laval",
                        "postcode": "H7S 2J7",
                        "region": "QC"
                  },
                  "name": "Gon Bui Restaurant Bar",
                  "popularity": 0.8928858341515665,
                  "price": 1
            },
            {
                  "distance": 499,
                  "location": {
                        "address": "2225 des Laurentides (a-15 Desste E",
                        "country": "CA",
                        "cross_street": "",
                        "formatted_address": "2225 des Laurentides (a-15 Desste E, Laval QC H7S 1Z6",
                        "locality": "Laval",
                        "postcode": "H7S 1Z6",
                        "region": "QC"
                  },
                  "name": "Le Quartz",
                  "popularity": 0.8372757297152549,
                  "price": 3
            },
            {
                  "distance": 637,
                  "location": {
                        "address": "1925 Saint-Martin Blvd O",
                        "country": "CA",
                        "cross_street": "",
                        "formatted_address": "1925 Saint-Martin Blvd O, Laval QC H7S 1N2",
                        "locality": "Laval",
                        "postcode": "H7S 1N2",
                        "region": "QC"
                  },
                  "name": "Harvey's",
                  "popularity": 0.9247522984914754,
                  "price": 2,
                  "store_id": "2296"
            },
            {
                  "distance": 681,
                  "location": {
                        "address": "2900 le Carref Blvd",
                        "country": "CA",
                        "cross_street": "",
                        "formatted_address": "2900 le Carref Blvd, Laval QC H7T 2K9",
                        "locality": "Laval",
                        "postcode": "H7T 2K9",
                        "region": "QC"
                  },
                  "name": "Chez Lionel",
                  "popularity": 0.9343925734178345,
                  "price": 2
            },
            {
                  "distance": 812,
                  "location": {
                        "address": "1670 Saint-Martin Blvd O",
                        "country": "CA",
                        "cross_street": "",
                        "formatted_address": "1670 Saint-Martin Blvd O, Laval QC H7S 1M9",
                        "locality": "Laval",
                        "postcode": "H7S 1M9",
                        "region": "QC"
                  },
                  "name": "Philinos",
                  "popularity": 0.9198428992234223,
                  "price": 2
            },
            {
                  "distance": 841,
                  "location": {
                        "address": "1636 Saint-Martin Blvd O",
                        "country": "CA",
                        "cross_street": "",
                        "formatted_address": "1636 Saint-Martin Blvd O, Laval QC H7S 1M9",
                        "locality": "Laval",
                        "postcode": "H7S 1M9",
                        "region": "QC"
                  },
                  "name": "Pho Mymy",
                  "popularity": 0.8692314558600375,
                  "price": 2
            },
            {
                  "distance": 863,
                  "location": {
                        "address": "1630 Saint-Martin Blvd O",
                        "country": "CA",
                        "cross_street": "",
                        "formatted_address": "1630 Saint-Martin Blvd O, Laval QC H7S 1M9",
                        "locality": "Laval",
                        "postcode": "H7S 1M9",
                        "region": "QC"
                  },
                  "name": "Toujours Mikes",
                  "popularity": 0.9271623672230652,
                  "price": 2,
                  "store_id": "MK-0088"
            },
            {
                  "distance": 944,
                  "location": {
                        "address": "1659 Blvd de l'Avenir",
                        "country": "CA",
                        "cross_street": "",
                        "formatted_address": "1659 Blvd de l'Avenir, Laval QC H7S 2N5",
                        "locality": "Laval",
                        "postcode": "H7S 2N5",
                        "region": "QC"
                  },
                  "name": "Domino's Pizza",
                  "popularity": 0.8765509238596805,
                  "price": 1,
                  "store_id": "10692"
            },
            {
                  "distance": 969,
                  "location": {
                        "address": "2888 Ave du Cosmod\u00f4me",
                        "country": "CA",
                        "cross_street": "",
                        "formatted_address": "2888 Ave du Cosmod\u00f4me, Laval QC H7T 2X1",
                        "locality": "Laval",
                        "postcode": "H7T 2X1",
                        "region": "QC"
                  },
                  "name": "Pizza Gourmande",
                  "popularity": 0.5411050611443363,
                  "price": 2
            },
            {
                  "distance": 973,
                  "location": {
                        "address": "1639 Blvd de l'Avenir",
                        "country": "CA",
                        "cross_street": "",
                        "formatted_address": "1639 Blvd de l'Avenir, Laval QC H7S 2N5",
                        "locality": "Laval",
                        "postcode": "H7S 2N5",
                        "region": "QC"
                  },
                  "name": "House of Jazz Laval",
                  "popularity": 0.9197536374185487
            },
            {
                  "distance": 467,
                  "location": {
                        "address": "2225 des Laurentides (a-15 Desste E",
                        "country": "CA",
                        "formatted_address": "2225 des Laurentides (a-15 Desste E, Laval QC H7S 1Z6",
                        "locality": "Laval",
                        "postcode": "H7S 1Z6",
                        "region": "QC"
                  },
                  "name": "Hotel President Laval"
            },
            {
                  "distance": 616,
                  "location": {
                        "address": "1803 Saint-Martin Blvd O",
                        "country": "CA",
                        "formatted_address": "1803 Saint-Martin Blvd O, Laval QC H7S 1N2",
                        "locality": "Laval",
                        "postcode": "H7S 1N2",
                        "region": "QC"
                  },
                  "name": "Restaurant Mirage New York"
            },
            {
                  "distance": 636,
                  "location": {
                        "address": "1775 Saint-Martin Blvd O",
                        "country": "CA",
                        "formatted_address": "1775 Saint-Martin Blvd O, Laval QC H7S 1N2",
                        "locality": "Laval",
                        "postcode": "H7S 1N2",
                        "region": "QC"
                  },
                  "name": "K\u00d2I Noodle Bar"
            },
            {
                  "distance": 676,
                  "location": {
                        "address": "2021 Saint-Martin Blvd O",
                        "country": "CA",
                        "formatted_address": "2021 Saint-Martin Blvd O, Laval QC H7S 1N3",
                        "locality": "Laval",
                        "postcode": "H7S 1N3",
                        "region": "QC"
                  },
                  "name": "Restaurant a & W le Corbusier"
            },
            {
                  "distance": 682,
                  "location": {
                        "address": "2055 Saint-Martin Blvd O",
                        "country": "CA",
                        "formatted_address": "2055 Saint-Martin Blvd O, Laval QC H7S 1N3",
                        "locality": "Laval",
                        "postcode": "H7S 1N3",
                        "region": "QC"
                  },
                  "name": "Boulangerie Au Pain Dore Ltee"
            },
            {
                  "distance": 755,
                  "location": {
                        "address": "1707 Saint-Martin Blvd O",
                        "country": "CA",
                        "formatted_address": "1707 Saint-Martin Blvd O, Laval QC H7S 1N2",
                        "locality": "Laval",
                        "postcode": "H7S 1N2",
                        "region": "QC"
                  },
                  "name": "Restaurant Calvi's"
            },
            {
                  "distance": 755,
                  "location": {
                        "address": "1677 Saint-Martin Blvd O",
                        "country": "CA",
                        "formatted_address": "1677 Saint-Martin Blvd O, Laval QC H7S 1N2",
                        "locality": "Laval",
                        "postcode": "H7S 1N2",
                        "region": "QC"
                  },
                  "name": "Cafe Depot"
            },
            {
                  "distance": 819,
                  "location": {
                        "address": "1599 Saint-Martin Blvd O",
                        "country": "CA",
                        "formatted_address": "1599 Saint-Martin Blvd O, Laval QC H7S 1N1",
                        "locality": "Laval",
                        "postcode": "H7S 1N1",
                        "region": "QC"
                  },
                  "name": "Brulerie St Denis"
            },
            {
                  "distance": 916,
                  "location": {
                        "address": "1600 le Corbusier Blvd",
                        "country": "CA",
                        "formatted_address": "1600 le Corbusier Blvd, Laval QC H7S 1Y9",
                        "locality": "Laval",
                        "postcode": "H7S 1Y9",
                        "region": "QC"
                  },
                  "name": "Cremiere-Queues de Castor"
            },
            {
                  "distance": 945,
                  "location": {
                        "address": "3003 le Carref Blvd",
                        "country": "CA",
                        "formatted_address": "3003 le Carref Blvd, Laval QC H7T 1C7",
                        "locality": "Laval",
                        "postcode": "H7T 1C7",
                        "region": "QC"
                  },
                  "name": "Teriyaki Experience"
            },
            {
                  "distance": 970,
                  "location": {
                        "address": "1400 le Corbusier Blvd",
                        "country": "CA",
                        "formatted_address": "1400 le Corbusier Blvd, Laval QC H7N 6J5",
                        "locality": "Laval",
                        "postcode": "H7N 6J5",
                        "region": "QC"
                  },
                  "name": "Harvey's"
            },
            {
                  "distance": 997,
                  "location": {
                        "address": "1600 le Corbusier Blvd",
                        "country": "CA",
                        "formatted_address": "1600 le Corbusier Blvd, Laval QC H7S 1Y9",
                        "locality": "Laval",
                        "postcode": "H7S 1Y9",
                        "region": "QC"
                  },
                  "name": "Caf\u00e9 VERACRUZ"
            },
            {
                  "distance": 997,
                  "location": {
                        "address": "1600 le Corbusier Blvd",
                        "country": "CA",
                        "formatted_address": "1600 le Corbusier Blvd, Laval QC H7S 1Y9",
                        "locality": "Laval",
                        "postcode": "H7S 1Y9",
                        "region": "QC"
                  },
                  "name": "9216-5430 Quebec Inc"
            }
      ],
      "context": {
            "geo_bounds": {
                  "circle": {
                        "center": {
                              "latitude": 45.57072661,
                              "longitude": -73.73708602
                        },
                        "radius": 1000
                  }
            }
      }
}