{
      "results": [
            {
                  "distance": 780,
                  "location": {
                        "address": "4160 Sainte-Catherine Rue O",
                        "country": "CA",
                        "cross_street": "Greene",
                        "formatted_address": "4160 Sainte-Catherine Rue O (Greene), Westmount QC H3Z 1P4",
                        "locality": "Westmount",
                        "postcode": "H3Z 1P4",
                        "region": "QC"
                  },
                  "name": "Bagels on Greene",
                  "popularity": 0.9801611903285803,
                  "price": 1,
                  "rating": 8.3
            },
            {
                  "distance": 675,
                  "location": {
                        "address": "378 Victoria Ave",
                        "country": "CA",
                        "formatted_address": "378 Victoria Ave, Westmount QC H3Z 2N4",
                        "locality": "Westmount",
                        "postcode": "H3Z 2N4",
                        "region": "QC"
                  },
                  "name": "Park Restaurant",
                  "popularity": 0.9417234965902046,
                  "price": 2,
                  "rating": 8.1
            },
            {
                  "distance": 916,
                  "location": {
                        "address": "4943 Sherbrooke St W",
                        "country": "CA",
                        "formatted_address": "4943 Sherbrooke St W, Montr\u00e9al QC H2Z 1H2",
                        "locality": "Montreal",
                        "postcode": "H2Z 1H2",
                        "region": "QC"
                  },
                  "name": "Starbucks",
                  "popularity": 0.972101673899566,
                  "price": 1,
                  "rating": 7.4,
                  "store_id": "831"
            },
            {
                  "distance": 254,
                  "location": {
                        "address": "4435 Sainte-Catherine Rue O",
                        "country": "CA",
                        "cross_street": "",
                        "formatted_address": "4435 Sainte-Catherine Rue O, Westmount QC H3Z 1R5",
                        "locality": "Westmount",
                        "postcode": "H3Z 1R5",
                        "region": "QC"
                  },
                  "name": "Nagoya Sushi",
                  "popularity": 0.9423434593924365,
                  "price": 2,
                  "rating": 6.7
            },
            {
                  "distance": 756,
                  "location": {
                        "address": "1232 Greene Ave",
                        "country": "CA",
                        "cross_street": "Ste-Catherine",
                        "formatted_address": "1232 Greene Ave (Ste-Catherine), Montr\u00e9al QC H3Z 2A3",
                        "locality": "Montreal",
                        "postcode": "H3Z 2A3",
                        "region": "QC"
                  },
                  "name": "Restaurant Kashima",
                  "popularity": 0.14135151890886546,
                  "price": 2,
                  "rating": 6.6
            },
            {
                  "distance": 955,
                  "location": {
                        "address": "4005 Notre-Dame Rue O",
                        "country": "CA",
                        "cross_street": "",
                        "formatted_address": "4005 Notre-Dame Rue O, Montr\u00e9al QC H4C 1R3",
                        "locality": "Montreal",
                        "postcode": "H4C 1R3",
                        "region": "QC"
                  },
                  "name": "Paperplane MTL",
                  "popularity": 0.8468489780469342,
                  "price": 2,
                  "rating": 6.2
            },
            {
                  "distance": 636,
                  "location": {
                        "address": "357 Victoria Ave",
                        "country": "CA",
                        "cross_street": "Sommerville",
                        "formatted_address": "357 Victoria Ave (Sommerville), Westmount QC H3Z 2N1",
                        "locality": "Westmount",
                        "postcode": "H3Z 2N1",
                        "region": "QC"
                  },
                  "name": "Importations Cafe Creme",
                  "popularity": 0.8642281463112214,
                  "price": 1,
                  "rating": 6.0
            },
            {
                  "distance": 967,
                  "location": {
                        "address": "5011 Sherbrooke Rue O",
                        "country": "CA",
                        "formatted_address": "5011 Sherbrooke Rue O, Westmount QC H3Z 1H5",
                        "locality": "Westmount",
                        "postcode": "H3Z 1H5",
                        "region": "QC"
                  },
                  "name": "McDonald's",
                  "popularity": 0.9869807811531308,
                  "price": 1,
                  "rating": 5.0,
                  "store_id": "40002"
            },
            {
                  "distance": 236,
                  "location": {
                        "address": "4419 Sainte-Catherine Rue O",
                        "country": "CA",
                        "cross_street": "Kensington",
                        "formatted_address": "4419 Sainte-Catherine Rue O (Kensington), Westmount QC H3Z 1R5",
                        "locality": "Westmount",
                        "postcode": "H3Z 1R5",
                        "region": "QC"
                  },
                  "name": "Copparoma Cafe",
                  "popularity": 0.8667079975201488,
                  "price": 1
            },
            {
                  "distance": 300,
                  "location": {
                        "address": "4675 Sainte-Catherine Rue O",
                        "country": "CA",
                        "cross_street": "",
                        "formatted_address": "4675 Sainte-Catherine Rue O, Westmount QC H3Z 1S4",
                        "locality": "Westmount",
                        "postcode": "H3Z 1S4",
                        "region": "QC"
                  },
                  "name": "Mouton Noir Traiteur & Cafe",
                  "popularity": 0.9404835709857409,
                  "price": 1
            },
            {
                  "distance": 530,
                  "location": {
                        "address": "1025 Lenoir Rue",
                        "country": "CA",
                        "cross_street": "",
                        "formatted_address": "1025 Lenoir Rue, Montr\u00e9al QC H4C 2Z6",
                        "locality": "Montreal",
                        "postcode": "H4C 2Z6",
                        "region": "QC"
                  },
                  "name": "Gia vin & grill",
                  "popularity": 0.9663961960635882,
                  "price": 2
            },
            {
                  "distance": 694,
                  "location": {
                        "address": "374 Victoria Ave",
                        "country": "CA",
                        "cross_street": "",
                        "formatted_address": "374 Victoria Ave, Westmount QC H3Z 2N4",
                        "locality": "Westmount",
                        "postcode": "H3Z 2N4",
                        "region": "QC"
                  },
                  "name": "Bistro la Franquette",
                  "popularity": 0.4066955982641042
            },
            {
                  "distance": 698,
                  "location": {
                        "address": "1386 Greene Ave",
                        "country": "CA",
                        "cross_street": "Sherbrooke",
                        "formatted_address": "1386 Greene Ave (Sherbrooke), Westmount QC H3Z 2B1",
                        "locality": "Westmount",
                        "postcode": "H3Z 2B1",
                        "region": "QC"
                  },
                  "name": "Avenue G",
                  "popularity": 0.9057656540607564,
                  "price": 1
            },
            {
                  "distance": 702,
                  "location": {
                        "address": "1308 Greene Ave",
                        "country": "CA",
                        "cross_street": "De Maisonneuve",
                        "formatted_address": "1308 Greene Ave (De Maisonneuve), Westmount QC H3Z 2B1",
                        "locality": "Westmount",
                        "postcode": "H3Z 2B1",
                        "region": "QC"
                  },
                  "name": "L'Art Glacier",
                  "popularity": 0.8493490390576566,
                  "price": 1
            },
            {
                  "distance": 733,
                  "location": {
                        "address": "351 Prince Albert Ave",
                        "country": "CA",
                        "cross_street": "",
                        "formatted_address": "351 Prince Albert Ave, Westmount QC H3Z 2N9",
                        "locality": "Westmount",
                        "postcode": "H3Z 2N9",
                        "region": "QC"
                  },
                  "name": "Toucheh",
                  "popularity": 0.9355238685678859,
                  "price": 2
            },
            {
                  "distance": 788,
                  "location": {
                        "address": "4896 Sherbrooke Rue O",
                        "country": "CA",
                        "cross_street": "",
                        "formatted_address": "4896 Sherbrooke Rue O, Westmount QC H3Z 1H1",
                        "locality": "Westmount",
                        "postcode": "H3Z 1H1",
                        "region": "QC"
                  },
                  "name": "Aux Vivres Westmount",
                  "popularity": 0.9392436453812771,
                  "price": 2
            },
            {
                  "distance": 829,
                  "location": {
                        "address": "1 Westmount Car",
                        "country": "CA",
                        "cross_street": "",
                        "formatted_address": "1 Westmount Car, Westmount QC H3Z 2P9",
                        "locality": "Westmount",
                        "postcode": "H3Z 2P9",
                        "region": "QC"
                  },
                  "name": "Sushi Bar Kim",
                  "popularity": 0.9311841289522629,
                  "price": 2
            },
            {
                  "distance": 834,
                  "location": {
                        "address": "4922 Sherbrooke Rue O",
                        "country": "CA",
                        "cross_street": "",
                        "formatted_address": "4922 Sherbrooke Rue O, Westmount QC H3Z 1H3",
                        "locality": "Westmount",
                        "postcode": "H3Z 1H3",
                        "region": "QC"
                  },
                  "name": "La Sobremesa",
                  "popularity": 0.8735275883446993,
                  "price": 2
            },
            {
                  "distance": 903,
                  "location": {
                        "address": "4114 Sainte Catherine Rue O",
                        "country": "CA",
                        "cross_street": "",
                        "formatted_address": "4114 Sainte Catherine Rue O, Westmount QC H3Z 1P2",
                        "locality": "Westmount",
                        "postcode": "H3Z 1P2",
                        "region": "QC"
                  },
                  "name": "Balos",
                  "popularity": 0.949163050216987,
                  "price": 2
            },
            {
                  "distance": 909,
                  "location": {
                        "address": "4090 Sainte-Catherine St O",
                        "country": "CA",
                        "cross_street": "",
                        "formatted_address": "4090 Sainte-Catherine St O, Westmount QC H3Z 1P2",
                        "locality": "Westmount",
                        "postcode": "H3Z 1P2",
                        "region": "QC"
                  },
                  "name": "Kinton",
                  "popularity": 0.9504029758214507
            },
            {
                  "distance": 954,
                  "location": {
                        "address": "4084 Sainte-Catherine Rue O",
                        "country": "CA",
                        "cross_street": "Av. Wood",
                        "formatted_address": "4084 Sainte-Catherine Rue O (Av. Wood), Westmount QC H3Z 1P2",
                        "locality": "Westmount",
                        "postcode": "H3Z 1P2",
                        "region": "QC"
                  },
                  "name": "Presse Caf\u00e9",
                  "popularity": 0.05703657780533168,
                  "price": 1
            },
            {
                  "distance": 955,
                  "location": {
                        "address": "Pl Alexis Nihon Plaza",
                        "country": "CA",
                        "cross_street": "Atwater et Ste. Catherine O.",
                        "formatted_address": "Pl Alexis Nihon Plaza (Atwater et Ste. Catherine O.), Montr\u00e9al QC",
                        "locality": "Montreal",
                        "region": "QC"
                  },
                  "name": "Yeh! Yogourt Glac\u00e9 et Caf\u00e9",
                  "popularity": 0.24658166161998485,
                  "price": 1
            },
            {
                  "distance": 969,
                  "location": {
                        "address": "3981 Notre-Dame Rue O",
                        "country": "CA",
                        "cross_street": "",
                        "formatted_address": "3981 Notre-Dame Rue O, Montr\u00e9al QC H4C 1R2",
                        "locality": "Montreal",
                        "postcode": "H4C 1R2",
                        "region": "QC"
                  },
                  "name": "Bucky Rooster's",
                  "popularity": 0.9383752838758517,
                  "price": 1
            },
            {
                  "distance": 974,
                  "location": {
                        "address": "4050 Ste",
                        "country": "CA",
                        "cross_street": "Wood",
                        "formatted_address": "4050 Ste (Wood), Westmount QC",
                        "locality": "Westmount",
                        "region": "QC"
                  },
                  "name": "Chine Toque",
                  "popularity": 0.9256044637321761,
                  "price": 1
            },
            {
                  "distance": 976,
                  "location": {
                        "address": "5003 Sherbrooke Rue O",
                        "country": "CA",
                        "cross_street": "",
                        "formatted_address": "5003 Sherbrooke Rue O, Westmount QC H3Z 1H5",
                        "locality": "Westmount",
                        "postcode": "H3Z 1H5",
                        "region": "QC"
                  },
                  "name": "Copper Branch",
                  "popularity": 0.8146311221326721,
                  "price": 2
            },
            {
                  "distance": 998,
                  "location": {
                        "address": "4293 Notre-Dame Rue O",
                        "country": "CA",
                        "cross_street": "",
                        "formatted_address": "4293 Notre-Dame Rue O, Montr\u00e9al QC H4C 1R7",
                        "locality": "Montreal",
                        "postcode": "H4C 1R7",
                        "region": "QC"
                  },
                  "name": "Pikeos",
                  "popularity": 0.8117311695685087,
                  "price": 2
            },
            {
                  "distance": 473,
                  "location": {
                        "address": "115 ch de la C\u00f4te-Saint-Antoine",
                        "country": "CA",
                        "formatted_address": "115 ch de la C\u00f4te-Saint-Antoine, Westmount QC H3Y 2H9",
                        "locality": "Westmount",
                        "postcode": "H3Y 2H9",
                        "region": "QC"
                  },
                  "name": "Bec Sucr\u00e9"
            },
            {
                  "distance": 613,
                  "location": {
                        "address": "4785 Sherbrooke Rue O",
                        "country": "CA",
                        "formatted_address": "4785 Sherbrooke Rue O, Westmount QC H3Z 1G5",
                        "locality": "Westmount",
                        "postcode": "H3Z 1G5",
                        "region": "QC"
                  },
                  "name": "Pizza Restaurant"
            },
            {
                  "distance": 660,
                  "location": {
                        "address": "4354 Saint-Antoine Rue O",
                        "country": "CA",
                        "formatted_address": "4354 Saint-Antoine Rue O, Montreal QC H4C 1C8",
                        "locality": "Montreal",
                        "postcode": "H4C 1C8",
                        "region": "QC"
                  },
                  "name": "Mtlsamosa"
            },
            {
                  "distance": 705,
                  "location": {
                        "address": "392 Victoria Ave",
                        "country": "CA",
                        "formatted_address": "392 Victoria Ave, Westmount QC H3Z 2N4",
                        "locality": "Westmount",
                        "postcode": "H3Z 2N4",
                        "region": "QC"
                  },
                  "name": "Spirulina"
            },
            {
                  "distance": 721,
                  "location": {
                        "address": "1232 Greene Ave",
                        "country": "CA",
                        "formatted_address": "1232 Greene Ave, Westmount QC H3Z 2A3",
                        "locality": "Westmount",
                        "postcode": "H3Z 2A3",
                        "region": "QC"
                  },
                  "name": "Restaurant Kasima Sushi Topia Ltee"
            },
            {
                  "distance": 724,
                  "location": {
                        "address": "4864 Sherbrooke Rue O",
                        "country": "CA",
                        "formatted_address": "4864 Sherbrooke Rue O, Westmount QC H3Z 1H1",
                        "locality": "Westmount",
                        "postcode": "H3Z 1H1",
                        "region": "QC"
                  },
                  "name": "Bilboquet Westmount"
            },
            {
                  "distance": 771,
                  "location": {
                        "address": "4185 Sainte-Catherine Rue O",
                        "country": "CA",
                        "formatted_address": "4185 Sainte-Catherine Rue O, Westmount QC H3Z 3K2",
                        "locality": "Westmount",
                        "postcode": "H3Z 3K2",
                        "region": "QC"
                  },
                  "name": "Livia Matcha"
            },
            {
                  "distance": 808,
                  "location": {
                        "address": "4910 Sherbrooke Rue W",
                        "country": "CA",
                        "formatted_address": "4910 Sherbrooke Rue W, Westmount QC H3Z 1H3",
                        "locality": "Westmount",
                        "postcode": "H3Z 1H3",
                        "region": "QC"
                  },
                  "name": "Boulangerie le Fournil"
            },
            {
                  "distance": 839,
                  "location": {
                        "address": "4206 Saint-Jacques Rue",
                        "country": "CA",
                        "formatted_address": "4206 Saint-Jacques Rue, Montreal QC H4C 1J4",
                        "locality": "Montreal",
                        "postcode": "H4C 1J4",
                        "region": "QC"
                  },
                  "name": "Pikl\u00ecz Comptoir Carib\u00e9en"
            }
      ],
      "context": {
            "geo_bounds": {
                  "circle": {
                        "center": {
                              "latitude": 45.48184019,
                              "longitude": -73.59537899
                        },
                        "radius": 1000
                  }
            }
      }
}