{
      "results": [
            {
                  "distance": 283,
                  "location": {
                        "address": "756 Saint-Roch Rue",
                        "country": "CA",
                        "cross_street": "",
                        "formatted_address": "756 Saint-Roch Rue, Montr\u00e9al QC H3N 1L3",
                        "locality": "Montreal",
                        "postcode": "H3N 1L3",
                        "region": "QC"
                  },
                  "name": "Afroditi Bakery",
                  "popularity": 0.8546792202876609,
                  "price": 1,
                  "rating": 8.8
            },
            {
                  "distance": 816,
                  "location": {
                        "address": "1001 Jean-Talon Rue O",
                        "country": "CA",
                        "cross_street": "at Birnam",
                        "formatted_address": "1001 Jean-Talon Rue O (at Birnam), Montr\u00e9al QC H3N 1T2",
                        "locality": "Montreal",
                        "postcode": "H3N 1T2",
                        "region": "QC"
                  },
                  "name": "Restaurant Bombay Mahal",
                  "popularity": 0.9612864307342922,
                  "price": 2,
                  "rating": 8.6
            },
            {
                  "distance": 318,
                  "location": {
                        "address": "880 Jarry Rue O",
                        "country": "CA",
                        "cross_street": "Wiseman",
                        "formatted_address": "880 Jarry Rue O (Wiseman), Montr\u00e9al QC H3N 1G9",
                        "locality": "Montreal",
                        "postcode": "H3N 1G9",
                        "region": "QC"
                  },
                  "name": "Malhi Sweets Indian Cuisine",
                  "popularity": 0.9908686601059803,
                  "price": 2,
                  "rating": 8.5
            },
            {
                  "distance": 951,
                  "location": {
                        "address": "237 Jean-Talon Rue O",
                        "country": "CA",
                        "cross_street": "",
                        "formatted_address": "237 Jean-Talon Rue O, Montr\u00e9al QC H2R 2X6",
                        "locality": "Montreal",
                        "postcode": "H2R 2X6",
                        "region": "QC"
                  },
                  "name": "Salon Teashop Inc",
                  "popularity": 0.855519019682059,
                  "price": 2,
                  "rating": 8.2
            },
            {
                  "distance": 748,
                  "location": {
                        "address": "654 Jean-Talon Rue O",
                        "country": "CA",
                        "cross_street": "",
                        "formatted_address": "654 Jean-Talon Rue O, Montr\u00e9al QC H3N 1R7",
                        "locality": "Montreal",
                        "postcode": "H3N 1R7",
                        "region": "QC"
                  },
                  "name": "Restaurant Village Grecque Inc",
                  "popularity": 0.9827663701741105,
                  "price": 2,
                  "rating": 8.1
            },
            {
                  "distance": 820,
                  "location": {
                        "address": "996 Jean-Talon Rue O",
                        "country": "CA",
                        "cross_street": "Brinam",
                        "formatted_address": "996 Jean-Talon Rue O (Brinam), Montr\u00e9al QC H3N 1S8",
                        "locality": "Montreal",
                        "postcode": "H3N 1S8",
                        "region": "QC"
                  },
                  "name": "Indian Curry House",
                  "popularity": 0.9859244890234671,
                  "price": 1,
                  "rating": 8.1
            },
            {
                  "distance": 799,
                  "location": {
                        "address": "920 Jean-Talon Rue O",
                        "country": "CA",
                        "cross_street": "",
                        "formatted_address": "920 Jean-Talon Rue O, Montr\u00e9al QC H3N 1S6",
                        "locality": "Montreal",
                        "postcode": "H3N 1S6",
                        "region": "QC"
                  },
                  "name": "Punjab Palace",
                  "popularity": 0.9633563588190764,
                  "price": 2,
                  "rating": 7.8
            },
            {
                  "distance": 798,
                  "location": {
                        "address": "7335 Rue du Mile-End",
                        "country": "CA",
                        "cross_street": "Rue de Castelnau",
                        "formatted_address": "7335 Rue du Mile-End (Rue de Castelnau), Montr\u00e9al QC H2R 2Z7",
                        "locality": "Montreal",
                        "postcode": "H2R 2Z7",
                        "region": "QC"
                  },
                  "name": "Caf\u00e9 St-Henri HQ",
                  "popularity": 0.9647993943981832,
                  "price": 1,
                  "rating": 7.7
            },
            {
                  "distance": 273,
                  "location": {
                        "address": "550 Jarry Rue O",
                        "country": "CA",
                        "cross_street": "Qurbes",
                        "formatted_address": "550 Jarry Rue O (Qurbes), Montr\u00e9al QC H3N 1E9",
                        "locality": "Montreal",
                        "postcode": "H3N 1E9",
                        "region": "QC"
                  },
                  "name": "Restaurant Elatos Souvlaki",
                  "popularity": 0.9974569454958365,
                  "price": 2,
                  "rating": 7.6
            },
            {
                  "distance": 843,
                  "location": {
                        "address": "1024 Jean Talon Rue W",
                        "country": "CA",
                        "cross_street": "coin De l'Acadie",
                        "formatted_address": "1024 Jean Talon Rue W (coin De l'Acadie), Montr\u00e9al QC H3N 1T1",
                        "locality": "Montreal",
                        "postcode": "H3N 1T1",
                        "region": "QC"
                  },
                  "name": "Flavours of India",
                  "popularity": 0.9423377176381529,
                  "price": 2,
                  "rating": 7.4
            },
            {
                  "distance": 267,
                  "location": {
                        "address": "679 Saint-Roch Rue",
                        "country": "CA",
                        "cross_street": "Bloomfield",
                        "formatted_address": "679 Saint-Roch Rue (Bloomfield), Montr\u00e9al QC H3N 1L2",
                        "locality": "Montreal",
                        "postcode": "H3N 1L2",
                        "region": "QC"
                  },
                  "name": "Tripoli Restaurant",
                  "popularity": 0.860676097653293,
                  "price": 2,
                  "rating": 7.2
            },
            {
                  "distance": 788,
                  "location": {
                        "address": "414 Jean-Talon Rue O",
                        "country": "CA",
                        "cross_street": "",
                        "formatted_address": "414 Jean-Talon Rue O, Montr\u00e9al QC H3N 1R2",
                        "locality": "Montreal",
                        "postcode": "H3N 1R2",
                        "region": "QC"
                  },
                  "name": "Pizza Pizza",
                  "popularity": 0.8882120552611658,
                  "price": 1,
                  "rating": 7.0,
                  "store_id": "310"
            },
            {
                  "distance": 815,
                  "location": {
                        "address": "410 Jean-Talon Rue O",
                        "country": "CA",
                        "cross_street": "coin Hutchison",
                        "formatted_address": "410 Jean-Talon Rue O (coin Hutchison), Montr\u00e9al QC H3N 1R2",
                        "locality": "Montreal",
                        "postcode": "H3N 1R2",
                        "region": "QC"
                  },
                  "name": "Tim Hortons",
                  "popularity": 0.9254707607872824,
                  "price": 1,
                  "rating": 6.9
            },
            {
                  "distance": 786,
                  "location": {
                        "address": "431 Jean-Talon Rue O",
                        "country": "CA",
                        "cross_street": "entre Hutchison & Durocher",
                        "formatted_address": "431 Jean-Talon Rue O (entre Hutchison & Durocher), Montr\u00e9al QC H3N 1P9",
                        "locality": "Montreal",
                        "postcode": "H3N 1P9",
                        "region": "QC"
                  },
                  "name": "Restaurant Lyla",
                  "popularity": 0.9708908970476912,
                  "price": 2,
                  "rating": 6.8
            },
            {
                  "distance": 279,
                  "location": {
                        "address": "790 Jarry Rue O",
                        "country": "CA",
                        "cross_street": "",
                        "formatted_address": "790 Jarry Rue O, Montr\u00e9al QC H3N 1G6",
                        "locality": "Montreal",
                        "postcode": "H3N 1G6",
                        "region": "QC"
                  },
                  "name": "Dera Restaurant",
                  "popularity": 0.8873840840272521,
                  "price": 2,
                  "rating": 5.3
            },
            {
                  "distance": 768,
                  "location": {
                        "address": "405 Jean-Talon Rue O",
                        "country": "CA",
                        "cross_street": "Hutchison",
                        "formatted_address": "405 Jean-Talon Rue O (Hutchison), Montr\u00e9al QC H3N 1P9",
                        "locality": "Montreal",
                        "postcode": "H3N 1P9",
                        "region": "QC"
                  },
                  "name": "McDonald's",
                  "popularity": 0.9899578917486752,
                  "price": 1,
                  "rating": 4.6,
                  "store_id": "29057"
            },
            {
                  "distance": 263,
                  "location": {
                        "address": "522 Jarry Rue O",
                        "country": "CA",
                        "cross_street": "",
                        "formatted_address": "522 Jarry Rue O, Montr\u00e9al QC H3N 1E9",
                        "locality": "Montreal",
                        "postcode": "H3N 1E9",
                        "region": "QC"
                  },
                  "name": "Loukouman",
                  "popularity": 0.28407693035579107,
                  "price": 1
            },
            {
                  "distance": 278,
                  "location": {
                        "address": "690 Saint-Roch Rue",
                        "country": "CA",
                        "cross_street": "Champagneur",
                        "formatted_address": "690 Saint-Roch Rue (Champagneur), Montr\u00e9al QC H3N 1L1",
                        "locality": "Montreal",
                        "postcode": "H3N 1L1",
                        "region": "QC"
                  },
                  "name": "CaffeNeo",
                  "popularity": 0.9985687925813778,
                  "price": 1
            },
            {
                  "distance": 364,
                  "location": {
                        "address": "950 Jarry Rue O",
                        "country": "CA",
                        "cross_street": "Stuart",
                        "formatted_address": "950 Jarry Rue O (Stuart), Montr\u00e9al QC H3N 1H2",
                        "locality": "Montreal",
                        "postcode": "H3N 1H2",
                        "region": "QC"
                  },
                  "name": "Bar Caf\u00e9 Loutraki",
                  "popularity": 0.983736279333838
            },
            {
                  "distance": 375,
                  "location": {
                        "address": "958 Jarry Rue O",
                        "country": "CA",
                        "cross_street": "",
                        "formatted_address": "958 Jarry Rue O, Montr\u00e9al QC H3N 1H2",
                        "locality": "Montreal",
                        "postcode": "H3N 1H2",
                        "region": "QC"
                  },
                  "name": "Masala Handi Restaurant",
                  "popularity": 0.5511804504163512,
                  "price": 2
            },
            {
                  "distance": 612,
                  "location": {
                        "address": "520 Ogilvy Ave",
                        "country": "CA",
                        "cross_street": "",
                        "formatted_address": "520 Ogilvy Ave, Montr\u00e9al QC H3N 1M8",
                        "locality": "Montreal",
                        "postcode": "H3N 1M8",
                        "region": "QC"
                  },
                  "name": "Appayon",
                  "popularity": 0.6888247539742619,
                  "price": 2
            },
            {
                  "distance": 738,
                  "location": {
                        "address": "7238 Hutchison Rue",
                        "country": "CA",
                        "cross_street": "",
                        "formatted_address": "7238 Hutchison Rue, Montr\u00e9al QC H3N 1Z1",
                        "locality": "Montreal",
                        "postcode": "H3N 1Z1",
                        "region": "QC"
                  },
                  "name": "Cafe Vesuvio",
                  "popularity": 0.9779404806964421,
                  "price": 1
            },
            {
                  "distance": 766,
                  "location": {
                        "address": "901 Jean-Talon Rue O",
                        "country": "CA",
                        "formatted_address": "901 Jean-Talon Rue O, Montr\u00e9al QC H3N 1S7",
                        "locality": "Montreal",
                        "postcode": "H3N 1S7",
                        "region": "QC"
                  },
                  "name": "Miss Jean Talon Restaurant",
                  "popularity": 0.8740300908402725,
                  "price": 2
            },
            {
                  "distance": 787,
                  "location": {
                        "address": "895 Jean-Talon Rue O",
                        "country": "CA",
                        "cross_street": "d'Outremont",
                        "formatted_address": "895 Jean-Talon Rue O (d'Outremont), Montr\u00e9al QC H3N 1S7",
                        "locality": "Montreal",
                        "postcode": "H3N 1S7",
                        "region": "QC"
                  },
                  "name": "Dosa Pointe",
                  "popularity": 0.9385645344436033
            },
            {
                  "distance": 794,
                  "location": {
                        "address": "975 Jean-Talon Rue O",
                        "country": "CA",
                        "cross_street": "",
                        "formatted_address": "975 Jean-Talon Rue O, Montr\u00e9al QC H3N 1S9",
                        "locality": "Montreal",
                        "postcode": "H3N 1S9",
                        "region": "QC"
                  },
                  "name": "Punjab Sweet",
                  "popularity": 0.9590154239212718,
                  "price": 2
            },
            {
                  "distance": 797,
                  "location": {
                        "address": "787A de Liege Rue O",
                        "country": "CA",
                        "cross_street": "",
                        "formatted_address": "787A de Liege Rue O, Montr\u00e9al QC H3N 1B1",
                        "locality": "Montreal",
                        "postcode": "H3N 1B1",
                        "region": "QC"
                  },
                  "name": "Cr\u00e8merie Meetha",
                  "popularity": 0.986929882664648,
                  "price": 1
            },
            {
                  "distance": 797,
                  "location": {
                        "address": "931 Jean Talon Rue W",
                        "country": "CA",
                        "cross_street": "Stuart",
                        "formatted_address": "931 Jean Talon Rue W (Stuart), Montr\u00e9al QC H3N 1S9",
                        "locality": "Montreal",
                        "postcode": "H3N 1S9",
                        "region": "QC"
                  },
                  "name": "Cafe C Central",
                  "popularity": 0.20640140045420136,
                  "price": 1
            },
            {
                  "distance": 878,
                  "location": {
                        "country": "CA",
                        "cross_street": "",
                        "formatted_address": ""
                  },
                  "name": "Ha\u00fcs of Gyros",
                  "popularity": 0.3711203633610901,
                  "price": 2
            },
            {
                  "distance": 239,
                  "location": {
                        "address": "624 Jarry Rue O",
                        "country": "CA",
                        "formatted_address": "624 Jarry Rue O, Montreal QC H3N 1G2",
                        "locality": "Montreal",
                        "postcode": "H3N 1G2",
                        "region": "QC"
                  },
                  "name": "Central Sweets & Food-Hub"
            },
            {
                  "distance": 251,
                  "location": {
                        "address": "752 Jarry Rue W",
                        "country": "CA",
                        "formatted_address": "752 Jarry Rue W, Montreal QC H3N 1G6",
                        "locality": "Montreal",
                        "postcode": "H3N 1G6",
                        "region": "QC"
                  },
                  "name": "Royal Punjab"
            },
            {
                  "distance": 261,
                  "location": {
                        "address": "550 Jarry Rue O",
                        "country": "CA",
                        "formatted_address": "550 Jarry Rue O, Montreal QC H3N 1E9",
                        "locality": "Montreal",
                        "postcode": "H3N 1E9",
                        "region": "QC"
                  },
                  "name": "Fameux Gyros Elatos"
            },
            {
                  "distance": 636,
                  "location": {
                        "address": "991 Ogilvy Ave",
                        "country": "CA",
                        "formatted_address": "991 Ogilvy Ave, Montreal QC H3N 1P3",
                        "locality": "Montreal",
                        "postcode": "H3N 1P3",
                        "region": "QC"
                  },
                  "name": "Taverne Portara"
            },
            {
                  "distance": 755,
                  "location": {
                        "address": "439 Jean-Talon Rue O",
                        "country": "CA",
                        "formatted_address": "439 Jean-Talon Rue O, Montreal QC H3N 1P9",
                        "locality": "Montreal",
                        "postcode": "H3N 1P9",
                        "region": "QC"
                  },
                  "name": "Salateen Restaurant"
            },
            {
                  "distance": 762,
                  "location": {
                        "address": "461 Jean-Talon Rue O",
                        "country": "CA",
                        "formatted_address": "461 Jean-Talon Rue O, Montreal QC H3N 1R4",
                        "locality": "Montreal",
                        "postcode": "H3N 1R4",
                        "region": "QC"
                  },
                  "name": "Harvey's"
            },
            {
                  "distance": 764,
                  "location": {
                        "address": "885 Jean-Talon Rue O",
                        "country": "CA",
                        "formatted_address": "885 Jean-Talon Rue O, Montreal QC H3N 1S7",
                        "locality": "Montreal",
                        "postcode": "H3N 1S7",
                        "region": "QC"
                  },
                  "name": "Sparta Cafe Billiard"
            }
      ],
      "context": {
            "geo_bounds": {
                  "circle": {
                        "center": {
                              "latitude": 45.52995942,
                              "longitude": -73.63294601
                        },
                        "radius": 1000
                  }
            }
      }
}