{
      "results": [
            {
                  "distance": 652,
                  "location": {
                        "address": "1950 Jean-Talon Rue E",
                        "country": "CA",
                        "cross_street": "Chabot",
                        "formatted_address": "1950 Jean-Talon Rue E (Chabot), Montr\u00e9al QC H2E 1T8",
                        "locality": "Montreal",
                        "postcode": "H2E 1T8",
                        "region": "QC"
                  },
                  "name": "Boulangerie & Charcuterie San Pietro",
                  "popularity": 0.953763720666162,
                  "price": 1,
                  "rating": 8.2
            },
            {
                  "distance": 493,
                  "location": {
                        "address": "8115 Papineau Ave",
                        "country": "CA",
                        "cross_street": "coin Jarry Est",
                        "formatted_address": "8115 Papineau Ave (coin Jarry Est), Montr\u00e9al QC H2E 2H7",
                        "locality": "Montreal",
                        "postcode": "H2E 2H7",
                        "region": "QC"
                  },
                  "name": "Tim Hortons",
                  "popularity": 0.9937783875851628,
                  "price": 1,
                  "rating": 8.0
            },
            {
                  "distance": 222,
                  "location": {
                        "address": "1812 Tillemont Rue",
                        "country": "CA",
                        "cross_street": "Papineau",
                        "formatted_address": "1812 Tillemont Rue (Papineau), Montr\u00e9al QC H2E 1C5",
                        "locality": "Montreal",
                        "postcode": "H2E 1C5",
                        "region": "QC"
                  },
                  "name": "Boulangerie & P\u00e2tisserie Tillemont Inc",
                  "popularity": 0.9615466502649508,
                  "price": 1,
                  "rating": 7.3
            },
            {
                  "distance": 183,
                  "location": {
                        "address": "7690 Papineau Ave",
                        "country": "CA",
                        "formatted_address": "7690 Papineau Ave, Montreal QC H2E 2H2",
                        "locality": "Montreal",
                        "postcode": "H2E 2H2",
                        "region": "QC"
                  },
                  "name": "Restaurant Deli-Plus",
                  "popularity": 0.9771243376230129,
                  "price": 1,
                  "rating": 6.6
            },
            {
                  "distance": 756,
                  "location": {
                        "address": "1280 Jarry Rue E",
                        "country": "CA",
                        "cross_street": "",
                        "formatted_address": "1280 Jarry Rue E, Montr\u00e9al QC H2P 1X1",
                        "locality": "Montreal",
                        "postcode": "H2P 1X1",
                        "region": "QC"
                  },
                  "name": "Subway",
                  "popularity": 0.9300955715367146,
                  "price": 1,
                  "rating": 6.4,
                  "store_id": "26612"
            },
            {
                  "distance": 484,
                  "location": {
                        "address": "1700 Jarry Rue E",
                        "country": "CA",
                        "cross_street": "",
                        "formatted_address": "1700 Jarry Rue E, Montr\u00e9al QC H2E 1B3",
                        "locality": "Montreal",
                        "postcode": "H2E 1B3",
                        "region": "QC"
                  },
                  "name": "KFC",
                  "popularity": 0.9714349924299773,
                  "price": 1,
                  "rating": 6.1
            },
            {
                  "distance": 152,
                  "location": {
                        "address": "1667 Villeray Rue",
                        "country": "CA",
                        "cross_street": "coin Marquette",
                        "formatted_address": "1667 Villeray Rue (coin Marquette), Montr\u00e9al QC H2E 1H5",
                        "locality": "Montreal",
                        "postcode": "H2E 1H5",
                        "region": "QC"
                  },
                  "name": "Cafe Roma",
                  "popularity": 0.9140920704012112,
                  "price": 1
            },
            {
                  "distance": 256,
                  "location": {
                        "address": "1600 Villeray Rue",
                        "country": "CA",
                        "cross_street": "",
                        "formatted_address": "1600 Villeray Rue, Montr\u00e9al QC H2E 1H3",
                        "locality": "Montreal",
                        "postcode": "H2E 1H3",
                        "region": "QC"
                  },
                  "name": "Le Pro",
                  "popularity": 0.8249668811506434,
                  "price": 1
            },
            {
                  "distance": 483,
                  "location": {
                        "address": "1370 Villeray Rue",
                        "country": "CA",
                        "cross_street": "",
                        "formatted_address": "1370 Villeray Rue, Montr\u00e9al QC H2E 1G6",
                        "locality": "Montreal",
                        "postcode": "H2E 1G6",
                        "region": "QC"
                  },
                  "name": "Tabac",
                  "popularity": 0.9707489591218774,
                  "price": 1
            },
            {
                  "distance": 490,
                  "location": {
                        "address": "1595 Jean-Talon Rue E",
                        "country": "CA",
                        "cross_street": "Marquette",
                        "formatted_address": "1595 Jean-Talon Rue E (Marquette), Montr\u00e9al QC H2E 1S9",
                        "locality": "Montreal",
                        "postcode": "H2E 1S9",
                        "region": "QC"
                  },
                  "name": "Marche Reynald",
                  "popularity": 0.27696820590461774
            },
            {
                  "distance": 491,
                  "location": {
                        "country": "CA",
                        "cross_street": "",
                        "formatted_address": ""
                  },
                  "name": "Le Roi de Taco",
                  "popularity": 0.8624621498864496,
                  "price": 1
            },
            {
                  "distance": 496,
                  "location": {
                        "address": "1660 Jarry Rue E",
                        "country": "CA",
                        "cross_street": "",
                        "formatted_address": "1660 Jarry Rue E, Montr\u00e9al QC H2E 1B3",
                        "locality": "Montreal",
                        "postcode": "H2E 1B3",
                        "region": "QC"
                  },
                  "name": "Le Gras Dur",
                  "popularity": 0.8562287093111279,
                  "price": 2
            },
            {
                  "distance": 543,
                  "location": {
                        "address": "1534 Jarry Rue E",
                        "country": "CA",
                        "cross_street": "",
                        "formatted_address": "1534 Jarry Rue E, Montr\u00e9al QC H2E 1A9",
                        "locality": "Montreal",
                        "postcode": "H2E 1A9",
                        "region": "QC"
                  },
                  "name": "Pizza Montreal",
                  "popularity": 0.9646456283118849,
                  "price": 1
            },
            {
                  "distance": 670,
                  "location": {
                        "address": "1840 Jean Talon Rue E",
                        "country": "CA",
                        "cross_street": "Papineau",
                        "formatted_address": "1840 Jean Talon Rue E (Papineau), Montr\u00e9al QC H2E 1T5",
                        "locality": "Montreal",
                        "postcode": "H2E 1T5",
                        "region": "QC"
                  },
                  "name": "Dilallo Burger et Bar",
                  "popularity": 0.9578207797123391,
                  "price": 2
            },
            {
                  "distance": 699,
                  "location": {
                        "address": "1270 Jarry Rue E",
                        "country": "CA",
                        "cross_street": "",
                        "formatted_address": "1270 Jarry Rue E, Montr\u00e9al QC H2P 1X1",
                        "locality": "Montreal",
                        "postcode": "H2P 1X1",
                        "region": "QC"
                  },
                  "name": "Pizza Pizza",
                  "popularity": 0.2194596896290689,
                  "price": 1,
                  "store_id": "335"
            },
            {
                  "distance": 787,
                  "location": {
                        "address": "1404 Jean-Talon Rue E",
                        "country": "CA",
                        "cross_street": "",
                        "formatted_address": "1404 Jean-Talon Rue E, Montr\u00e9al QC H2E 1S2",
                        "locality": "Montreal",
                        "postcode": "H2E 1S2",
                        "region": "QC"
                  },
                  "name": "Subway",
                  "popularity": 0.9147189629068887,
                  "price": 1,
                  "store_id": "27971"
            },
            {
                  "distance": 815,
                  "location": {
                        "address": "1336 Jean-Talon Rue E",
                        "country": "CA",
                        "formatted_address": "1336 Jean-Talon Rue E, Montr\u00e9al QC H2E 1S1",
                        "locality": "Montreal",
                        "postcode": "H2E 1S1",
                        "region": "QC"
                  },
                  "name": "Cafe Terrasse Montebello Inc",
                  "popularity": 0.8784656510219531,
                  "price": 1
            },
            {
                  "distance": 874,
                  "location": {
                        "address": "2517 Jean-Talon Rue E",
                        "country": "CA",
                        "cross_street": "Iberville",
                        "formatted_address": "2517 Jean-Talon Rue E (Iberville), Montr\u00e9al QC H2A 1T6",
                        "locality": "Montreal",
                        "postcode": "H2A 1T6",
                        "region": "QC"
                  },
                  "name": "Casse-Cro\u00fbte Sissi & Paul",
                  "popularity": 0.9293030847842544,
                  "price": 2
            },
            {
                  "distance": 894,
                  "location": {
                        "address": "2524 Jean-Talon Rue E",
                        "country": "CA",
                        "cross_street": "D' Iberville",
                        "formatted_address": "2524 Jean-Talon Rue E (D' Iberville), Montr\u00e9al QC H2A 1T7",
                        "locality": "Montreal",
                        "postcode": "H2A 1T7",
                        "region": "QC"
                  },
                  "name": "Mexico Restaurant",
                  "popularity": 0.8773301476154428,
                  "price": 1
            },
            {
                  "distance": 937,
                  "location": {
                        "address": "2566 Jean Talon Rue E",
                        "country": "CA",
                        "cross_street": "",
                        "formatted_address": "2566 Jean Talon Rue E, Montr\u00e9al QC H2A 1T9",
                        "locality": "Montreal",
                        "postcode": "H2A 1T9",
                        "region": "QC"
                  },
                  "name": "Kokoriko",
                  "popularity": 0.6628737698713096,
                  "price": 2
            },
            {
                  "distance": 951,
                  "location": {
                        "address": "2227 Belanger Rue",
                        "country": "CA",
                        "cross_street": "",
                        "formatted_address": "2227 Belanger Rue, Montr\u00e9al QC H2G 1C5",
                        "locality": "Montreal",
                        "postcode": "H2G 1C5",
                        "region": "QC"
                  },
                  "name": "Gastronomia Roberto",
                  "popularity": 0.5814723694171082,
                  "price": 1
            },
            {
                  "distance": 964,
                  "location": {
                        "address": "1235 Jean Talon Rue E",
                        "country": "CA",
                        "cross_street": "",
                        "formatted_address": "1235 Jean Talon Rue E, Montr\u00e9al QC H2R 1W1",
                        "locality": "Montreal",
                        "postcode": "H2R 1W1",
                        "region": "QC"
                  },
                  "name": "Da Giuseppe e Pasquale",
                  "popularity": 0.25086345571536717,
                  "price": 2
            },
            {
                  "distance": 966,
                  "location": {
                        "address": "1879 Belanger St",
                        "country": "CA",
                        "cross_street": "",
                        "formatted_address": "1879 Belanger St, Montr\u00e9al QC H2G 1B6",
                        "locality": "Montreal",
                        "postcode": "H2G 1B6",
                        "region": "QC"
                  },
                  "name": "Mastard",
                  "popularity": 0.9528647804693414,
                  "price": 2
            },
            {
                  "distance": 4429,
                  "location": {
                        "address": "2344 Jean-Talon Rue E",
                        "country": "CA",
                        "cross_street": "",
                        "formatted_address": "2344 Jean-Talon Rue E, Montr\u00e9al QC H2E 1V7",
                        "locality": "Montreal",
                        "postcode": "H2E 1V7",
                        "region": "QC"
                  },
                  "name": "Boulangerie P\u00e2tisserie la Fleur de Sel",
                  "popularity": 0.7748982778198334,
                  "price": 1
            },
            {
                  "distance": 253,
                  "location": {
                        "address": "7481 Ave de Lorimier",
                        "country": "CA",
                        "formatted_address": "7481 Ave de Lorimier, Montreal QC H2E 2P4",
                        "locality": "Montreal",
                        "postcode": "H2E 2P4",
                        "region": "QC"
                  },
                  "name": "Restaurant Pizza & Pasta"
            },
            {
                  "distance": 483,
                  "location": {
                        "address": "1700 Jarry Rue E",
                        "country": "CA",
                        "formatted_address": "1700 Jarry Rue E, Montreal QC H2E 1B3",
                        "locality": "Montreal",
                        "postcode": "H2E 1B3",
                        "region": "QC"
                  },
                  "name": "Restaurant PFK"
            },
            {
                  "distance": 486,
                  "location": {
                        "address": "1370 Villeray Rue",
                        "country": "CA",
                        "formatted_address": "1370 Villeray Rue, Montreal QC H2E 1G6",
                        "locality": "Montreal",
                        "postcode": "H2E 1G6",
                        "region": "QC"
                  },
                  "name": "Bar 1370"
            },
            {
                  "distance": 510,
                  "location": {
                        "address": "1590 Jarry Rue E",
                        "country": "CA",
                        "formatted_address": "1590 Jarry Rue E, Montreal QC H2E 1B2",
                        "locality": "Montreal",
                        "postcode": "H2E 1B2",
                        "region": "QC"
                  },
                  "name": "Caf\u00e9 Bar Cosenza"
            },
            {
                  "distance": 574,
                  "location": {
                        "address": "8144 Marquette Rue",
                        "country": "CA",
                        "formatted_address": "8144 Marquette Rue, Montreal QC H2E 2G2",
                        "locality": "Montreal",
                        "postcode": "H2E 2G2",
                        "region": "QC"
                  },
                  "name": "Chez Junior"
            },
            {
                  "distance": 631,
                  "location": {
                        "address": "7203 Papineau Ave",
                        "country": "CA",
                        "formatted_address": "7203 Papineau Ave, Montreal QC H2E 2G7",
                        "locality": "Montreal",
                        "postcode": "H2E 2G7",
                        "region": "QC"
                  },
                  "name": "El Chasqui Latino"
            },
            {
                  "distance": 638,
                  "location": {
                        "address": "2015 Jean-Talon Rue E",
                        "country": "CA",
                        "formatted_address": "2015 Jean-Talon Rue E, Montreal QC H2E 1V2",
                        "locality": "Montreal",
                        "postcode": "H2E 1V2",
                        "region": "QC"
                  },
                  "name": "Caf\u00e9 Zabana"
            },
            {
                  "distance": 856,
                  "location": {
                        "address": "2464 Jean-Talon Rue E",
                        "country": "CA",
                        "formatted_address": "2464 Jean-Talon Rue E, Montreal QC H2E 1W2",
                        "locality": "Montreal",
                        "postcode": "H2E 1W2",
                        "region": "QC"
                  },
                  "name": "Cafe Depot"
            },
            {
                  "distance": 980,
                  "location": {
                        "address": "2583 Jean-Talon Rue E",
                        "country": "CA",
                        "formatted_address": "2583 Jean-Talon Rue E, Montreal QC H2A 1V1",
                        "locality": "Montreal",
                        "postcode": "H2A 1V1",
                        "region": "QC"
                  },
                  "name": "Pamela Sue"
            },
            {
                  "distance": 995,
                  "location": {
                        "address": "1834 Belanger Rue",
                        "country": "CA",
                        "formatted_address": "1834 Belanger Rue, Montreal QC H2G 1B4",
                        "locality": "Montreal",
                        "postcode": "H2G 1B4",
                        "region": "QC"
                  },
                  "name": "Cafe Umberto"
            },
            {
                  "distance": 996,
                  "location": {
                        "address": "1828 Belanger Rue",
                        "country": "CA",
                        "formatted_address": "1828 Belanger Rue, Montreal QC H2G 1B4",
                        "locality": "Montreal",
                        "postcode": "H2G 1B4",
                        "region": "QC"
                  },
                  "name": "Restaurant Chez Flore"
            }
      ],
      "context": {
            "geo_bounds": {
                  "circle": {
                        "center": {
                              "latitude": 45.55228938,
                              "longitude": -73.61300647
                        },
                        "radius": 1000
                  }
            }
      }
}