{
      "results": [
            {
                  "distance": 879,
                  "location": {
                        "address": "5500 Ave de Monkland",
                        "country": "CA",
                        "formatted_address": "5500 Ave de Monkland, Montr\u00e9al QC H4A 1C7",
                        "locality": "Montreal",
                        "postcode": "H4A 1C7",
                        "region": "QC"
                  },
                  "name": "Boulangerie Premi\u00e8re Moisson",
                  "popularity": 0.9813351627554883,
                  "price": 1,
                  "rating": 8.1
            },
            {
                  "distance": 920,
                  "location": {
                        "address": "5626 Ave de Monkland",
                        "country": "CA",
                        "cross_street": "at av. Marcil",
                        "formatted_address": "5626 Ave de Monkland (at av. Marcil), Montr\u00e9al QC H4A 1E3",
                        "locality": "Montreal",
                        "postcode": "H4A 1E3",
                        "region": "QC"
                  },
                  "name": "Lucille's Oyster Dive",
                  "popularity": 0.9606358819076457,
                  "price": 3,
                  "rating": 8.0
            },
            {
                  "distance": 368,
                  "location": {
                        "address": "5265 Decarie Blvd",
                        "country": "CA",
                        "cross_street": "Isabella",
                        "formatted_address": "5265 Decarie Blvd (Isabella), Montr\u00e9al QC H3W 3C2",
                        "locality": "Montreal",
                        "postcode": "H3W 3C2",
                        "region": "QC"
                  },
                  "name": "Snowdon Deli",
                  "popularity": 0.9864922407267221,
                  "price": 2,
                  "rating": 7.9
            },
            {
                  "distance": 231,
                  "location": {
                        "address": "5136 Decarie Blvd",
                        "country": "CA",
                        "cross_street": "",
                        "formatted_address": "5136 Decarie Blvd, Montreal QC H3X 2H9",
                        "locality": "Hampstead",
                        "postcode": "H3X 2H9",
                        "region": "QC"
                  },
                  "name": "Pho 88",
                  "popularity": 0.9451055071915215,
                  "price": 2,
                  "rating": 7.9
            },
            {
                  "distance": 339,
                  "location": {
                        "address": "5208 Decarie Blvd",
                        "country": "CA",
                        "cross_street": "",
                        "formatted_address": "5208 Decarie Blvd, Montr\u00e9al QC H3X 2H9",
                        "locality": "Montreal",
                        "postcode": "H3X 2H9",
                        "region": "QC"
                  },
                  "name": "Tropical Paradise",
                  "popularity": 0.9385527062831188,
                  "price": 2,
                  "rating": 7.9
            },
            {
                  "distance": 882,
                  "location": {
                        "address": "5555 Ave de Monkland",
                        "country": "CA",
                        "cross_street": "",
                        "formatted_address": "5555 Ave de Monkland, Montr\u00e9al QC H4A 1E1",
                        "locality": "Montreal",
                        "postcode": "H4A 1E1",
                        "region": "QC"
                  },
                  "name": "Monkland Taverne",
                  "popularity": 0.8456425056775171,
                  "price": 3,
                  "rating": 7.8
            },
            {
                  "distance": 395,
                  "location": {
                        "address": "5599 Ch de la Cote-Saint-Luc",
                        "country": "CA",
                        "cross_street": "",
                        "formatted_address": "5599 Ch de la Cote-Saint-Luc, Montr\u00e9al QC H3X 2C9",
                        "locality": "Montreal",
                        "postcode": "H3X 2C9",
                        "region": "QC"
                  },
                  "name": "Pendeli's Pizza",
                  "popularity": 0.9530895155185466,
                  "price": 1,
                  "rating": 7.8
            },
            {
                  "distance": 891,
                  "location": {
                        "address": "5557 Ave de Monkland",
                        "country": "CA",
                        "formatted_address": "5557 Ave de Monkland, Montr\u00e9al QC H4A 1E1",
                        "locality": "Montreal",
                        "postcode": "H4A 1E1",
                        "region": "QC"
                  },
                  "name": "Rockaberry Franchising",
                  "popularity": 0.9117619227857684,
                  "price": 1,
                  "rating": 7.4
            },
            {
                  "distance": 883,
                  "location": {
                        "address": "5563 Ave de Monkland",
                        "country": "CA",
                        "cross_street": "Old Orchard",
                        "formatted_address": "5563 Ave de Monkland (Old Orchard), Montr\u00e9al QC H4A 1E1",
                        "locality": "Montreal",
                        "postcode": "H4A 1E1",
                        "region": "QC"
                  },
                  "name": "Ye Olde Orchard Pub & Grill",
                  "popularity": 0.9567917297501892,
                  "price": 2,
                  "rating": 7.4
            },
            {
                  "distance": 548,
                  "location": {
                        "address": "5403 ch. de la C\u00f4te Saint-Luc",
                        "country": "CA",
                        "formatted_address": "5403 ch. de la C\u00f4te Saint-Luc, Montr\u00e9al QC H3X 2C3",
                        "locality": "Montreal",
                        "postcode": "H3X 2C3",
                        "region": "QC"
                  },
                  "name": "C\u00f4te St Luc Bar-B-Q",
                  "popularity": 0.8623793527630583,
                  "price": 2,
                  "rating": 7.3
            },
            {
                  "distance": 468,
                  "location": {
                        "address": "5095 Queen Mary Ch",
                        "country": "CA",
                        "cross_street": "Westbury",
                        "formatted_address": "5095 Queen Mary Ch (Westbury), Montr\u00e9al QC H3W 1X4",
                        "locality": "Montreal",
                        "postcode": "H3W 1X4",
                        "region": "QC"
                  },
                  "name": "Tim Hortons",
                  "popularity": 0.9688091408024224,
                  "price": 1,
                  "rating": 6.8
            },
            {
                  "distance": 464,
                  "location": {
                        "address": "5071 Queen Mary Rd",
                        "country": "CA",
                        "cross_street": "",
                        "formatted_address": "5071 Queen Mary Rd, Montr\u00e9al QC H3W 1X4",
                        "locality": "Montreal",
                        "postcode": "H3W 1X4",
                        "region": "QC"
                  },
                  "name": "Second Cup CAF\u00c9 & Cie avec Pinkberry yogourt glac\u00e9",
                  "popularity": 0.9350870552611658,
                  "price": 1,
                  "rating": 6.4
            },
            {
                  "distance": 912,
                  "location": {
                        "address": "5550 Monkland Ave",
                        "country": "CA",
                        "formatted_address": "5550 Monkland Ave, Montr\u00e9al QC H4A 1C9",
                        "locality": "Montreal",
                        "postcode": "H4A 1C9",
                        "region": "QC"
                  },
                  "name": "Second Cup Coffee Co",
                  "popularity": 0.9391322861468584,
                  "price": 1,
                  "rating": 6.3
            },
            {
                  "distance": 464,
                  "location": {
                        "address": "5002 Queen Mary Ch",
                        "country": "CA",
                        "cross_street": "ch Circle",
                        "formatted_address": "5002 Queen Mary Ch (ch Circle), Montr\u00e9al QC H3W 1X2",
                        "locality": "Montreal",
                        "postcode": "H3W 1X2",
                        "region": "QC"
                  },
                  "name": "Pizza Hut",
                  "popularity": 0.9152630582891749,
                  "price": 1,
                  "rating": 6.3,
                  "store_id": "R47001"
            },
            {
                  "distance": 904,
                  "location": {
                        "address": "4241 Decarie Blvd",
                        "country": "CA",
                        "cross_street": "Monkland",
                        "formatted_address": "4241 Decarie Blvd (Monkland), Montr\u00e9al QC H4A 3K4",
                        "locality": "Montreal",
                        "postcode": "H4A 3K4",
                        "region": "QC"
                  },
                  "name": "Quartier-Perse",
                  "popularity": 0.9122232210446631,
                  "rating": 6.2
            },
            {
                  "distance": 2498,
                  "location": {
                        "address": "5177 Decarie Blvd",
                        "country": "CA",
                        "cross_street": "at Cornation",
                        "formatted_address": "5177 Decarie Blvd (at Cornation), Montr\u00e9al QC H3W 3C2",
                        "locality": "Montreal",
                        "postcode": "H3W 3C2",
                        "region": "QC"
                  },
                  "name": "Souvlaki George",
                  "popularity": 0.9824233535200606,
                  "price": 3,
                  "rating": 6.2
            },
            {
                  "distance": 272,
                  "location": {
                        "address": "5180 Decarie Blvd",
                        "country": "CA",
                        "cross_street": "",
                        "formatted_address": "5180 Decarie Blvd, Montr\u00e9al QC H3X 2H9",
                        "locality": "Montreal",
                        "postcode": "H3X 2H9",
                        "region": "QC"
                  },
                  "name": "Wendy's",
                  "popularity": 0.9889170136260409,
                  "price": 1,
                  "rating": 6.1,
                  "store_id": "6630"
            },
            {
                  "distance": 157,
                  "location": {
                        "address": "5322 Queen Mary Ch",
                        "country": "CA",
                        "cross_street": "Boulevard Decarie",
                        "formatted_address": "5322 Queen Mary Ch (Boulevard Decarie), Montr\u00e9al QC H3X 1T7",
                        "locality": "Montreal",
                        "postcode": "H3X 1T7",
                        "region": "QC"
                  },
                  "name": "Resto Bar Chops",
                  "popularity": 0.8295916919000756,
                  "price": 2,
                  "rating": 6.1
            },
            {
                  "distance": 411,
                  "location": {
                        "address": "5155 Queen-Mary Ch",
                        "country": "CA",
                        "cross_street": "Station Snowdon",
                        "formatted_address": "5155 Queen-Mary Ch (Station Snowdon), Montr\u00e9al QC H3W 1X6",
                        "locality": "Montreal",
                        "postcode": "H3W 1X6",
                        "region": "QC"
                  },
                  "name": "McDonald's",
                  "popularity": 0.9941214042392127,
                  "price": 1,
                  "rating": 6.0,
                  "store_id": "13766"
            },
            {
                  "distance": 989,
                  "location": {
                        "address": "5737 Ave de Monkland",
                        "country": "CA",
                        "cross_street": "Avenue Wilson",
                        "formatted_address": "5737 Ave de Monkland (Avenue Wilson), Montr\u00e9al QC H4A 1E7",
                        "locality": "Montreal",
                        "postcode": "H4A 1E7",
                        "region": "QC"
                  },
                  "name": "Le Petit Tokebi",
                  "popularity": 0.9233416919000756,
                  "price": 2,
                  "rating": 5.8
            },
            {
                  "distance": 50,
                  "location": {
                        "address": "5463 Queen Mary Ch",
                        "country": "CA",
                        "cross_street": "",
                        "formatted_address": "5463 Queen Mary Ch, Montr\u00e9al QC",
                        "locality": "Montreal",
                        "region": "QC"
                  },
                  "name": "Pellegrinos Cafe",
                  "popularity": 0.7257049583648751,
                  "price": 1
            },
            {
                  "distance": 68,
                  "location": {
                        "address": "5385 Queen Mary Ch",
                        "country": "CA",
                        "cross_street": "",
                        "formatted_address": "5385 Queen Mary Ch, Montr\u00e9al QC H3X 1V1",
                        "locality": "Montreal",
                        "postcode": "H3X 1V1",
                        "region": "QC"
                  },
                  "name": "Sopoong",
                  "popularity": 0.9527346707040121,
                  "price": 2
            },
            {
                  "distance": 120,
                  "location": {
                        "address": "5453 Queen Mary Ch",
                        "country": "CA",
                        "cross_street": "",
                        "formatted_address": "5453 Queen Mary Ch, Montr\u00e9al QC H3X 1V4",
                        "locality": "Montreal",
                        "postcode": "H3X 1V4",
                        "region": "QC"
                  },
                  "name": "Solomos",
                  "popularity": 0.9015660484481454,
                  "price": 2
            },
            {
                  "distance": 139,
                  "location": {
                        "address": "5332 Queen Mary Ch",
                        "country": "CA",
                        "cross_street": "Boulevard D\u00e9carie",
                        "formatted_address": "5332 Queen Mary Ch (Boulevard D\u00e9carie), Montr\u00e9al QC H3X 1T7",
                        "locality": "Montreal",
                        "postcode": "H3X 1T7",
                        "region": "QC"
                  },
                  "name": "Karin",
                  "popularity": 0.8407456472369417,
                  "price": 2
            },
            {
                  "distance": 197,
                  "location": {
                        "address": "5018 Decarie Blvd",
                        "country": "CA",
                        "cross_street": "Queen Mary",
                        "formatted_address": "5018 Decarie Blvd (Queen Mary), Montr\u00e9al QC H3X 2H8",
                        "locality": "Montreal",
                        "postcode": "H3X 2H8",
                        "region": "QC"
                  },
                  "name": "Bar le Bi\u00e8vre",
                  "popularity": 0.8705171271763815,
                  "price": 2
            },
            {
                  "distance": 351,
                  "location": {
                        "address": "5202 Queen-Mary Ch",
                        "country": "CA",
                        "cross_street": "Trans Island",
                        "formatted_address": "5202 Queen-Mary Ch (Trans Island), Montr\u00e9al QC H3W 1X5",
                        "locality": "Montreal",
                        "postcode": "H3W 1X5",
                        "region": "QC"
                  },
                  "name": "Finegan's Irish Pub",
                  "popularity": 0.8670278198334594,
                  "price": 2
            },
            {
                  "distance": 487,
                  "location": {
                        "address": "4986B Queen Mary Ch",
                        "country": "CA",
                        "cross_street": "",
                        "formatted_address": "4986B Queen Mary Ch, Montr\u00e9al QC H3W 1X2",
                        "locality": "Montreal",
                        "postcode": "H3W 1X2",
                        "region": "QC"
                  },
                  "name": "One More Th\u00e9",
                  "popularity": 0.7747090272520818,
                  "price": 1
            },
            {
                  "distance": 511,
                  "location": {
                        "address": "5001 Queen Mary Ch",
                        "country": "CA",
                        "cross_street": "",
                        "formatted_address": "5001 Queen Mary Ch, Montreal QC H3W 1X4",
                        "locality": "Montreal",
                        "postcode": "H3W 1X4",
                        "region": "QC"
                  },
                  "name": "Restaurant Ermitage",
                  "popularity": 0.6130653860711582
            },
            {
                  "distance": 730,
                  "location": {
                        "address": "5505 Decarie Blvd",
                        "country": "CA",
                        "cross_street": "",
                        "formatted_address": "5505 Decarie Blvd, Montreal QC H3W 3C7",
                        "locality": "Montreal",
                        "postcode": "H3W 3C7",
                        "region": "QC"
                  },
                  "name": "Vodka Bar Inc",
                  "popularity": 0.7083648750946253,
                  "price": 2
            },
            {
                  "distance": 867,
                  "location": {
                        "address": "5525 Ave de Monkland",
                        "country": "CA",
                        "cross_street": "",
                        "formatted_address": "5525 Ave de Monkland, Montr\u00e9al QC H4A 1C8",
                        "locality": "Montreal",
                        "postcode": "H4A 1C8",
                        "region": "QC"
                  },
                  "name": "Dessert Caf\u00e9 Momo",
                  "popularity": 0.8368778387585163,
                  "price": 1
            },
            {
                  "distance": 868,
                  "location": {
                        "address": "5549 Monkland Ave",
                        "address_extended": "Old Orchard",
                        "country": "CA",
                        "cross_street": "Old Orchard",
                        "formatted_address": "5549 Monkland Ave (Old Orchard), Montr\u00e9al QC H4A 1C8",
                        "locality": "Montreal",
                        "postcode": "H4A 1C8",
                        "region": "QC"
                  },
                  "name": "Juliette & Chocolat",
                  "popularity": 0.9458625094625284,
                  "price": 1
            },
            {
                  "distance": 877,
                  "location": {
                        "address": "5533 Ave de Monkland",
                        "country": "CA",
                        "cross_street": "at Girouard",
                        "formatted_address": "5533 Ave de Monkland (at Girouard), Montr\u00e9al QC H4A 1C8",
                        "locality": "Montreal",
                        "postcode": "H4A 1C8",
                        "region": "QC"
                  },
                  "name": "Sushi Star",
                  "popularity": 0.9022993943981832,
                  "price": 2
            },
            {
                  "distance": 905,
                  "location": {
                        "address": "5526 Monkland Ave",
                        "country": "CA",
                        "cross_street": "",
                        "formatted_address": "5526 Monkland Ave, Montr\u00e9al QC H4A 1C7",
                        "locality": "Montreal",
                        "postcode": "H4A 1C7",
                        "region": "QC"
                  },
                  "name": "Columbus Caf\u00e9",
                  "popularity": 0.9608014761544285,
                  "price": 1
            },
            {
                  "distance": 932,
                  "location": {
                        "address": "5641 Ave de Monkland",
                        "country": "CA",
                        "cross_street": "",
                        "formatted_address": "5641 Ave de Monkland, Montr\u00e9al QC H4A 1E2",
                        "locality": "Montreal",
                        "postcode": "H4A 1E2",
                        "region": "QC"
                  },
                  "name": "\u00d4 Fish",
                  "popularity": 0.41450605601816803,
                  "price": 1
            },
            {
                  "distance": 934,
                  "location": {
                        "address": "5672 Ave de Monkland",
                        "country": "CA",
                        "cross_street": "",
                        "formatted_address": "5672 Ave de Monkland, Montr\u00e9al QC H4A 1E4",
                        "locality": "Montreal",
                        "postcode": "H4A 1E4",
                        "region": "QC"
                  },
                  "name": "Restaurant Chase",
                  "popularity": 0.7323523845571537,
                  "price": 2
            }
      ],
      "context": {
            "geo_bounds": {
                  "circle": {
                        "center": {
                              "latitude": 45.48184507,
                              "longitude": -73.63037378
                        },
                        "radius": 1000
                  }
            }
      }
}