{
      "results": [
            {
                  "distance": 632,
                  "location": {
                        "address": "7999 des Galeries d'Anjou Blvd",
                        "address_extended": "Galeries D'Anjou",
                        "country": "CA",
                        "cross_street": "",
                        "formatted_address": "7999 des Galeries d'Anjou Blvd, Montr\u00e9al QC H1M 1W9",
                        "locality": "Montreal",
                        "postcode": "H1M 1W9",
                        "region": "QC"
                  },
                  "name": "B\u00e2ton Rouge Steakhouse & Bar",
                  "popularity": 0.9744038607115821,
                  "price": 3,
                  "rating": 8.3,
                  "store_id": "4006"
            },
            {
                  "distance": 559,
                  "location": {
                        "address": "7999 des Galeries d'Anjou Blvd",
                        "address_extended": "Galeries D'Anjou",
                        "country": "CA",
                        "cross_street": "",
                        "formatted_address": "7999 des Galeries d'Anjou Blvd, Anjou QC H1M 1W9",
                        "locality": "Anjou",
                        "postcode": "H1M 1W9",
                        "region": "QC"
                  },
                  "name": "La Belle & la Boeuf",
                  "popularity": 0.9904073618470856,
                  "price": 1,
                  "rating": 7.4
            },
            {
                  "distance": 552,
                  "location": {
                        "address": "7999 des Galeries d'Anjou Blvd",
                        "address_extended": "E-029",
                        "country": "CA",
                        "cross_street": "Jean-Talon",
                        "formatted_address": "7999 des Galeries d'Anjou Blvd (Jean-Talon), Anjou QC H1M 1W9",
                        "locality": "Anjou",
                        "postcode": "H1M 1W9",
                        "region": "QC"
                  },
                  "name": "Starbucks",
                  "popularity": 0.9856879258137774,
                  "price": 1,
                  "rating": 7.2,
                  "store_id": "21120-209165"
            },
            {
                  "distance": 673,
                  "location": {
                        "address": "7225 des Galeries d'Anjou Blvd",
                        "country": "CA",
                        "cross_street": "rue Saint-Zotique",
                        "formatted_address": "7225 des Galeries d'Anjou Blvd (rue Saint-Zotique), Anjou QC H1M 2W2",
                        "locality": "Anjou",
                        "postcode": "H1M 2W2",
                        "region": "QC"
                  },
                  "name": "Les 3 Brasseurs",
                  "popularity": 0.9852502838758517,
                  "price": 2,
                  "rating": 7.1
            },
            {
                  "distance": 677,
                  "location": {
                        "address": "7295 des Galeries-Danjou Blvd",
                        "country": "CA",
                        "formatted_address": "7295 des Galeries-Danjou Blvd, Anjou QC H1M 2W2",
                        "locality": "Anjou",
                        "postcode": "H1M 2W2",
                        "region": "QC"
                  },
                  "name": "Tim Hortons",
                  "popularity": 0.968773656320969,
                  "price": 1,
                  "rating": 6.6
            },
            {
                  "distance": 494,
                  "location": {
                        "address": "7999 des Galeries d'Anjou Blvd",
                        "address_extended": "Galeries D'Anjou",
                        "country": "CA",
                        "cross_street": "",
                        "formatted_address": "7999 des Galeries d'Anjou Blvd, Anjou QC H1M 1W9",
                        "locality": "Anjou",
                        "postcode": "H1M 1W9",
                        "region": "QC"
                  },
                  "name": "A&W Restaurant",
                  "popularity": 0.88138720666162,
                  "price": 1,
                  "rating": 6.5,
                  "store_id": "5144"
            },
            {
                  "distance": 553,
                  "location": {
                        "address": "7999 des Galeries d'Anjou Blvd",
                        "address_extended": "CF Galeries D'Anjou",
                        "country": "CA",
                        "cross_street": "",
                        "formatted_address": "7999 des Galeries d'Anjou Blvd, Anjou QC H1M 1W9",
                        "locality": "Anjou",
                        "postcode": "H1M 1W9",
                        "region": "QC"
                  },
                  "name": "Thai Express",
                  "popularity": 0.946465745647237,
                  "price": 2,
                  "rating": 6.5,
                  "store_id": "59"
            },
            {
                  "distance": 634,
                  "location": {
                        "address": "6270 Louis-H. Lafontaine Blvd",
                        "country": "CA",
                        "formatted_address": "6270 Louis-H. Lafontaine Blvd, Montr\u00e9al QC H1M 1S8",
                        "locality": "Montreal",
                        "postcode": "H1M 1S8",
                        "region": "QC"
                  },
                  "name": "Tim Hortons",
                  "popularity": 0.9908095193035579,
                  "price": 1,
                  "rating": 6.5
            },
            {
                  "distance": 807,
                  "location": {
                        "address": "6110 Louis-H.-La Fontaine Blvd",
                        "country": "CA",
                        "cross_street": "entre Des Roseraies & Beaubien",
                        "formatted_address": "6110 Louis-H.-La Fontaine Blvd (entre Des Roseraies & Beaubien), Montr\u00e9al QC H1M 1S8",
                        "locality": "Montreal",
                        "postcode": "H1M 1S8",
                        "region": "QC"
                  },
                  "name": "Dic Ann's Hamburgers",
                  "popularity": 0.9404097274791824,
                  "price": 1,
                  "rating": 6.4
            },
            {
                  "distance": 314,
                  "location": {
                        "address": "7300 des Roseraies Blvd",
                        "country": "CA",
                        "cross_street": "Place des Roseraies",
                        "formatted_address": "7300 des Roseraies Blvd (Place des Roseraies), Anjou QC H1M 2T5",
                        "locality": "Anjou",
                        "postcode": "H1M 2T5",
                        "region": "QC"
                  },
                  "name": "Boston Pizza",
                  "popularity": 0.9678392316426949,
                  "price": 1,
                  "rating": 6.3,
                  "store_id": "BP_238"
            },
            {
                  "distance": 698,
                  "location": {
                        "address": "7275 des Galeries d'Anjou Blvd",
                        "country": "CA",
                        "cross_street": "",
                        "formatted_address": "7275 des Galeries d'Anjou Blvd, Anjou QC H1M 2W2",
                        "locality": "Anjou",
                        "postcode": "H1M 2W2",
                        "region": "QC"
                  },
                  "name": "Restaurant l'Acad\u00e9mie",
                  "popularity": 0.9766630393641181,
                  "price": 3,
                  "rating": 5.8
            },
            {
                  "distance": 683,
                  "location": {
                        "address": "7101 des Galeries d'Anjou Blvd",
                        "country": "CA",
                        "cross_street": "",
                        "formatted_address": "7101 des Galeries d'Anjou Blvd, Anjou QC H1M 2W2",
                        "locality": "Anjou",
                        "postcode": "H1M 2W2",
                        "region": "QC"
                  },
                  "name": "McDonald's",
                  "popularity": 0.9848717827403483,
                  "price": 1,
                  "rating": 5.2
            },
            {
                  "distance": 441,
                  "location": {
                        "address": "7999 Galeries d'Anjou",
                        "country": "CA",
                        "cross_street": "",
                        "formatted_address": "7999 Galeries d'Anjou, Montr\u00e9al QC",
                        "locality": "Montreal",
                        "region": "QC"
                  },
                  "name": "Place Tevere",
                  "popularity": 0.8490608440575321,
                  "price": 1
            },
            {
                  "distance": 459,
                  "location": {
                        "address": "7999 des Galeries d'Anjou Blvd",
                        "country": "CA",
                        "cross_street": "",
                        "formatted_address": "7999 des Galeries d'Anjou Blvd, Montr\u00e9al QC H1M 1W9",
                        "locality": "Montreal",
                        "postcode": "H1M 1W9",
                        "region": "QC"
                  },
                  "name": "Burrito Revoluci\u00f3n",
                  "popularity": 0.9370150454201362,
                  "price": 1
            },
            {
                  "distance": 493,
                  "location": {
                        "address": "7999 des Galeries d'Anjou Blvd",
                        "address_extended": "Galeries D'Anjou",
                        "country": "CA",
                        "cross_street": "",
                        "formatted_address": "7999 des Galeries d'Anjou Blvd, Anjou QC H1M 1W9",
                        "locality": "Anjou",
                        "postcode": "H1M 1W9",
                        "region": "QC"
                  },
                  "name": "Grillades Torino",
                  "popularity": 0.987249242997729,
                  "price": 2
            },
            {
                  "distance": 497,
                  "location": {
                        "address": "7999 des Galeries d'Anjou Blvd",
                        "address_extended": "Suite F001",
                        "country": "CA",
                        "cross_street": "",
                        "formatted_address": "7999 des Galeries d'Anjou Blvd, Anjou QC H1M 1W9",
                        "locality": "Anjou",
                        "postcode": "H1M 1W9",
                        "region": "QC"
                  },
                  "name": "Subway",
                  "popularity": 0.8240915972747919,
                  "price": 1,
                  "store_id": "18378"
            },
            {
                  "distance": 505,
                  "location": {
                        "address": "6740 Joseph-Renaud Blvd",
                        "country": "CA",
                        "cross_street": "",
                        "formatted_address": "6740 Joseph-Renaud Blvd, Anjou QC H1K 3V4",
                        "locality": "Anjou",
                        "postcode": "H1K 3V4",
                        "region": "QC"
                  },
                  "name": "Restaurant Memphis",
                  "popularity": 0.9430947199091597,
                  "price": 2
            },
            {
                  "distance": 519,
                  "location": {
                        "address": "7999 des Galeries d'Anjou Blvd",
                        "address_extended": "Unit F006",
                        "country": "CA",
                        "cross_street": "",
                        "formatted_address": "7999 des Galeries d'Anjou Blvd, Montr\u00e9al QC H1M 1W9",
                        "locality": "Montreal",
                        "postcode": "H1M 1W9",
                        "region": "QC"
                  },
                  "name": "KFC",
                  "popularity": 0.22319738834216502,
                  "price": 1
            },
            {
                  "distance": 523,
                  "location": {
                        "address": "7999 des Galeries d'Anjou Blvd",
                        "address_extended": "Galeries D'Anjou",
                        "country": "CA",
                        "cross_street": "Galeries D'anjou",
                        "formatted_address": "7999 des Galeries d'Anjou Blvd (Galeries D'anjou), Anjou QC H1M 1W9",
                        "locality": "Anjou",
                        "postcode": "H1M 1W9",
                        "region": "QC"
                  },
                  "name": "Kojax Souflaki",
                  "popularity": 0.9227384557153672,
                  "price": 2
            },
            {
                  "distance": 539,
                  "location": {
                        "address": "7999 des Galeries d'Anjou Blvd",
                        "country": "CA",
                        "cross_street": "",
                        "formatted_address": "7999 des Galeries d'Anjou Blvd, Anjou QC H1M 1W9",
                        "locality": "Anjou",
                        "postcode": "H1M 1W9",
                        "region": "QC"
                  },
                  "name": "Cultures",
                  "popularity": 0.8506339894019682,
                  "price": 1
            },
            {
                  "distance": 553,
                  "location": {
                        "address": "7999 des Galeries d'Anjou Blvd",
                        "address_extended": "Galeries D'Anjou",
                        "country": "CA",
                        "cross_street": "",
                        "formatted_address": "7999 des Galeries d'Anjou Blvd, Montr\u00e9al QC H1M 1W9",
                        "locality": "Montreal",
                        "postcode": "H1M 1W9",
                        "region": "QC"
                  },
                  "name": "Manchu Wok",
                  "popularity": 0.9799985806207419,
                  "price": 1
            },
            {
                  "distance": 553,
                  "location": {
                        "address": "7999 des Galeries d'Anjou Blvd",
                        "address_extended": "Les Galeries d'Anjou",
                        "country": "CA",
                        "cross_street": "",
                        "formatted_address": "7999 des Galeries d'Anjou Blvd, Anjou QC H1M 1W9",
                        "locality": "Anjou",
                        "postcode": "H1M 1W9",
                        "region": "QC"
                  },
                  "name": "Muffin Plus",
                  "popularity": 0.9839373580620742,
                  "price": 1
            },
            {
                  "distance": 553,
                  "location": {
                        "address": "7999 des Galeries d'Anjou Blvd",
                        "country": "CA",
                        "cross_street": "",
                        "formatted_address": "7999 des Galeries d'Anjou Blvd, Anjou QC H1M 1W9",
                        "locality": "Anjou",
                        "postcode": "H1M 1W9",
                        "region": "QC"
                  },
                  "name": "Jugo Juice",
                  "popularity": 0.9086511165783497,
                  "price": 1
            },
            {
                  "distance": 553,
                  "location": {
                        "address": "7999 des Galeries d'Anjou Blvd",
                        "address_extended": "Les Galeries d'Anjou",
                        "country": "CA",
                        "cross_street": "",
                        "formatted_address": "7999 des Galeries d'Anjou Blvd, Anjou QC H1M 1W9",
                        "locality": "Anjou",
                        "postcode": "H1M 1W9",
                        "region": "QC"
                  },
                  "name": "Industria Pizzeria and Bar",
                  "popularity": 0.9813706472369417,
                  "price": 2
            },
            {
                  "distance": 553,
                  "location": {
                        "address": "7999 des Galeries d'Anjou Blvd",
                        "address_extended": "Les Galeries d'Anjou",
                        "country": "CA",
                        "cross_street": "Les Galeries d'Anjou",
                        "formatted_address": "7999 des Galeries d'Anjou Blvd (Les Galeries d'Anjou), Anjou QC H1M 1W9",
                        "locality": "Anjou",
                        "postcode": "H1M 1W9",
                        "region": "QC"
                  },
                  "name": "La Cr\u00e9mi\u00e8re",
                  "popularity": 0.9007735616956851,
                  "price": 1
            },
            {
                  "distance": 672,
                  "location": {
                        "address": "7270 Saint Zotique Rue E",
                        "country": "CA",
                        "cross_street": "",
                        "formatted_address": "7270 Saint Zotique Rue E, Anjou QC H1M 3A5",
                        "locality": "Anjou",
                        "postcode": "H1M 3A5",
                        "region": "QC"
                  },
                  "name": "Gringos",
                  "popularity": 0.06006339894019682,
                  "price": 2
            },
            {
                  "distance": 703,
                  "location": {
                        "address": "7264 Saint Zotique Rue E",
                        "country": "CA",
                        "cross_street": "Boulevard Galeries anjou",
                        "formatted_address": "7264 Saint Zotique Rue E (Boulevard Galeries anjou), Anjou QC H1M 3G6",
                        "locality": "Anjou",
                        "postcode": "H1M 3G6",
                        "region": "QC"
                  },
                  "name": "Restaurant Ritz",
                  "popularity": 0.7446063588190764,
                  "price": 2
            },
            {
                  "distance": 739,
                  "location": {
                        "address": "7001 des Galeries d'Anjou Blvd",
                        "country": "CA",
                        "formatted_address": "7001 des Galeries d'Anjou Blvd, Montr\u00e9al QC H1M 3V6",
                        "locality": "Montreal",
                        "postcode": "H1M 3V6",
                        "region": "QC"
                  },
                  "name": "Restaurant la Bonne Adresse",
                  "popularity": 0.9089823050719152,
                  "price": 3
            },
            {
                  "distance": 907,
                  "location": {
                        "address": "8220 Blvd M\u00e9tropolitain Est",
                        "country": "CA",
                        "cross_street": "",
                        "formatted_address": "8220 Blvd M\u00e9tropolitain Est, Anjou QC",
                        "locality": "Anjou",
                        "region": "QC"
                  },
                  "name": "Brasserie Sports40",
                  "popularity": 0.8001987130961393,
                  "price": 1
            },
            {
                  "distance": 912,
                  "location": {
                        "address": "Halles d'Anjou 7500",
                        "address_extended": "# 24",
                        "country": "CA",
                        "cross_street": "",
                        "formatted_address": "Halles d'Anjou 7500, Anjou QC H1M 3M4",
                        "locality": "Anjou",
                        "postcode": "H1M 3M4",
                        "region": "QC"
                  },
                  "name": "Fusion cuisine japonaise et Cor\u00e9enne",
                  "popularity": 0.8594223126419379,
                  "price": 2
            },
            {
                  "distance": 919,
                  "location": {
                        "address": "7500 des Galeries-Danjou Blvd",
                        "country": "CA",
                        "cross_street": "",
                        "formatted_address": "7500 des Galeries-Danjou Blvd, Anjou QC H1M 3M4",
                        "locality": "Anjou",
                        "postcode": "H1M 3M4",
                        "region": "QC"
                  },
                  "name": "Tim Hortons",
                  "popularity": 0.929172975018925,
                  "price": 2
            },
            {
                  "distance": 937,
                  "location": {
                        "address": "7500 des Galeries d'Anjou Blvd",
                        "address_extended": "Bureau 18",
                        "country": "CA",
                        "cross_street": "",
                        "formatted_address": "7500 des Galeries d'Anjou Blvd, Anjou QC H1M 3M4",
                        "locality": "Anjou",
                        "postcode": "H1M 3M4",
                        "region": "QC"
                  },
                  "name": "Pastafresca",
                  "popularity": 0.7110262112036336
            },
            {
                  "distance": 941,
                  "location": {
                        "address": "7500 des Galeries d'Anjou Blvd",
                        "address_extended": "# 22",
                        "country": "CA",
                        "cross_street": "",
                        "formatted_address": "7500 des Galeries d'Anjou Blvd, Anjou QC H1M 3M4",
                        "locality": "Anjou",
                        "postcode": "H1M 3M4",
                        "region": "QC"
                  },
                  "name": "Mmmuffins",
                  "popularity": 0.5445803368660106,
                  "price": 1
            },
            {
                  "distance": 477,
                  "location": {
                        "address": "6700 Joseph Renaud Blvd",
                        "country": "CA",
                        "formatted_address": "6700 Joseph Renaud Blvd, Anjou QC H1K 3V4",
                        "locality": "Anjou",
                        "postcode": "H1K 3V4",
                        "region": "QC"
                  },
                  "name": "La Fraicheur Tropicale"
            },
            {
                  "distance": 513,
                  "location": {
                        "address": "7999 des Galeries d'Anjou Blvd",
                        "address_extended": "Galeries D'Anjou",
                        "country": "CA",
                        "formatted_address": "7999 des Galeries d'Anjou Blvd, Anjou QC H1M 1W9",
                        "locality": "Anjou",
                        "postcode": "H1M 1W9",
                        "region": "QC"
                  },
                  "name": "Trattoria Tevere"
            }
      ],
      "context": {
            "geo_bounds": {
                  "circle": {
                        "center": {
                              "latitude": 45.6027276,
                              "longitude": -73.5579303
                        },
                        "radius": 1000
                  }
            }
      }
}