{
      "results": [
            {
                  "distance": 789,
                  "location": {
                        "address": "1431 Saint-Laurent Blvd",
                        "country": "CA",
                        "cross_street": "entre De Maisonneuve & Ste-Catherine",
                        "formatted_address": "1431 Saint-Laurent Blvd (entre De Maisonneuve & Ste-Catherine), Montr\u00e9al QC H2X 2S8",
                        "locality": "Montreal",
                        "postcode": "H2X 2S8",
                        "region": "QC"
                  },
                  "name": "Cadet",
                  "popularity": 0.9538465177895533,
                  "price": 2,
                  "rating": 9.4
            },
            {
                  "distance": 864,
                  "location": {
                        "address": "1595 Saint-Laurent Blvd",
                        "country": "CA",
                        "cross_street": "entre De Maisonneuve & Ontario",
                        "formatted_address": "1595 Saint-Laurent Blvd (entre De Maisonneuve & Ontario), Montr\u00e9al QC H2X 2S9",
                        "locality": "Montreal",
                        "postcode": "H2X 2S9",
                        "region": "QC"
                  },
                  "name": "Bouillon Bilk",
                  "popularity": 0.962682153671461,
                  "price": 3,
                  "rating": 9.3
            },
            {
                  "distance": 663,
                  "location": {
                        "address": "520 Saint-Laurent Blvd",
                        "address_extended": "Saint-Jacques",
                        "country": "CA",
                        "cross_street": "Saint-Jacques",
                        "formatted_address": "520 Saint-Laurent Blvd (Saint-Jacques), Montr\u00e9al QC H2Y 2Y9",
                        "locality": "Montreal",
                        "postcode": "H2Y 2Y9",
                        "region": "QC"
                  },
                  "name": "Paquebot Vieux-Mtl",
                  "popularity": 0.9716833838001514,
                  "price": 1,
                  "rating": 9.0
            },
            {
                  "distance": 777,
                  "location": {
                        "address": "1272 Sainte-Catherine Rue E",
                        "country": "CA",
                        "cross_street": "",
                        "formatted_address": "1272 Sainte-Catherine Rue E, Montr\u00e9al QC H2L 2H2",
                        "locality": "Montreal",
                        "postcode": "H2L 2H2",
                        "region": "QC"
                  },
                  "name": "Bar Renard",
                  "popularity": 0.9689274224072673,
                  "price": 2,
                  "rating": 9.0
            },
            {
                  "distance": 641,
                  "location": {
                        "address": "1106B Saint Laurent Blvd",
                        "country": "CA",
                        "cross_street": "coin Ren\u00e9-L\u00e9vesque",
                        "formatted_address": "1106B Saint Laurent Blvd (coin Ren\u00e9-L\u00e9vesque), Montr\u00e9al QC H2Z 1J5",
                        "locality": "Montreal",
                        "postcode": "H2Z 1J5",
                        "region": "QC"
                  },
                  "name": "Bar le Mal N\u00e9cessaire",
                  "popularity": 0.9491152535957608,
                  "price": 3,
                  "rating": 9.0
            },
            {
                  "distance": 402,
                  "location": {
                        "address": "380 Saint Paul Rue E",
                        "country": "CA",
                        "cross_street": "coin Bonsecours",
                        "formatted_address": "380 Saint Paul Rue E (coin Bonsecours), Montr\u00e9al QC H2Y 1H2",
                        "locality": "Montreal",
                        "postcode": "H2Y 1H2",
                        "region": "QC"
                  },
                  "name": "Pub BreWskey",
                  "popularity": 0.9748888152914459,
                  "price": 1,
                  "rating": 8.9
            },
            {
                  "distance": 891,
                  "location": {
                        "address": "300 Ontario Rue E",
                        "country": "CA",
                        "cross_street": "coin Sanguinet",
                        "formatted_address": "300 Ontario Rue E (coin Sanguinet), Montr\u00e9al QC H2X 1H6",
                        "locality": "Montreal",
                        "postcode": "H2X 1H6",
                        "region": "QC"
                  },
                  "name": "La Distillerie",
                  "popularity": 0.9436861279333838,
                  "price": 3,
                  "rating": 8.9
            },
            {
                  "distance": 572,
                  "location": {
                        "address": "419 Saint-Vincent Rue",
                        "country": "CA",
                        "cross_street": "Rue Saint-Amable",
                        "formatted_address": "419 Saint-Vincent Rue (Rue Saint-Amable), Montr\u00e9al QC H2Y 3A6",
                        "locality": "Montreal",
                        "postcode": "H2Y 3A6",
                        "region": "QC"
                  },
                  "name": "Caf\u00e9 Olimpico",
                  "popularity": 0.9666682437547313,
                  "price": 1,
                  "rating": 8.9
            },
            {
                  "distance": 495,
                  "location": {
                        "address": "273 Saint-Paul Rue E",
                        "country": "CA",
                        "cross_street": "at rue du March\u00e9-Bonsecours",
                        "formatted_address": "273 Saint-Paul Rue E (at rue du March\u00e9-Bonsecours), Montr\u00e9al QC H2Y 1H1",
                        "locality": "Montreal",
                        "postcode": "H2Y 1H1",
                        "region": "QC"
                  },
                  "name": "L'Usine de Spaghetti",
                  "popularity": 0.9515400264950795,
                  "price": 2,
                  "rating": 8.8
            },
            {
                  "distance": 945,
                  "location": {
                        "address": "139 Saint-Paul Rue O",
                        "country": "CA",
                        "cross_street": "",
                        "formatted_address": "139 Saint-Paul Rue O, Montr\u00e9al QC H2Y 1Z5",
                        "locality": "Montreal",
                        "postcode": "H2Y 1Z5",
                        "region": "QC"
                  },
                  "name": "Pub Wolf & Workman",
                  "popularity": 0.9454485238455715,
                  "price": 2,
                  "rating": 8.7
            },
            {
                  "distance": 965,
                  "location": {
                        "address": "151 Saint-Paul Rue O",
                        "country": "CA",
                        "cross_street": "",
                        "formatted_address": "151 Saint-Paul Rue O, Montr\u00e9al QC H2Y 1Z5",
                        "locality": "Montreal",
                        "postcode": "H2Y 1Z5",
                        "region": "QC"
                  },
                  "name": "Tommy Caf\u00e9",
                  "popularity": 0.9337741294473884,
                  "price": 1,
                  "rating": 8.6
            },
            {
                  "distance": 751,
                  "location": {
                        "address": "301 Emery Rue",
                        "country": "CA",
                        "cross_street": "entre St-Denis & Sanguinet",
                        "formatted_address": "301 Emery Rue (entre St-Denis & Sanguinet), Montr\u00e9al QC H2X 1J2",
                        "locality": "Montreal",
                        "postcode": "H2X 1J2",
                        "region": "QC"
                  },
                  "name": "Caf\u00e9 Saint-Henri Quartier Latin",
                  "popularity": 0.9289718962906889,
                  "price": 1,
                  "rating": 8.6
            },
            {
                  "distance": 794,
                  "location": {
                        "address": "711 cote de la Place-d'Armes",
                        "country": "CA",
                        "cross_street": "St-Jacques",
                        "formatted_address": "711 cote de la Place-d'Armes (St-Jacques), Montr\u00e9al QC H2Y 2X6",
                        "locality": "Montreal",
                        "postcode": "H2Y 2X6",
                        "region": "QC"
                  },
                  "name": "Kyo Bar Japonais",
                  "popularity": 0.9498722558667676,
                  "price": 2,
                  "rating": 8.6
            },
            {
                  "distance": 639,
                  "location": {
                        "address": "1096 Saint-Laurent Blvd",
                        "country": "CA",
                        "cross_street": "entre Ren\u00e9-L\u00e9vesque & De la Gaucheti\u00e8re",
                        "formatted_address": "1096 Saint-Laurent Blvd (entre Ren\u00e9-L\u00e9vesque & De la Gaucheti\u00e8re), Montr\u00e9al QC H2Z 1J5",
                        "locality": "Montreal",
                        "postcode": "H2Z 1J5",
                        "region": "QC"
                  },
                  "name": "La Capital Tacos",
                  "popularity": 0.9445377554882665,
                  "price": 1,
                  "rating": 8.6
            },
            {
                  "distance": 300,
                  "location": {
                        "address": "350 Notre-Dame Rue E",
                        "address_extended": "Suite 1",
                        "country": "CA",
                        "cross_street": "Bonsecours",
                        "formatted_address": "350 Notre-Dame Rue E (Bonsecours), Montr\u00e9al QC H2Y 1C7",
                        "locality": "Montreal",
                        "postcode": "H2Y 1C7",
                        "region": "QC"
                  },
                  "name": "Caf\u00e9 de' Mercanti - Old Montreal",
                  "popularity": 0.9625993565480696,
                  "price": 1,
                  "rating": 8.6
            },
            {
                  "distance": 956,
                  "location": {
                        "address": "2021 Saint-Denis Rue",
                        "country": "CA",
                        "cross_street": "rue Ontario",
                        "formatted_address": "2021 Saint-Denis Rue (rue Ontario), Montr\u00e9al QC H2X 3K8",
                        "locality": "Montreal",
                        "postcode": "H2X 3K8",
                        "region": "QC"
                  },
                  "name": "Le 4e Mur",
                  "popularity": 0.9381860333080999,
                  "price": 3,
                  "rating": 8.6
            },
            {
                  "distance": 830,
                  "location": {
                        "address": "453 Saint-Sulpice Rue",
                        "country": "CA",
                        "cross_street": "Notre-Dame O.",
                        "formatted_address": "453 Saint-Sulpice Rue (Notre-Dame O.), Montr\u00e9al QC H2Y 2V8",
                        "locality": "Montreal",
                        "postcode": "H2Y 2V8",
                        "region": "QC"
                  },
                  "name": "Les Glaceurs",
                  "popularity": 0.9073145344436033,
                  "price": 3,
                  "rating": 8.5
            },
            {
                  "distance": 886,
                  "location": {
                        "address": "1310 Blvd de Maisonneuve Est",
                        "country": "CA",
                        "cross_street": "Visitation",
                        "formatted_address": "1310 Blvd de Maisonneuve Est (Visitation), Montr\u00e9al QC H2L 2A5",
                        "locality": "Montreal",
                        "postcode": "H2L 2A5",
                        "region": "QC"
                  },
                  "name": "Bistro le Passe Compose",
                  "popularity": 0.9547809424678274,
                  "price": 1,
                  "rating": 8.5
            },
            {
                  "distance": 736,
                  "location": {
                        "address": "1112 Blvd de Maisonneuve Est",
                        "country": "CA",
                        "cross_street": "btwn Amherst & Wolfe St.",
                        "formatted_address": "1112 Blvd de Maisonneuve Est (btwn Amherst & Wolfe St.), Montr\u00e9al QC H2L 1Z5",
                        "locality": "Montreal",
                        "postcode": "H2L 1Z5",
                        "region": "QC"
                  },
                  "name": "O'Thym",
                  "popularity": 0.9423613739591219,
                  "price": 3,
                  "rating": 8.5
            },
            {
                  "distance": 864,
                  "location": {
                        "address": "1749 Saint-Denis Rue",
                        "country": "CA",
                        "cross_street": "coin Ontario",
                        "formatted_address": "1749 Saint-Denis Rue (coin Ontario), Montr\u00e9al QC H2X 3K4",
                        "locality": "Montreal",
                        "postcode": "H2X 3K4",
                        "region": "QC"
                  },
                  "name": "Le Saint Bock",
                  "popularity": 0.9721565102195306,
                  "price": 2,
                  "rating": 8.4
            },
            {
                  "distance": 954,
                  "location": {
                        "address": "200 Notre-Dame Rue O",
                        "country": "CA",
                        "cross_street": "coin Saint-Fran\u00e7ois Xavier",
                        "formatted_address": "200 Notre-Dame Rue O (coin Saint-Fran\u00e7ois Xavier), Montr\u00e9al QC H2Y 1T3",
                        "locality": "Montreal",
                        "postcode": "H2Y 1T3",
                        "region": "QC"
                  },
                  "name": "Tommy",
                  "popularity": 0.9703586298258895,
                  "price": 1,
                  "rating": 8.3
            },
            {
                  "distance": 754,
                  "location": {
                        "address": "1668 Saint-Denis Rue",
                        "country": "CA",
                        "cross_street": "coin de Maisonneuve",
                        "formatted_address": "1668 Saint-Denis Rue (coin de Maisonneuve), Montr\u00e9al QC H2X 3K6",
                        "locality": "Montreal",
                        "postcode": "H2X 3K6",
                        "region": "QC"
                  },
                  "name": "Pizzeria Dei Compari",
                  "popularity": 0.9388484102952309,
                  "price": 2,
                  "rating": 8.3
            },
            {
                  "distance": 749,
                  "location": {
                        "address": "1 Saint-Paul Rue O",
                        "country": "CA",
                        "cross_street": "St-Laurent",
                        "formatted_address": "1 Saint-Paul Rue O (St-Laurent), Montr\u00e9al QC H2Y 1Y6",
                        "locality": "Montreal",
                        "postcode": "H2Y 1Y6",
                        "region": "QC"
                  },
                  "name": "Modavie",
                  "popularity": 0.9749006434519304,
                  "price": 2,
                  "rating": 8.3
            },
            {
                  "distance": 605,
                  "location": {
                        "address": "1006 Saint-Laurent Blvd",
                        "country": "CA",
                        "cross_street": "",
                        "formatted_address": "1006 Saint-Laurent Blvd, Montr\u00e9al QC H2Z 1J3",
                        "locality": "Montreal",
                        "postcode": "H2Z 1J3",
                        "region": "QC"
                  },
                  "name": "Nouilles de Lan Zhou",
                  "popularity": 0.9843868281604845,
                  "price": 2,
                  "rating": 8.3
            },
            {
                  "distance": 716,
                  "location": {
                        "address": "3 Saint-Paul Rue E",
                        "country": "CA",
                        "formatted_address": "3 Saint-Paul Rue E, Montr\u00e9al QC H2Y 1E9",
                        "locality": "Montreal",
                        "postcode": "H2Y 1E9",
                        "region": "QC"
                  },
                  "name": "Creperie Chez Suzette",
                  "popularity": 0.9561530090840272,
                  "price": 2,
                  "rating": 8.3
            },
            {
                  "distance": 672,
                  "location": {
                        "address": "39 Saint-Paul Rue E",
                        "country": "CA",
                        "cross_street": "St-Gabriel",
                        "formatted_address": "39 Saint-Paul Rue E (St-Gabriel), Montreal QC H2Y 1G2",
                        "locality": "Montreal",
                        "postcode": "H2Y 1G2",
                        "region": "QC"
                  },
                  "name": "Vieux-Port Steakhouse",
                  "popularity": 0.9651542392127176,
                  "price": 2,
                  "rating": 8.2
            },
            {
                  "distance": 511,
                  "location": {
                        "address": "426 Jacques-Cartier Pl",
                        "country": "CA",
                        "cross_street": "",
                        "formatted_address": "426 Jacques-Cartier Pl, Montr\u00e9al QC H2Y 3B3",
                        "locality": "Montreal",
                        "postcode": "H2Y 3B3",
                        "region": "QC"
                  },
                  "name": "Maggie Oakes",
                  "popularity": 0.9443603330809992,
                  "price": 4,
                  "rating": 8.2
            },
            {
                  "distance": 962,
                  "location": {
                        "address": "150 St Catherine Rue W",
                        "address_extended": "Room 201C",
                        "country": "CA",
                        "cross_street": "",
                        "formatted_address": "150 St Catherine Rue W, Montr\u00e9al QC H2X 3Y2",
                        "locality": "Montreal",
                        "postcode": "H2X 3Y2",
                        "region": "QC"
                  },
                  "name": "La Cage",
                  "popularity": 0.9884202308856926,
                  "price": 2,
                  "rating": 8.2,
                  "store_id": "LC_08"
            },
            {
                  "distance": 640,
                  "location": {
                        "address": "1567 Saint-Denis Rue",
                        "country": "CA",
                        "cross_street": "coin De Maisonneuve",
                        "formatted_address": "1567 Saint-Denis Rue (coin De Maisonneuve), Montr\u00e9al QC H2X 3K3",
                        "locality": "Montreal",
                        "postcode": "H2X 3K3",
                        "region": "QC"
                  },
                  "name": "Saint-Houblon",
                  "popularity": 0.9718608062074187,
                  "price": 3,
                  "rating": 8.2
            },
            {
                  "distance": 813,
                  "location": {
                        "address": "15 Rue de la Commune Ouest",
                        "country": "CA",
                        "cross_street": "",
                        "formatted_address": "15 Rue de la Commune Ouest, Montr\u00e9al QC H2Y 2C6",
                        "locality": "Montreal",
                        "postcode": "H2Y 2C6",
                        "region": "QC"
                  },
                  "name": "Lattuca Barbecue",
                  "popularity": 0.9148372445117335,
                  "price": 2,
                  "rating": 8.1
            },
            {
                  "distance": 863,
                  "location": {
                        "address": "1579 Saint-Laurent Blvd",
                        "country": "CA",
                        "cross_street": "",
                        "formatted_address": "1579 Saint-Laurent Blvd, Montr\u00e9al QC H2X 2S9",
                        "locality": "Montreal",
                        "postcode": "H2X 2S9",
                        "region": "QC"
                  },
                  "name": "Bar Pamplemousse",
                  "popularity": 0.9600563020439061,
                  "rating": 8.1
            },
            {
                  "distance": 923,
                  "location": {
                        "address": "124 Saint-Paul Rue O",
                        "country": "CA",
                        "cross_street": "Place Royale",
                        "formatted_address": "124 Saint-Paul Rue O (Place Royale), Montr\u00e9al QC H2Y 1Z3",
                        "locality": "Montreal",
                        "postcode": "H2Y 1Z3",
                        "region": "QC"
                  },
                  "name": "M\u00e9chant B\u0153uf Bar & Brasserie",
                  "popularity": 0.922537376987131,
                  "price": 2,
                  "rating": 8.0
            },
            {
                  "distance": 985,
                  "location": {
                        "address": "2049 Saint-Denis Rue",
                        "country": "CA",
                        "cross_street": "entre Ontario & Sherbrooke",
                        "formatted_address": "2049 Saint-Denis Rue (entre Ontario & Sherbrooke), Montr\u00e9al QC H2X 3K8",
                        "locality": "Montreal",
                        "postcode": "H2X 3K8",
                        "region": "QC"
                  },
                  "name": "Brasserie Artisanale l'Am\u00e8re a Boire Inc",
                  "popularity": 0.9146479939439819,
                  "price": 2,
                  "rating": 7.9
            },
            {
                  "distance": 695,
                  "location": {
                        "address": "1615 Saint-Denis Rue",
                        "address_extended": "coin \u00c9mery",
                        "country": "CA",
                        "cross_street": "coin \u00c9mery",
                        "formatted_address": "1615 Saint-Denis Rue (coin \u00c9mery), Montr\u00e9al QC H2X 3K3",
                        "locality": "Montreal",
                        "postcode": "H2X 3K3",
                        "region": "QC"
                  },
                  "name": "Juliette et Chocolat",
                  "popularity": 0.9692112982588947,
                  "price": 2,
                  "rating": 7.9
            },
            {
                  "distance": 749,
                  "location": {
                        "address": "1018 Saint-Urbain Rue",
                        "country": "CA",
                        "cross_street": "coin De la Gaucheti\u00e8re",
                        "formatted_address": "1018 Saint-Urbain Rue (coin De la Gaucheti\u00e8re), Montr\u00e9al QC H2Z 1K6",
                        "locality": "Montreal",
                        "postcode": "H2Z 1K6",
                        "region": "QC"
                  },
                  "name": "Noodle Factory",
                  "popularity": 0.9307106358819076,
                  "price": 2,
                  "rating": 7.9
            }
      ],
      "context": {
            "geo_bounds": {
                  "circle": {
                        "center": {
                              "latitude": 45.51216826,
                              "longitude": -73.55481595
                        },
                        "radius": 1000
                  }
            }
      }
}