{
      "results": [
            {
                  "distance": 408,
                  "location": {
                        "address": "7669 Centrale Rue",
                        "country": "CA",
                        "cross_street": "",
                        "formatted_address": "7669 Centrale Rue, Lasalle QC H8P 1L4",
                        "locality": "Lasalle",
                        "postcode": "H8P 1L4",
                        "region": "QC"
                  },
                  "name": "Restaurant Dani's Pizzeria",
                  "popularity": 0.9778340272520818,
                  "price": 1,
                  "rating": 7.4
            },
            {
                  "distance": 169,
                  "location": {
                        "address": "1 8e Ave",
                        "country": "CA",
                        "cross_street": "",
                        "formatted_address": "1 8e Ave, Lasalle QC H8P 2M6",
                        "locality": "Lasalle",
                        "postcode": "H8P 2M6",
                        "region": "QC"
                  },
                  "name": "Restaurant Cr\u00e8me Caf\u00e9",
                  "popularity": 0.9164577024981075,
                  "price": 2
            },
            {
                  "distance": 182,
                  "location": {
                        "address": "7 8e Ave",
                        "address_extended": "# 7",
                        "country": "CA",
                        "cross_street": "",
                        "formatted_address": "7 8e Ave, Lasalle QC H8P 2M6",
                        "locality": "Lasalle",
                        "postcode": "H8P 2M6",
                        "region": "QC"
                  },
                  "name": "Ristorante Riventino",
                  "popularity": 0.8844980128690386,
                  "price": 2
            },
            {
                  "distance": 414,
                  "location": {
                        "address": "7685 Centrale Rue",
                        "country": "CA",
                        "cross_street": "",
                        "formatted_address": "7685 Centrale Rue, Lasalle QC H8P 1L7",
                        "locality": "Lasalle",
                        "postcode": "H8P 1L7",
                        "region": "QC"
                  },
                  "name": "Eviza Cafe",
                  "popularity": 0.9806609576078729,
                  "price": 1
            },
            {
                  "distance": 169,
                  "location": {
                        "address": "1 8e Ave",
                        "country": "CA",
                        "formatted_address": "1 8e Ave, Lasalle QC H8P 2M6",
                        "locality": "Lasalle",
                        "postcode": "H8P 2M6",
                        "region": "QC"
                  },
                  "name": "Cafetiere"
            },
            {
                  "distance": 418,
                  "location": {
                        "address": "7624 Centrale Rue",
                        "country": "CA",
                        "formatted_address": "7624 Centrale Rue, Lasalle QC H8P 1K9",
                        "locality": "Lasalle",
                        "postcode": "H8P 1K9",
                        "region": "QC"
                  },
                  "name": "Restaurant Kim"
            },
            {
                  "distance": 421,
                  "location": {
                        "address": "7695 Centrale Rue",
                        "country": "CA",
                        "formatted_address": "7695 Centrale Rue, Lasalle QC H8P 1L7",
                        "locality": "Lasalle",
                        "postcode": "H8P 1L7",
                        "region": "QC"
                  },
                  "name": "Almondo Pizzeria"
            },
            {
                  "distance": 426,
                  "location": {
                        "address": "7624 Centrale Rue",
                        "country": "CA",
                        "formatted_address": "7624 Centrale Rue, Lasalle QC H8P 1K9",
                        "locality": "Lasalle",
                        "postcode": "H8P 1K9",
                        "region": "QC"
                  },
                  "name": "Restaurant Central 75"
            },
            {
                  "distance": 428,
                  "location": {
                        "address": "7610 Centrale Rue",
                        "country": "CA",
                        "formatted_address": "7610 Centrale Rue, Montreal QC",
                        "locality": "Montreal",
                        "region": "QC"
                  },
                  "name": "Centrales"
            },
            {
                  "distance": 437,
                  "location": {
                        "address": "7610 Centrale Rue",
                        "country": "CA",
                        "formatted_address": "7610 Centrale Rue, Lasalle QC H8P 1K9",
                        "locality": "Lasalle",
                        "postcode": "H8P 1K9",
                        "region": "QC"
                  },
                  "name": "Centrale Pizzeria"
            },
            {
                  "distance": 545,
                  "location": {
                        "address": "7546 Centrale Rue",
                        "country": "CA",
                        "formatted_address": "7546 Centrale Rue, Lasalle QC H8P 1K3",
                        "locality": "Lasalle",
                        "postcode": "H8P 1K3",
                        "region": "QC"
                  },
                  "name": "Le Bronx Grill"
            },
            {
                  "distance": 571,
                  "location": {
                        "address": "189 8e Ave",
                        "country": "CA",
                        "formatted_address": "189 8e Ave, Lasalle QC H8P 2M9",
                        "locality": "Lasalle",
                        "postcode": "H8P 2M9",
                        "region": "QC"
                  },
                  "name": "Pott's Pastries"
            }
      ],
      "context": {
            "geo_bounds": {
                  "circle": {
                        "center": {
                              "latitude": 45.42947144,
                              "longitude": -73.59309916
                        },
                        "radius": 1000
                  }
            }
      }
}