{
      "results": [
            {
                  "distance": 914,
                  "location": {
                        "address": "195 Young Rue",
                        "country": "CA",
                        "cross_street": "entre Ottawa & Wellington",
                        "formatted_address": "195 Young Rue (entre Ottawa & Wellington), Montr\u00e9al QC H3C 2E9",
                        "locality": "Montreal",
                        "postcode": "H3C 2E9",
                        "region": "QC"
                  },
                  "name": "La B\u00eate \u00e0 Pain",
                  "popularity": 0.967153198334595,
                  "price": 1,
                  "rating": 9.3
            },
            {
                  "distance": 371,
                  "location": {
                        "address": "1940 rue du Ctr",
                        "country": "CA",
                        "cross_street": "rue Jardin",
                        "formatted_address": "1940 rue du Ctr (rue Jardin), Montr\u00e9al QC H3K 1J2",
                        "locality": "Montreal",
                        "postcode": "H3K 1J2",
                        "region": "QC"
                  },
                  "name": "Le Caf\u00e9 Bloom",
                  "popularity": 0.9499195685087055,
                  "price": 2,
                  "rating": 9.0
            },
            {
                  "distance": 738,
                  "location": {
                        "address": "1886 Notre-Dame Rue O",
                        "country": "CA",
                        "cross_street": "coin Des Seigneurs",
                        "formatted_address": "1886 Notre-Dame Rue O (coin Des Seigneurs), Montr\u00e9al QC H3J 1M6",
                        "locality": "Montreal",
                        "postcode": "H3J 1M6",
                        "region": "QC"
                  },
                  "name": "Le Boucan",
                  "popularity": 0.9390494890234671,
                  "price": 3,
                  "rating": 8.8
            },
            {
                  "distance": 744,
                  "location": {
                        "address": "1708 Notre-Dame Rue O",
                        "country": "CA",
                        "cross_street": "entre Richmond & St-Martin",
                        "formatted_address": "1708 Notre-Dame Rue O (entre Richmond & St-Martin), Montr\u00e9al QC H3J 1M3",
                        "locality": "Montreal",
                        "postcode": "H3J 1M3",
                        "region": "QC"
                  },
                  "name": "Grinder",
                  "popularity": 0.9388838947766843,
                  "price": 3,
                  "rating": 8.7
            },
            {
                  "distance": 681,
                  "location": {
                        "address": "403 des Seigneurs Rue",
                        "country": "CA",
                        "cross_street": "Notre Dame",
                        "formatted_address": "403 des Seigneurs Rue (Notre Dame), Montr\u00e9al QC H3J 1X7",
                        "locality": "Montreal",
                        "postcode": "H3J 1X7",
                        "region": "QC"
                  },
                  "name": "Perles et Paddock",
                  "popularity": 0.9152394019682059,
                  "price": 4,
                  "rating": 8.6
            },
            {
                  "distance": 751,
                  "location": {
                        "address": "1974 Notre-Dame Rue O",
                        "country": "CA",
                        "cross_street": "entre Canning & Chatham",
                        "formatted_address": "1974 Notre-Dame Rue O (entre Canning & Chatham), Montr\u00e9al QC H3J 1M8",
                        "locality": "Montreal",
                        "postcode": "H3J 1M8",
                        "region": "QC"
                  },
                  "name": "Chez Sophie",
                  "popularity": 0.927304125662377,
                  "price": 3,
                  "rating": 8.6
            },
            {
                  "distance": 762,
                  "location": {
                        "address": "1638 Notre-Dame Rue O",
                        "country": "CA",
                        "cross_street": "entre Guy & Richmond",
                        "formatted_address": "1638 Notre-Dame Rue O (entre Guy & Richmond), Montr\u00e9al QC H3J 1M1",
                        "locality": "Montreal",
                        "postcode": "H3J 1M1",
                        "region": "QC"
                  },
                  "name": "Foxy",
                  "popularity": 0.9481216881150644,
                  "price": 2,
                  "rating": 8.6
            },
            {
                  "distance": 617,
                  "location": {
                        "address": "1485 Ottawa Rue",
                        "country": "CA",
                        "cross_street": "coin Guy",
                        "formatted_address": "1485 Ottawa Rue (coin Guy), Montr\u00e9al QC H3C 1S9",
                        "locality": "Montreal",
                        "postcode": "H3C 1S9",
                        "region": "QC"
                  },
                  "name": "Brasseur de Montr\u00e9al",
                  "popularity": 0.9854750189250567,
                  "price": 2,
                  "rating": 8.5
            },
            {
                  "distance": 262,
                  "location": {
                        "address": "1871 Rue du Ctr",
                        "country": "CA",
                        "cross_street": "Shearer",
                        "formatted_address": "1871 Rue du Ctr (Shearer), Montr\u00e9al QC H3K 1J1",
                        "locality": "Montreal",
                        "postcode": "H3K 1J1",
                        "region": "QC"
                  },
                  "name": "Knox Taverne",
                  "popularity": 0.9547572861468584,
                  "price": 2,
                  "rating": 8.3
            },
            {
                  "distance": 870,
                  "location": {
                        "address": "1380 Notre-Dame Rue O",
                        "country": "CA",
                        "cross_street": "Rue de l'aqueduc",
                        "formatted_address": "1380 Notre-Dame Rue O (Rue de l'aqueduc), Montr\u00e9al QC H3C 1K8",
                        "locality": "Montreal",
                        "postcode": "H3C 1K8",
                        "region": "QC"
                  },
                  "name": "Rockaberry",
                  "popularity": 0.9618423542770629,
                  "rating": 8.3
            },
            {
                  "distance": 770,
                  "location": {
                        "address": "1642 Notre-Dame Rue O",
                        "country": "CA",
                        "cross_street": "entre Richmond & Guy",
                        "formatted_address": "1642 Notre-Dame Rue O (entre Richmond & Guy), Montr\u00e9al QC H3J 1M1",
                        "locality": "Montreal",
                        "postcode": "H3J 1M1",
                        "region": "QC"
                  },
                  "name": "Le Bureau Bar a Tapas",
                  "popularity": 0.9004305450416351,
                  "price": 3,
                  "rating": 8.3
            },
            {
                  "distance": 801,
                  "location": {
                        "address": "300 Rue de la Montagne",
                        "country": "CA",
                        "cross_street": "Rue Du Seminaire",
                        "formatted_address": "300 Rue de la Montagne (Rue Du Seminaire), Montr\u00e9al QC H3C 2B1",
                        "locality": "Montreal",
                        "postcode": "H3C 2B1",
                        "region": "QC"
                  },
                  "name": "Le Petit Dep",
                  "popularity": 0.9751963474640424,
                  "price": 1,
                  "rating": 8.2
            },
            {
                  "distance": 731,
                  "location": {
                        "address": "1850 Notre-Dame Rue O",
                        "country": "CA",
                        "cross_street": "Rue des Seigneurs",
                        "formatted_address": "1850 Notre-Dame Rue O (Rue des Seigneurs), Montr\u00e9al QC H3J 1M5",
                        "locality": "Montreal",
                        "postcode": "H3J 1M5",
                        "region": "QC"
                  },
                  "name": "Caf\u00e9 Lali",
                  "popularity": 0.9049134178652536,
                  "price": 1,
                  "rating": 8.1
            },
            {
                  "distance": 921,
                  "location": {
                        "address": "100 Peel Rue",
                        "country": "CA",
                        "cross_street": "coin Smith",
                        "formatted_address": "100 Peel Rue (coin Smith), Montr\u00e9al QC H3C 0L8",
                        "locality": "Montreal",
                        "postcode": "H3C 0L8",
                        "region": "QC"
                  },
                  "name": "Zibo",
                  "popularity": 0.9744275170325511,
                  "price": 2,
                  "rating": 8.1
            },
            {
                  "distance": 770,
                  "location": {
                        "address": "1900 le Ber Rue",
                        "country": "CA",
                        "cross_street": "",
                        "formatted_address": "1900 le Ber Rue, Montr\u00e9al QC H3K 2A4",
                        "locality": "Montreal",
                        "postcode": "H3K 2A4",
                        "region": "QC"
                  },
                  "name": "Les Sans-Taverne",
                  "popularity": 0.9684779523088569,
                  "price": 2,
                  "rating": 8.0
            },
            {
                  "distance": 276,
                  "location": {
                        "address": "1870 rue du Ctr",
                        "country": "CA",
                        "cross_street": "",
                        "formatted_address": "1870 rue du Ctr, Montr\u00e9al QC H3K 1H9",
                        "locality": "Montreal",
                        "postcode": "H3K 1H9",
                        "region": "QC"
                  },
                  "name": "Le Petit Sao",
                  "popularity": 0.8894894965934897,
                  "price": 2,
                  "rating": 8.0
            },
            {
                  "distance": 969,
                  "location": {
                        "address": "1059 Wellington Rue",
                        "country": "CA",
                        "cross_street": "Rue Peel",
                        "formatted_address": "1059 Wellington Rue (Rue Peel), Montr\u00e9al QC H3C 1V6",
                        "locality": "Montreal",
                        "postcode": "H3C 1V6",
                        "region": "QC"
                  },
                  "name": "Pizzeria Moretti",
                  "popularity": 0.965237036336109,
                  "price": 2,
                  "rating": 8.0
            },
            {
                  "distance": 882,
                  "location": {
                        "address": "2483 rue du Ctr",
                        "country": "CA",
                        "cross_street": "",
                        "formatted_address": "2483 rue du Ctr, Montr\u00e9al QC H3K 1J9",
                        "locality": "Montreal",
                        "postcode": "H3K 1J9",
                        "region": "QC"
                  },
                  "name": "Clarke Caf\u00e9",
                  "popularity": 0.9593111279333838,
                  "price": 1,
                  "rating": 7.6
            },
            {
                  "distance": 802,
                  "location": {
                        "address": "1524 Notre-Dame Rue O",
                        "country": "CA",
                        "cross_street": "",
                        "formatted_address": "1524 Notre-Dame Rue O, Montr\u00e9al QC H3C 1L1",
                        "locality": "Montreal",
                        "postcode": "H3C 1L1",
                        "region": "QC"
                  },
                  "name": "Maman",
                  "popularity": 0.9602692089326268,
                  "price": 3,
                  "rating": 7.6
            },
            {
                  "distance": 579,
                  "location": {
                        "address": "265 des Seigneurs Rue",
                        "country": "CA",
                        "cross_street": "entre William & Basin",
                        "formatted_address": "265 des Seigneurs Rue (entre William & Basin), Montr\u00e9al QC H3J 0B3",
                        "locality": "Montreal",
                        "postcode": "H3J 0B3",
                        "region": "QC"
                  },
                  "name": "Lord William Pub",
                  "popularity": 0.9671058856926571,
                  "price": 1,
                  "rating": 7.1
            },
            {
                  "distance": 635,
                  "location": {
                        "address": "377 Richmond Rue",
                        "country": "CA",
                        "cross_street": "",
                        "formatted_address": "377 Richmond Rue, Montr\u00e9al QC H3J 1T9",
                        "locality": "Montreal",
                        "postcode": "H3J 1T9",
                        "region": "QC"
                  },
                  "name": "Le Richmond",
                  "popularity": 0.906865064345193,
                  "price": 3,
                  "rating": 7.1
            },
            {
                  "distance": 836,
                  "location": {
                        "address": "323 rue de la Montagne",
                        "country": "CA",
                        "cross_street": "",
                        "formatted_address": "323 rue de la Montagne, Montr\u00e9al QC H3C 0S6",
                        "locality": "Montreal",
                        "postcode": "H3C 0S6",
                        "region": "QC"
                  },
                  "name": "Boulangerie l'Amour du Pain",
                  "popularity": 0.9667510408781226,
                  "price": 1,
                  "rating": 6.8
            },
            {
                  "distance": 267,
                  "location": {
                        "address": "14 Prince Arthur Rue",
                        "country": "CA",
                        "cross_street": "",
                        "formatted_address": "14 Prince Arthur Rue, Montr\u00e9al QC",
                        "locality": "Montreal",
                        "region": "QC"
                  },
                  "name": "Au 14",
                  "popularity": 0.2768972369417108,
                  "price": 2
            },
            {
                  "distance": 288,
                  "location": {
                        "address": "1883 Rue du Ctr",
                        "country": "CA",
                        "cross_street": "Shearer",
                        "formatted_address": "1883 Rue du Ctr (Shearer), Montr\u00e9al QC H3K 1J1",
                        "locality": "Montreal",
                        "postcode": "H3K 1J1",
                        "region": "QC"
                  },
                  "name": "Caf\u00e9 Ton Quartier",
                  "popularity": 0.849522142316427,
                  "price": 1
            },
            {
                  "distance": 312,
                  "location": {
                        "address": "1886 Rue Ctr",
                        "country": "CA",
                        "cross_street": "",
                        "formatted_address": "1886 Rue Ctr, Montr\u00e9al QC H3K 1H9",
                        "locality": "Montreal",
                        "postcode": "H3K 1H9",
                        "region": "QC"
                  },
                  "name": "Fugazzi Pizza",
                  "popularity": 0.9187168811506434,
                  "price": 1
            },
            {
                  "distance": 488,
                  "location": {
                        "address": "2042 Center Rue",
                        "country": "CA",
                        "cross_street": "",
                        "formatted_address": "2042 Center Rue, Montr\u00e9al QC",
                        "locality": "Montreal",
                        "region": "QC"
                  },
                  "name": "Cr\u00e8merie du coin",
                  "popularity": 0.9050671839515518,
                  "price": 1
            },
            {
                  "distance": 597,
                  "location": {
                        "address": "1845 William Rue",
                        "country": "CA",
                        "cross_street": "",
                        "formatted_address": "1845 William Rue, Montr\u00e9al QC H3J 0A5",
                        "locality": "Montreal",
                        "postcode": "H3J 0A5",
                        "region": "QC"
                  },
                  "name": "Le Trou - Fabrique de Bagels Griffintown",
                  "popularity": 0.9281794095382286,
                  "price": 1
            },
            {
                  "distance": 601,
                  "location": {
                        "address": "1613 William Rue",
                        "country": "CA",
                        "cross_street": "",
                        "formatted_address": "1613 William Rue, Montr\u00e9al QC H3J 1R1",
                        "locality": "Montreal",
                        "postcode": "H3J 1R1",
                        "region": "QC"
                  },
                  "name": "Petros Griffintown",
                  "popularity": 0.9564132286146858,
                  "price": 2
            },
            {
                  "distance": 634,
                  "location": {
                        "address": "108 rue du Sq Gallery",
                        "country": "CA",
                        "cross_street": "",
                        "formatted_address": "108 rue du Sq Gallery, Montr\u00e9al QC H3C 0Y7",
                        "locality": "Montreal",
                        "postcode": "H3C 0Y7",
                        "region": "QC"
                  },
                  "name": "Kanalbar",
                  "popularity": 0.6063588190764573,
                  "price": 3
            },
            {
                  "distance": 635,
                  "location": {
                        "address": "386 Richmond Rue",
                        "country": "CA",
                        "cross_street": "",
                        "formatted_address": "386 Richmond Rue, Montr\u00e9al QC H3J 0B9",
                        "locality": "Montreal",
                        "postcode": "H3J 0B9",
                        "region": "QC"
                  },
                  "name": "Ayla",
                  "popularity": 0.9475066237698713,
                  "price": 2
            },
            {
                  "distance": 636,
                  "location": {
                        "address": "388 Richmond Rue",
                        "country": "CA",
                        "cross_street": "",
                        "formatted_address": "388 Richmond Rue, Montr\u00e9al QC H3J 0B9",
                        "locality": "Montreal",
                        "postcode": "H3J 0B9",
                        "region": "QC"
                  },
                  "name": "Ryu",
                  "popularity": 0.908509178652536,
                  "price": 2
            },
            {
                  "distance": 749,
                  "location": {
                        "address": "1986 Notre-Dame Rue O",
                        "country": "CA",
                        "cross_street": "William",
                        "formatted_address": "1986 Notre-Dame Rue O (William), Montreal QC H3J 1M8",
                        "locality": "Montreal",
                        "postcode": "H3J 1M8",
                        "region": "QC"
                  },
                  "name": "La Diperie",
                  "popularity": 0.9300719152157456,
                  "price": 1
            },
            {
                  "distance": 750,
                  "location": {
                        "address": "1970 Notre Dame Rue O",
                        "country": "CA",
                        "cross_street": "",
                        "formatted_address": "1970 Notre Dame Rue O, Montr\u00e9al QC H3J 1M8",
                        "locality": "Montreal",
                        "postcode": "H3J 1M8",
                        "region": "QC"
                  },
                  "name": "Cafe Got Soul",
                  "popularity": 0.8577190575321726,
                  "price": 1
            },
            {
                  "distance": 751,
                  "location": {
                        "address": "2069 Wellington Rue",
                        "country": "CA",
                        "cross_street": "Fortune",
                        "formatted_address": "2069 Wellington Rue (Fortune), Montr\u00e9al QC H3K 1W7",
                        "locality": "Montreal",
                        "postcode": "H3K 1W7",
                        "region": "QC"
                  },
                  "name": "Mollo",
                  "popularity": 0.9784609197577593,
                  "price": 1
            },
            {
                  "distance": 754,
                  "location": {
                        "address": "1726 Notre-Dame Rue O",
                        "country": "CA",
                        "cross_street": "",
                        "formatted_address": "1726 Notre-Dame Rue O, Montr\u00e9al QC H3J 1M3",
                        "locality": "Montreal",
                        "postcode": "H3J 1M3",
                        "region": "QC"
                  },
                  "name": "Le Mackro",
                  "popularity": 0.023538039364118093,
                  "price": 3
            }
      ],
      "context": {
            "geo_bounds": {
                  "circle": {
                        "center": {
                              "latitude": 45.48496606,
                              "longitude": -73.56032252
                        },
                        "radius": 1000
                  }
            }
      }
}