{
      "results": [
            {
                  "distance": 994,
                  "location": {
                        "address": "1201 Van Horne Ave",
                        "country": "CA",
                        "cross_street": "",
                        "formatted_address": "1201 Van Horne Ave, Montr\u00e9al QC H2V 1K4",
                        "locality": "Montreal",
                        "postcode": "H2V 1K4",
                        "region": "QC"
                  },
                  "name": "Damas",
                  "popularity": 0.9677446063588191,
                  "price": 4,
                  "rating": 9.4
            },
            {
                  "distance": 897,
                  "location": {
                        "address": "1311 Bernard Ave",
                        "country": "CA",
                        "cross_street": "coin Outremont",
                        "formatted_address": "1311 Bernard Ave (coin Outremont), Montr\u00e9al QC H2V 1W1",
                        "locality": "Montreal",
                        "postcode": "H2V 1W1",
                        "region": "QC"
                  },
                  "name": "Le Glacier Bilboquet",
                  "popularity": 0.9378075321725965,
                  "price": 2,
                  "rating": 9.0
            },
            {
                  "distance": 851,
                  "location": {
                        "address": "1291 Van Horne Ave",
                        "country": "CA",
                        "cross_street": "coin av. Outremont",
                        "formatted_address": "1291 Van Horne Ave (coin av. Outremont), Montr\u00e9al QC H2V 1K5",
                        "locality": "Montreal",
                        "postcode": "H2V 1K5",
                        "region": "QC"
                  },
                  "name": "Mamie Clafoutis",
                  "popularity": 0.9346375851627555,
                  "price": 2,
                  "rating": 8.8
            },
            {
                  "distance": 979,
                  "location": {
                        "address": "11265 Bernard Ave",
                        "country": "CA",
                        "cross_street": "btwn Ave. Champagneur & Ave. Outremont",
                        "formatted_address": "11265 Bernard Ave (btwn Ave. Champagneur & Ave. Outremont), Montr\u00e9al QC H2V 1V8",
                        "locality": "Montreal",
                        "postcode": "H2V 1V8",
                        "region": "QC"
                  },
                  "name": "Restaurant le Petit Italien",
                  "popularity": 0.9217094057532172,
                  "price": 3,
                  "rating": 8.1
            },
            {
                  "distance": 595,
                  "location": {
                        "address": "1464 Van Horne Ave",
                        "country": "CA",
                        "cross_street": "entre Stuart & Dollard",
                        "formatted_address": "1464 Van Horne Ave (entre Stuart & Dollard), Outremont QC H2V 1L2",
                        "locality": "Outremont",
                        "postcode": "H2V 1L2",
                        "region": "QC"
                  },
                  "name": "Paltoquet",
                  "popularity": 0.9282503785011355,
                  "price": 1,
                  "rating": 8.0
            },
            {
                  "distance": 788,
                  "location": {
                        "address": "1248 Beaumont Ave",
                        "country": "CA",
                        "formatted_address": "1248 Beaumont Ave, Montr\u00e9al QC H3P 3E5",
                        "locality": "Montreal",
                        "postcode": "H3P 3E5",
                        "region": "QC"
                  },
                  "name": "Sushi Plus",
                  "popularity": 0.956247634367903,
                  "price": 2,
                  "rating": 7.7
            },
            {
                  "distance": 641,
                  "location": {
                        "address": "1333 Van Horne Ave",
                        "country": "CA",
                        "cross_street": "",
                        "formatted_address": "1333 Van Horne Ave, Montr\u00e9al QC H2V 1K7",
                        "locality": "Montreal",
                        "postcode": "H2V 1K7",
                        "region": "QC"
                  },
                  "name": "Lescurier Tradition Gourmande",
                  "popularity": 0.8525974640423921,
                  "price": 1,
                  "rating": 7.6
            },
            {
                  "distance": 852,
                  "location": {
                        "address": "114 Dresden Ave",
                        "country": "CA",
                        "cross_street": "coin Jean-Talon",
                        "formatted_address": "114 Dresden Ave (coin Jean-Talon), Montr\u00e9al QC H3P 2B6",
                        "locality": "Montreal",
                        "postcode": "H3P 2B6",
                        "region": "QC"
                  },
                  "name": "Poissonnerie la Sirene la Mer",
                  "popularity": 0.9898987509462528,
                  "price": 3,
                  "rating": 7.4
            },
            {
                  "distance": 967,
                  "location": {
                        "address": "1271 Bernard Ave",
                        "country": "CA",
                        "cross_street": "coin Champagneur",
                        "formatted_address": "1271 Bernard Ave (coin Champagneur), Outremont QC H2V 1V8",
                        "locality": "Outremont",
                        "postcode": "H2V 1V8",
                        "region": "QC"
                  },
                  "name": "Boulangerie Premiere Moisson",
                  "popularity": 0.8833861657834974,
                  "price": 1,
                  "rating": 7.4
            },
            {
                  "distance": 714,
                  "location": {
                        "address": "2707 Van Horne Ave",
                        "address_extended": "# 2615",
                        "country": "CA",
                        "cross_street": "",
                        "formatted_address": "2707 Van Horne Ave, Montr\u00e9al QC H3S 1P6",
                        "locality": "Montreal",
                        "postcode": "H3S 1P6",
                        "region": "QC"
                  },
                  "name": "Subway",
                  "popularity": 0.8892056207418623,
                  "price": 1,
                  "rating": 6.4
            },
            {
                  "distance": 608,
                  "location": {
                        "address": "1452 Van Horne Ave",
                        "country": "CA",
                        "cross_street": "coin av. Stuart",
                        "formatted_address": "1452 Van Horne Ave (coin av. Stuart), Outremont QC H2V 1L2",
                        "locality": "Outremont",
                        "postcode": "H2V 1L2",
                        "region": "QC"
                  },
                  "name": "Subway",
                  "popularity": 0.32512064723694173,
                  "price": 1,
                  "rating": 6.2,
                  "store_id": "41805"
            },
            {
                  "distance": 952,
                  "location": {
                        "address": "1275 Bernard Ave",
                        "country": "CA",
                        "cross_street": "",
                        "formatted_address": "1275 Bernard Ave, Outremont QC H2V 1V8",
                        "locality": "Outremont",
                        "postcode": "H2V 1V8",
                        "region": "QC"
                  },
                  "name": "Second Cup Coffee Co",
                  "popularity": 0.8932863361090083,
                  "price": 1,
                  "rating": 5.8,
                  "store_id": "3211"
            },
            {
                  "distance": 517,
                  "location": {
                        "address": "1505 Van Horne Ave",
                        "country": "CA",
                        "cross_street": "Dollard",
                        "formatted_address": "1505 Van Horne Ave (Dollard), Outremont QC H2V 1L4",
                        "locality": "Outremont",
                        "postcode": "H2V 1L4",
                        "region": "QC"
                  },
                  "name": "Van Horne Pizzeria",
                  "popularity": 0.8809850492051476,
                  "price": 1,
                  "rating": 5.0
            },
            {
                  "distance": 755,
                  "location": {
                        "address": "1300 Beaumont Ave",
                        "country": "CA",
                        "formatted_address": "1300 Beaumont Ave, Montr\u00e9al QC H3P 3E5",
                        "locality": "Montreal",
                        "postcode": "H3P 3E5",
                        "region": "QC"
                  },
                  "name": "McDonald's",
                  "popularity": 0.9923708364875095,
                  "price": 1,
                  "rating": 4.8,
                  "store_id": "5095"
            },
            {
                  "distance": 453,
                  "location": {
                        "address": "1541 Van Horne Ave",
                        "country": "CA",
                        "cross_street": "Av McEachran",
                        "formatted_address": "1541 Van Horne Ave (Av McEachran), Montr\u00e9al QC H2V 1L4",
                        "locality": "Montreal",
                        "postcode": "H2V 1L4",
                        "region": "QC"
                  },
                  "name": "Roch le Coq",
                  "popularity": 0.9616531037093111,
                  "price": 1
            },
            {
                  "distance": 461,
                  "location": {
                        "address": "1541 Van Horne",
                        "country": "CA",
                        "cross_street": "",
                        "formatted_address": "1541 Van Horne, Montreal QC H3S 2T5",
                        "locality": "Montreal",
                        "postcode": "H3S 2T5",
                        "region": "QC"
                  },
                  "name": "Pendeli's",
                  "popularity": 0.6617500946252839,
                  "price": 1
            },
            {
                  "distance": 559,
                  "location": {
                        "address": "9 Vincent d'Indy Ave",
                        "country": "CA",
                        "cross_street": "",
                        "formatted_address": "9 Vincent d'Indy Ave, Montr\u00e9al QC H2V 4N7",
                        "locality": "Montreal",
                        "postcode": "H2V 4N7",
                        "region": "QC"
                  },
                  "name": "Pizza Tifosi Outremont",
                  "popularity": 0.8951788417865254,
                  "price": 1
            },
            {
                  "distance": 593,
                  "location": {
                        "address": "1461 Van Horne Ave",
                        "country": "CA",
                        "cross_street": "",
                        "formatted_address": "1461 Van Horne Ave, Montr\u00e9al QC H2V 1L3",
                        "locality": "Montreal",
                        "postcode": "H2V 1L3",
                        "region": "QC"
                  },
                  "name": "Caf\u00e9 DAX",
                  "popularity": 0.9622090272520818,
                  "price": 1
            },
            {
                  "distance": 619,
                  "location": {
                        "address": "1453 Van Horne Ave",
                        "country": "CA",
                        "formatted_address": "1453 Van Horne Ave, Montr\u00e9al QC H2V 1L3",
                        "locality": "Montreal",
                        "postcode": "H2V 1L3",
                        "region": "QC"
                  },
                  "name": "Double Pizza",
                  "popularity": 0.876916161998486,
                  "price": 1
            },
            {
                  "distance": 730,
                  "location": {
                        "address": "1368 Van Horne Ave",
                        "country": "CA",
                        "cross_street": "Wiseman",
                        "formatted_address": "1368 Van Horne Ave (Wiseman), Montr\u00e9al QC H2V 1K8",
                        "locality": "Montreal",
                        "postcode": "H2V 1K8",
                        "region": "QC"
                  },
                  "name": "Sushi Yen",
                  "popularity": 0.5249692467827404,
                  "price": 2
            },
            {
                  "distance": 758,
                  "location": {
                        "address": "1346 Van Horne Ave",
                        "country": "CA",
                        "cross_street": "",
                        "formatted_address": "1346 Van Horne Ave, Outremont QC H2V 1K8",
                        "locality": "Outremont",
                        "postcode": "H2V 1K8",
                        "region": "QC"
                  },
                  "name": "P23 Dumplings",
                  "popularity": 0.807709595003785,
                  "price": 1
            },
            {
                  "distance": 772,
                  "location": {
                        "address": "2049 Edouard Montpetit",
                        "country": "CA",
                        "cross_street": "Vincent D'indy",
                        "formatted_address": "2049 Edouard Montpetit (Vincent D'indy), Montr\u00e9al QC",
                        "locality": "Montreal",
                        "region": "QC"
                  },
                  "name": "Les Navafr\u00e9es",
                  "popularity": 0.9031391937925813,
                  "price": 3
            },
            {
                  "distance": 775,
                  "location": {
                        "address": "1344 Van Horne Ave",
                        "country": "CA",
                        "cross_street": "Wiseman",
                        "formatted_address": "1344 Van Horne Ave (Wiseman), Montr\u00e9al QC H2V 1K8",
                        "locality": "Montreal",
                        "postcode": "H2V 1K8",
                        "region": "QC"
                  },
                  "name": "Marmite africaine",
                  "popularity": 0.04625993565480697,
                  "price": 2
            },
            {
                  "distance": 791,
                  "location": {
                        "address": "1317 Van Horne Ave",
                        "country": "CA",
                        "cross_street": "",
                        "formatted_address": "1317 Van Horne Ave, Montr\u00e9al QC H2V 1K7",
                        "locality": "Montreal",
                        "postcode": "H2V 1K7",
                        "region": "QC"
                  },
                  "name": "Caf\u00e9 Dante",
                  "popularity": 0.9554314912944739,
                  "price": 1
            },
            {
                  "distance": 880,
                  "location": {
                        "address": "250 Graham Blvd",
                        "country": "CA",
                        "cross_street": "",
                        "formatted_address": "250 Graham Blvd, Mont-Royal QC H3P 2C5",
                        "locality": "Mont-Royal",
                        "postcode": "H3P 2C5",
                        "region": "QC"
                  },
                  "name": "Domino's Pizza",
                  "popularity": 0.9223954390613172,
                  "price": 1,
                  "store_id": "10650"
            },
            {
                  "distance": 963,
                  "location": {
                        "address": "1100 Beaumont Ave",
                        "country": "CA",
                        "cross_street": "Acadie",
                        "formatted_address": "1100 Beaumont Ave (Acadie), Montr\u00e9al QC H3P 3H5",
                        "locality": "Montreal",
                        "postcode": "H3P 3H5",
                        "region": "QC"
                  },
                  "name": "Cartier Caf\u00e9 BIstro",
                  "popularity": 0.9433076267978804,
                  "price": 1
            },
            {
                  "distance": 987,
                  "location": {
                        "address": "1233 Lajoie Ave",
                        "country": "CA",
                        "cross_street": "",
                        "formatted_address": "1233 Lajoie Ave, Outremont QC H2V 1P2",
                        "locality": "Outremont",
                        "postcode": "H2V 1P2",
                        "region": "QC"
                  },
                  "name": "Tinc Set Montr\u00e9al",
                  "popularity": 0.9496948334595003,
                  "price": 2
            },
            {
                  "distance": 290,
                  "location": {
                        "address": "779 Rockland Ave",
                        "country": "CA",
                        "formatted_address": "779 Rockland Ave, Outremont QC H2V 2Z7",
                        "locality": "Outremont",
                        "postcode": "H2V 2Z7",
                        "region": "QC"
                  },
                  "name": "Les Vraies Affaires"
            },
            {
                  "distance": 390,
                  "location": {
                        "address": "1589 Van Horne Ave",
                        "country": "CA",
                        "formatted_address": "1589 Van Horne Ave, Outremont QC H2V 1L6",
                        "locality": "Outremont",
                        "postcode": "H2V 1L6",
                        "region": "QC"
                  },
                  "name": "BIOBAB Mini March\u00e9"
            },
            {
                  "distance": 487,
                  "location": {
                        "address": "6100 Ave du Boise",
                        "country": "CA",
                        "formatted_address": "6100 Ave du Boise, Montreal QC H3S 2W1",
                        "locality": "Montreal",
                        "postcode": "H3S 2W1",
                        "region": "QC"
                  },
                  "name": "Cafe Morena"
            },
            {
                  "distance": 698,
                  "location": {
                        "address": "2720 Pl de Darlington",
                        "country": "CA",
                        "formatted_address": "2720 Pl de Darlington, Montreal QC H3S 1L5",
                        "locality": "Montreal",
                        "postcode": "H3S 1L5",
                        "region": "QC"
                  },
                  "name": "Joaquin's Cigar Lounge"
            },
            {
                  "distance": 722,
                  "location": {
                        "address": "880 Jarry Rue W",
                        "country": "CA",
                        "formatted_address": "880 Jarry Rue W, Montreal QC",
                        "locality": "Montreal",
                        "region": "QC"
                  },
                  "name": "Mahli Sweets"
            },
            {
                  "distance": 743,
                  "location": {
                        "address": "2660 Ave de Kent",
                        "country": "CA",
                        "formatted_address": "2660 Ave de Kent, Montreal QC H3S 1M7",
                        "locality": "Montreal",
                        "postcode": "H3S 1M7",
                        "region": "QC"
                  },
                  "name": "Saveurs de Damas"
            },
            {
                  "distance": 746,
                  "location": {
                        "address": "1368 Van Horne Ave",
                        "country": "CA",
                        "formatted_address": "1368 Van Horne Ave, Outremont QC H2V 1K8",
                        "locality": "Outremont",
                        "postcode": "H2V 1K8",
                        "region": "QC"
                  },
                  "name": "Sushi Time"
            },
            {
                  "distance": 846,
                  "location": {
                        "address": "2662 Ave de Soissons",
                        "country": "CA",
                        "formatted_address": "2662 Ave de Soissons, Montreal QC H3S 1V8",
                        "locality": "Montreal",
                        "postcode": "H3S 1V8",
                        "region": "QC"
                  },
                  "name": "Moist Club"
            }
      ],
      "context": {
            "geo_bounds": {
                  "circle": {
                        "center": {
                              "latitude": 45.51491895,
                              "longitude": -73.61968517
                        },
                        "radius": 1000
                  }
            }
      }
}