{
      "results": [
            {
                  "distance": 840,
                  "location": {
                        "address": "2373 Marcel-Laurin Blvd",
                        "country": "CA",
                        "cross_street": "Laval",
                        "formatted_address": "2373 Marcel-Laurin Blvd (Laval), Montr\u00e9al QC H4R 1K4",
                        "locality": "Montreal",
                        "postcode": "H4R 1K4",
                        "region": "QC"
                  },
                  "name": "Restaurant Daou",
                  "popularity": 0.9962623012869039,
                  "price": 2,
                  "rating": 8.7
            },
            {
                  "distance": 94,
                  "location": {
                        "address": "1911 Keller Blvd",
                        "country": "CA",
                        "cross_street": "",
                        "formatted_address": "1911 Keller Blvd, Montr\u00e9al QC H4K 2V6",
                        "locality": "Montreal",
                        "postcode": "H4K 2V6",
                        "region": "QC"
                  },
                  "name": "Restaurant Kuljit India",
                  "popularity": 0.9449517411052233,
                  "price": 2,
                  "rating": 8.5
            },
            {
                  "distance": 611,
                  "location": {
                        "address": "5560 Henri-Bourassa Blvd O",
                        "country": "CA",
                        "cross_street": "",
                        "formatted_address": "5560 Henri-Bourassa Blvd O, Montr\u00e9al QC H4R 0M6",
                        "locality": "Montreal",
                        "postcode": "H4R 0M6",
                        "region": "QC"
                  },
                  "name": "Premi\u00e8re Moisson",
                  "popularity": 0.9880772142316427,
                  "price": 1,
                  "rating": 8.5
            },
            {
                  "distance": 375,
                  "location": {
                        "address": "5771 Gouin Blvd O",
                        "country": "CA",
                        "cross_street": "coin Genet",
                        "formatted_address": "5771 Gouin Blvd O (coin Genet), Montr\u00e9al QC H4J 1E3",
                        "locality": "Montreal",
                        "postcode": "H4J 1E3",
                        "region": "QC"
                  },
                  "name": "Fourchette Antillaise",
                  "popularity": 0.11221375851627555,
                  "price": 2,
                  "rating": 7.5
            },
            {
                  "distance": 581,
                  "location": {
                        "address": "5540 Henri-Bourassa Blvd O",
                        "country": "CA",
                        "cross_street": "",
                        "formatted_address": "5540 Henri-Bourassa Blvd O, Montr\u00e9al QC H4R 0M6",
                        "locality": "Montreal",
                        "postcode": "H4R 0M6",
                        "region": "QC"
                  },
                  "name": "Chocolats Favoris",
                  "popularity": 0.9551239591218774,
                  "price": 1,
                  "rating": 7.4
            },
            {
                  "distance": 282,
                  "location": {
                        "address": "11990 Lachapelle St",
                        "country": "CA",
                        "cross_street": "",
                        "formatted_address": "11990 Lachapelle St, Montr\u00e9al QC H4J 2M3",
                        "locality": "Montreal",
                        "postcode": "H4J 2M3",
                        "region": "QC"
                  },
                  "name": "Dairy Queen",
                  "popularity": 0.9874384935654807,
                  "price": 1,
                  "rating": 7.0
            },
            {
                  "distance": 656,
                  "location": {
                        "address": "12208 Laurentien Blvd",
                        "country": "CA",
                        "cross_street": "",
                        "formatted_address": "12208 Laurentien Blvd, Montr\u00e9al QC H4K 1M9",
                        "locality": "Montreal",
                        "postcode": "H4K 1M9",
                        "region": "QC"
                  },
                  "name": "Nuit de Beyrouth",
                  "popularity": 0.9128855980317941,
                  "price": 2,
                  "rating": 6.8
            },
            {
                  "distance": 739,
                  "location": {
                        "address": "12242 Laurentien Blvd",
                        "country": "CA",
                        "cross_street": "at Gouin",
                        "formatted_address": "12242 Laurentien Blvd (at Gouin), Montr\u00e9al QC H4K 1M9",
                        "locality": "Montreal",
                        "postcode": "H4K 1M9",
                        "region": "QC"
                  },
                  "name": "Restaurant Tong Por St-Laurent",
                  "popularity": 0.991992335352006,
                  "price": 2,
                  "rating": 6.6
            },
            {
                  "distance": 185,
                  "location": {
                        "address": "11880 Laurentien Blvd",
                        "country": "CA",
                        "cross_street": "Keller",
                        "formatted_address": "11880 Laurentien Blvd (Keller), Saint-Laurent QC H4K 2G1",
                        "locality": "Saint-Laurent",
                        "postcode": "H4K 2G1",
                        "region": "QC"
                  },
                  "name": "Tim Hortons",
                  "popularity": 0.9968418811506434,
                  "price": 1,
                  "rating": 6.5
            },
            {
                  "distance": 263,
                  "location": {
                        "address": "11960 Lachapelle St",
                        "country": "CA",
                        "cross_street": "",
                        "formatted_address": "11960 Lachapelle St, Montr\u00e9al QC H4J 2M3",
                        "locality": "Montreal",
                        "postcode": "H4J 2M3",
                        "region": "QC"
                  },
                  "name": "Subway",
                  "popularity": 0.8828775548826646,
                  "price": 1,
                  "rating": 6.4,
                  "store_id": "30574"
            },
            {
                  "distance": 533,
                  "location": {
                        "address": "Complexe Challenger",
                        "address_extended": "Bldg. 5",
                        "country": "CA",
                        "cross_street": "",
                        "formatted_address": "Complexe Challenger, Saint-Laurent QC H4R 1V9",
                        "locality": "Saint-Laurent",
                        "postcode": "H4R 1V9",
                        "region": "QC"
                  },
                  "name": "Subway",
                  "popularity": 0.8905540310370931,
                  "price": 1,
                  "rating": 6.4,
                  "store_id": "57460"
            },
            {
                  "distance": 460,
                  "location": {
                        "address": "5510 Henri Bourassa Blvd O",
                        "country": "CA",
                        "cross_street": "Rue Wilfrid-Reid",
                        "formatted_address": "5510 Henri Bourassa Blvd O (Rue Wilfrid-Reid), Montr\u00e9al QC H4R 0M6",
                        "locality": "Montreal",
                        "postcode": "H4R 0M6",
                        "region": "QC"
                  },
                  "name": "Pizza Pizza",
                  "popularity": 0.9099758705526116,
                  "price": 1,
                  "rating": 6.2,
                  "store_id": "325"
            },
            {
                  "distance": 863,
                  "location": {
                        "address": "2323 Marcel-Laurin Blvd",
                        "country": "CA",
                        "cross_street": "",
                        "formatted_address": "2323 Marcel-Laurin Blvd, Saint-Laurent QC H4R 1K4",
                        "locality": "Saint-Laurent",
                        "postcode": "H4R 1K4",
                        "region": "QC"
                  },
                  "name": "Tim Hortons",
                  "popularity": 0.9874621498864496,
                  "price": 1,
                  "rating": 5.4
            },
            {
                  "distance": 182,
                  "location": {
                        "address": "2980 Marcel Laurin",
                        "country": "CA",
                        "cross_street": "",
                        "formatted_address": "2980 Marcel Laurin, Saint-Laurent QC",
                        "locality": "Saint-Laurent",
                        "region": "QC"
                  },
                  "name": "Restaurant Marco",
                  "popularity": 0.3335422975018925,
                  "price": 2
            },
            {
                  "distance": 384,
                  "location": {
                        "address": "5291 Henri-Bourassa Blvd O",
                        "country": "CA",
                        "formatted_address": "5291 Henri-Bourassa Blvd O, Saint-Laurent QC H4R 1B7",
                        "locality": "Saint-Laurent",
                        "postcode": "H4R 1B7",
                        "region": "QC"
                  },
                  "name": "Ristorante Vino Rosso",
                  "popularity": 0.9803770817562453,
                  "price": 3
            },
            {
                  "distance": 446,
                  "location": {
                        "address": "12065 Laurentien Blvd",
                        "country": "CA",
                        "formatted_address": "12065 Laurentien Blvd, Montr\u00e9al QC H4K 1N3",
                        "locality": "Montreal",
                        "postcode": "H4K 1N3",
                        "region": "QC"
                  },
                  "name": "Snookers Billiards",
                  "popularity": 0.9975279144587433,
                  "price": 1
            },
            {
                  "distance": 543,
                  "location": {
                        "address": "5516 Henri-Bourassa Blvd O",
                        "country": "CA",
                        "cross_street": "",
                        "formatted_address": "5516 Henri-Bourassa Blvd O, Saint-Laurent QC H4R 0M6",
                        "locality": "Saint-Laurent",
                        "postcode": "H4R 0M6",
                        "region": "QC"
                  },
                  "name": "Yuzu sushi",
                  "popularity": 0.8085493943981832,
                  "price": 2
            },
            {
                  "distance": 700,
                  "location": {
                        "address": "12230 Laurentien Blvd",
                        "country": "CA",
                        "cross_street": "",
                        "formatted_address": "12230 Laurentien Blvd, Montreal QC H4K 1M9",
                        "locality": "Montreal",
                        "postcode": "H4K 1M9",
                        "region": "QC"
                  },
                  "name": "Le Cristal Chinois Bbq Express",
                  "popularity": 0.960174583648751
            },
            {
                  "distance": 853,
                  "location": {
                        "address": "12245 Laurentien Blvd",
                        "country": "CA",
                        "cross_street": "",
                        "formatted_address": "12245 Laurentien Blvd, Montr\u00e9al QC H4K 1N4",
                        "locality": "Montreal",
                        "postcode": "H4K 1N4",
                        "region": "QC"
                  },
                  "name": "Expresso Bar",
                  "popularity": 0.9970784443603331,
                  "price": 1
            },
            {
                  "distance": 915,
                  "location": {
                        "address": "1709 Poirier Rue",
                        "country": "CA",
                        "cross_street": "",
                        "formatted_address": "1709 Poirier Rue, Saint-Laurent QC H4L 1J4",
                        "locality": "Saint-Laurent",
                        "postcode": "H4L 1J4",
                        "region": "QC"
                  },
                  "name": "Domino's Pizza",
                  "popularity": 0.9292794284632854,
                  "price": 1,
                  "store_id": "10722"
            },
            {
                  "distance": 102,
                  "location": {
                        "address": "2990 Laurentien Blvd",
                        "country": "CA",
                        "formatted_address": "2990 Laurentien Blvd, Saint-Laurent QC H4K 2V5",
                        "locality": "Saint-Laurent",
                        "postcode": "H4K 2V5",
                        "region": "QC"
                  },
                  "name": "Expresso Bar Centre 3000"
            },
            {
                  "distance": 107,
                  "location": {
                        "address": "11898 Laurentien Blvd",
                        "country": "CA",
                        "formatted_address": "11898 Laurentien Blvd, Saint-Laurent QC H4K 2V5",
                        "locality": "Saint-Laurent",
                        "postcode": "H4K 2V5",
                        "region": "QC"
                  },
                  "name": "9407-6759 Quebec Inc"
            },
            {
                  "distance": 283,
                  "location": {
                        "address": "11835 Laurentien Blvd",
                        "country": "CA",
                        "formatted_address": "11835 Laurentien Blvd, Montreal QC H4J 2M1",
                        "locality": "Montreal",
                        "postcode": "H4J 2M1",
                        "region": "QC"
                  },
                  "name": "Biryani & Co"
            },
            {
                  "distance": 408,
                  "location": {
                        "address": "5922 Salaberry St",
                        "country": "CA",
                        "formatted_address": "5922 Salaberry St, Montreal QC H4J 1J8",
                        "locality": "Montreal",
                        "postcode": "H4J 1J8",
                        "region": "QC"
                  },
                  "name": "Dhaybi"
            },
            {
                  "distance": 439,
                  "location": {
                        "address": "5095 Henri Bourassa Blvd E",
                        "country": "CA",
                        "formatted_address": "5095 Henri Bourassa Blvd E, Saint-Laurent QC H4R 1B7",
                        "locality": "Saint-Laurent",
                        "postcode": "H4R 1B7",
                        "region": "QC"
                  },
                  "name": "Rainone Pizzeria"
            },
            {
                  "distance": 571,
                  "location": {
                        "address": "12174 Laurentien Blvd",
                        "country": "CA",
                        "formatted_address": "12174 Laurentien Blvd, Montreal QC H4K 1M9",
                        "locality": "Montreal",
                        "postcode": "H4K 1M9",
                        "region": "QC"
                  },
                  "name": "Poulet Mankal"
            },
            {
                  "distance": 615,
                  "location": {
                        "address": "12172 Laurentien Blvd",
                        "country": "CA",
                        "formatted_address": "12172 Laurentien Blvd, Montreal QC H4K 1M9",
                        "locality": "Montreal",
                        "postcode": "H4K 1M9",
                        "region": "QC"
                  },
                  "name": "Saveur Med Cafe Restaurant"
            },
            {
                  "distance": 659,
                  "location": {
                        "address": "12167 Laurentien Blvd",
                        "country": "CA",
                        "formatted_address": "12167 Laurentien Blvd, Montreal QC H4K 1N4",
                        "locality": "Montreal",
                        "postcode": "H4K 1N4",
                        "region": "QC"
                  },
                  "name": "Cafe Nationale Plus"
            },
            {
                  "distance": 698,
                  "location": {
                        "address": "5611 Dudemaine Rue",
                        "country": "CA",
                        "formatted_address": "5611 Dudemaine Rue, Montreal QC H4J 1P2",
                        "locality": "Montreal",
                        "postcode": "H4J 1P2",
                        "region": "QC"
                  },
                  "name": "Oba Japanese Restaurant"
            },
            {
                  "distance": 708,
                  "location": {
                        "address": "12208 Laurentien Blvd",
                        "country": "CA",
                        "formatted_address": "12208 Laurentien Blvd, Montreal QC H4K 1M9",
                        "locality": "Montreal",
                        "postcode": "H4K 1M9",
                        "region": "QC"
                  },
                  "name": "Restaurant Pappagallo"
            },
            {
                  "distance": 821,
                  "location": {
                        "address": "12230 Laurentien Blvd",
                        "country": "CA",
                        "formatted_address": "12230 Laurentien Blvd, Montreal QC H4K 1M9",
                        "locality": "Montreal",
                        "postcode": "H4K 1M9",
                        "region": "QC"
                  },
                  "name": "Le Baladi"
            },
            {
                  "distance": 884,
                  "location": {
                        "address": "2245 Marcel-Laurin Blvd",
                        "country": "CA",
                        "formatted_address": "2245 Marcel-Laurin Blvd, Saint-Laurent QC H4R 1K4",
                        "locality": "Saint-Laurent",
                        "postcode": "H4R 1K4",
                        "region": "QC"
                  },
                  "name": "Sushi Shop Saint Laurent"
            },
            {
                  "distance": 942,
                  "location": {
                        "address": "2167 Marcel Laurin Blvd",
                        "country": "CA",
                        "formatted_address": "2167 Marcel Laurin Blvd, Saint-Laurent QC H4R 1K4",
                        "locality": "Saint-Laurent",
                        "postcode": "H4R 1K4",
                        "region": "QC"
                  },
                  "name": "Cafe la Gourmandise"
            },
            {
                  "distance": 973,
                  "location": {
                        "address": "1700 d'Oxford Rue",
                        "country": "CA",
                        "formatted_address": "1700 d'Oxford Rue, Saint-Laurent QC H4L 1B6",
                        "locality": "Saint-Laurent",
                        "postcode": "H4L 1B6",
                        "region": "QC"
                  },
                  "name": "Wifi Pizza"
            },
            {
                  "distance": 996,
                  "location": {
                        "address": "6370 Gouin Blvd O",
                        "country": "CA",
                        "formatted_address": "6370 Gouin Blvd O, Montreal QC H4K 1A8",
                        "locality": "Montreal",
                        "postcode": "H4K 1A8",
                        "region": "QC"
                  },
                  "name": "Cafe Imane"
            }
      ],
      "context": {
            "geo_bounds": {
                  "circle": {
                        "center": {
                              "latitude": 45.5235502,
                              "longitude": -73.71388569
                        },
                        "radius": 1000
                  }
            }
      }
}