{
      "results": [
            {
                  "distance": 926,
                  "location": {
                        "address": "3632 Ontario Rue E",
                        "address_extended": "coin De Chambly",
                        "country": "CA",
                        "cross_street": "coin De Chambly",
                        "formatted_address": "3632 Ontario Rue E (coin De Chambly), Montr\u00e9al QC H1W 1R7",
                        "locality": "Montreal",
                        "postcode": "H1W 1R7",
                        "region": "QC"
                  },
                  "name": "L'Espace Public-Brasseurs de Quartier",
                  "popularity": 0.9611799772899319,
                  "price": 2,
                  "rating": 8.8
            },
            {
                  "distance": 431,
                  "location": {
                        "address": "4005 Ontario Rue E",
                        "country": "CA",
                        "cross_street": "",
                        "formatted_address": "4005 Ontario Rue E, Montr\u00e9al QC H1W 1T1",
                        "locality": "Montreal",
                        "postcode": "H1W 1T1",
                        "region": "QC"
                  },
                  "name": "\u00c9tat-Major",
                  "popularity": 0.9057295609386828,
                  "price": 2,
                  "rating": 8.7
            },
            {
                  "distance": 162,
                  "location": {
                        "address": "4255 Ontario Rue E",
                        "country": "CA",
                        "cross_street": "",
                        "formatted_address": "4255 Ontario Rue E, Montr\u00e9al QC H1V 1K4",
                        "locality": "Montreal",
                        "postcode": "H1V 1K4",
                        "region": "QC"
                  },
                  "name": "H\u00e9licopt\u00e8re",
                  "popularity": 0.910744700984103,
                  "price": 2,
                  "rating": 8.6
            },
            {
                  "distance": 960,
                  "location": {
                        "address": "3606 Ontario Rue E",
                        "country": "CA",
                        "cross_street": "entre Joliette & De Chambly",
                        "formatted_address": "3606 Ontario Rue E (entre Joliette & De Chambly), Montr\u00e9al QC H1W 1R7",
                        "locality": "Montreal",
                        "postcode": "H1W 1R7",
                        "region": "QC"
                  },
                  "name": "Atomic Cafe",
                  "popularity": 0.9511733535200606,
                  "price": 1,
                  "rating": 8.5
            },
            {
                  "distance": 594,
                  "location": {
                        "address": "4137 Sainte-Catherine Rue E",
                        "country": "CA",
                        "cross_street": "entre Pie-IX & Desjardins",
                        "formatted_address": "4137 Sainte-Catherine Rue E (entre Pie-IX & Desjardins), Montr\u00e9al QC H1V 1X1",
                        "locality": "Montreal",
                        "postcode": "H1V 1X1",
                        "region": "QC"
                  },
                  "name": "Les Affam\u00e9s",
                  "popularity": 0.869937547312642,
                  "price": 2,
                  "rating": 8.5
            },
            {
                  "distance": 42,
                  "location": {
                        "address": "4317 Ontario Rue E",
                        "country": "CA",
                        "cross_street": "Letourneux",
                        "formatted_address": "4317 Ontario Rue E (Letourneux), Montr\u00e9al QC H1V 1K5",
                        "locality": "Montreal",
                        "postcode": "H1V 1K5",
                        "region": "QC"
                  },
                  "name": "Les gourmandises de Marie-Antoinette",
                  "popularity": 0.9419828728236185,
                  "price": 2,
                  "rating": 8.3
            },
            {
                  "distance": 971,
                  "location": {
                        "address": "3974 Pierre de Coubertin Ave",
                        "country": "CA",
                        "cross_street": "",
                        "formatted_address": "3974 Pierre de Coubertin Ave, Montr\u00e9al QC H1W 1E7",
                        "locality": "Montreal",
                        "postcode": "H1W 1E7",
                        "region": "QC"
                  },
                  "name": "Fusion Express",
                  "popularity": 0.9321300151400455,
                  "price": 2,
                  "rating": 8.0
            },
            {
                  "distance": 757,
                  "location": {
                        "address": "3971 Hochelaga Rue",
                        "country": "CA",
                        "cross_street": "",
                        "formatted_address": "3971 Hochelaga Rue, Montr\u00e9al QC H1W 1K2",
                        "locality": "Montreal",
                        "postcode": "H1W 1K2",
                        "region": "QC"
                  },
                  "name": "Poutine Centrale",
                  "popularity": 0.9448807721423165,
                  "price": 2,
                  "rating": 7.9
            },
            {
                  "distance": 529,
                  "location": {
                        "address": "4264 Sainte-Catherine Rue E",
                        "country": "CA",
                        "cross_street": "",
                        "formatted_address": "4264 Sainte-Catherine Rue E, Montr\u00e9al QC H1V 1X6",
                        "locality": "Montreal",
                        "postcode": "H1V 1X6",
                        "region": "QC"
                  },
                  "name": "Bistro le Ste-Cath",
                  "popularity": 0.9269137963663892,
                  "rating": 7.8
            },
            {
                  "distance": 342,
                  "location": {
                        "address": "2225 Bennett Ave",
                        "country": "CA",
                        "cross_street": "",
                        "formatted_address": "2225 Bennett Ave, Montr\u00e9al QC H1V 2T4",
                        "locality": "Montreal",
                        "postcode": "H1V 2T4",
                        "region": "QC"
                  },
                  "name": "Hoche Glac\u00e9",
                  "popularity": 0.9444549583648751,
                  "price": 1,
                  "rating": 7.7
            },
            {
                  "distance": 200,
                  "location": {
                        "address": "4223 Ontario Rue E",
                        "country": "CA",
                        "cross_street": "coin Desjardins",
                        "formatted_address": "4223 Ontario Rue E (coin Desjardins), Montr\u00e9al QC H1V 1K2",
                        "locality": "Montreal",
                        "postcode": "H1V 1K2",
                        "region": "QC"
                  },
                  "name": "New Casa de la Pizza",
                  "popularity": 0.8993660105980318,
                  "price": 1,
                  "rating": 7.4
            },
            {
                  "distance": 715,
                  "location": {
                        "address": "25 Simon Valois Pl",
                        "country": "CA",
                        "cross_street": "coin Ontario",
                        "formatted_address": "25 Simon Valois Pl (coin Ontario), Montr\u00e9al QC H1W 0A6",
                        "locality": "Montreal",
                        "postcode": "H1W 0A6",
                        "region": "QC"
                  },
                  "name": "Le Valois",
                  "popularity": 0.8502436601059803,
                  "price": 2,
                  "rating": 7.4
            },
            {
                  "distance": 604,
                  "location": {
                        "address": "3882 Ontario Rue E",
                        "country": "CA",
                        "cross_street": "",
                        "formatted_address": "3882 Ontario Rue E, Montr\u00e9al QC H1W 1S6",
                        "locality": "Montreal",
                        "postcode": "H1W 1S6",
                        "region": "QC"
                  },
                  "name": "Le Blind Pig",
                  "popularity": 0.9555379447388342,
                  "price": 1,
                  "rating": 7.3
            },
            {
                  "distance": 625,
                  "location": {
                        "address": "3860 Ontario Rue E",
                        "country": "CA",
                        "cross_street": "Bourbonni\u00e8re",
                        "formatted_address": "3860 Ontario Rue E (Bourbonni\u00e8re), Montr\u00e9al QC H1W 1S4",
                        "locality": "Montreal",
                        "postcode": "H1W 1S4",
                        "region": "QC"
                  },
                  "name": "Restaurant la Pataterie Inc",
                  "popularity": 0.9558573050719152,
                  "price": 1,
                  "rating": 7.3
            },
            {
                  "distance": 156,
                  "location": {
                        "address": "2009 Ave de la Salle",
                        "country": "CA",
                        "cross_street": "",
                        "formatted_address": "2009 Ave de la Salle, Montr\u00e9al QC H1V 2K6",
                        "locality": "Montreal",
                        "postcode": "H1V 2K6",
                        "region": "QC"
                  },
                  "name": "H\u00e9lico",
                  "popularity": 0.9399366010598031,
                  "price": 1,
                  "rating": 6.9
            },
            {
                  "distance": 625,
                  "location": {
                        "address": "4077 Sainte-Catherine Rue E",
                        "country": "CA",
                        "cross_street": "coin Pie-IX",
                        "formatted_address": "4077 Sainte-Catherine Rue E (coin Pie-IX), Montr\u00e9al QC H1W 2G9",
                        "locality": "Montreal",
                        "postcode": "H1W 2G9",
                        "region": "QC"
                  },
                  "name": "Subway",
                  "popularity": 0.8937831188493566,
                  "price": 1,
                  "rating": 6.3
            },
            {
                  "distance": 592,
                  "location": {
                        "address": "3905 Ontario Rue E",
                        "country": "CA",
                        "cross_street": "",
                        "formatted_address": "3905 Ontario Rue E, Montr\u00e9al QC H1W 1S7",
                        "locality": "Montreal",
                        "postcode": "H1W 1S7",
                        "region": "QC"
                  },
                  "name": "Burrito Revolucion",
                  "popularity": 0.5280800529901589,
                  "rating": 6.0
            },
            {
                  "distance": 451,
                  "location": {
                        "address": "3982 Ontario Rue E",
                        "country": "CA",
                        "formatted_address": "3982 Ontario Rue E, Montr\u00e9al QC H1W 1S9",
                        "locality": "Montreal",
                        "postcode": "H1W 1S9",
                        "region": "QC"
                  },
                  "name": "Gerry's Restaurant Delicatessen",
                  "popularity": 0.9548400832702498,
                  "price": 3,
                  "rating": 5.8
            },
            {
                  "distance": 930,
                  "location": {
                        "address": "3634 Ontario Rue E",
                        "country": "CA",
                        "cross_street": "coin Chambly",
                        "formatted_address": "3634 Ontario Rue E (coin Chambly), Montr\u00e9al QC H1W 1R7",
                        "locality": "Montreal",
                        "postcode": "H1W 1R7",
                        "region": "QC"
                  },
                  "name": "Tim Hortons",
                  "popularity": 0.958873485995458,
                  "price": 1,
                  "rating": 5.4
            },
            {
                  "distance": 54,
                  "location": {
                        "address": "4315 Ontario Rue E",
                        "country": "CA",
                        "cross_street": "",
                        "formatted_address": "4315 Ontario Rue E, Montr\u00e9al QC H1V 1K5",
                        "locality": "Montreal",
                        "postcode": "H1V 1K5",
                        "region": "QC"
                  },
                  "name": "Hoa Anh-D\u0101o",
                  "popularity": 0.1645415404996215,
                  "price": 2
            },
            {
                  "distance": 378,
                  "location": {
                        "address": "4535 Rue de Rouen",
                        "country": "CA",
                        "cross_street": "",
                        "formatted_address": "4535 Rue de Rouen, Montr\u00e9al QC H1V 2W4",
                        "locality": "Montreal",
                        "postcode": "H1V 2W4",
                        "region": "QC"
                  },
                  "name": "Bocal",
                  "popularity": 0.9737533118849356,
                  "price": 1
            },
            {
                  "distance": 405,
                  "location": {
                        "address": "4045 Ontario Rue E",
                        "country": "CA",
                        "cross_street": "",
                        "formatted_address": "4045 Ontario Rue E, Montr\u00e9al QC H1W 1T3",
                        "locality": "Montreal",
                        "postcode": "H1W 1T3",
                        "region": "QC"
                  },
                  "name": "Wolfgang Social Club",
                  "popularity": 0.8224711392884179,
                  "price": 1
            },
            {
                  "distance": 421,
                  "location": {
                        "address": "2030 Pie-Ix Blvd",
                        "country": "CA",
                        "cross_street": "Ontario",
                        "formatted_address": "2030 Pie-Ix Blvd (Ontario), Montr\u00e9al QC H1V 2C8",
                        "locality": "Montreal",
                        "postcode": "H1V 2C8",
                        "region": "QC"
                  },
                  "name": "American Can Company Building",
                  "popularity": 0.9969838190764573
            },
            {
                  "distance": 478,
                  "location": {
                        "address": "3979 Ontario Rue E",
                        "country": "CA",
                        "cross_street": "",
                        "formatted_address": "3979 Ontario Rue E, Montr\u00e9al QC H1W 1T1",
                        "locality": "Montreal",
                        "postcode": "H1W 1T1",
                        "region": "QC"
                  },
                  "name": "Pizzeria Bros",
                  "popularity": 0.892884178652536,
                  "price": 1
            },
            {
                  "distance": 478,
                  "location": {
                        "address": "3979 Ontario Rue E",
                        "country": "CA",
                        "cross_street": "",
                        "formatted_address": "3979 Ontario Rue E, Montr\u00e9al QC H1W 1T1",
                        "locality": "Montreal",
                        "postcode": "H1W 1T1",
                        "region": "QC"
                  },
                  "name": "\u00d4-Big",
                  "popularity": 0.2312523656320969,
                  "price": 1
            },
            {
                  "distance": 501,
                  "location": {
                        "address": "4303 Sainte-Catherine Rue E",
                        "country": "CA",
                        "cross_street": "",
                        "formatted_address": "4303 Sainte-Catherine Rue E, Montr\u00e9al QC H1V 1Y1",
                        "locality": "Montreal",
                        "postcode": "H1V 1Y1",
                        "region": "QC"
                  },
                  "name": "Bar le Bureau",
                  "popularity": 0.5600397426192278,
                  "price": 2
            },
            {
                  "distance": 522,
                  "location": {
                        "address": "4471 Sainte-Catherine Rue E",
                        "country": "CA",
                        "cross_street": "",
                        "formatted_address": "4471 Sainte-Catherine Rue E, Montr\u00e9al QC H1V 1Y6",
                        "locality": "Montreal",
                        "postcode": "H1V 1Y6",
                        "region": "QC"
                  },
                  "name": "Taverne l'Escale",
                  "popularity": 0.877235522331567,
                  "price": 2
            },
            {
                  "distance": 528,
                  "location": {
                        "address": "4316 Sainte-Catherine Rue E",
                        "country": "CA",
                        "cross_street": "",
                        "formatted_address": "4316 Sainte-Catherine Rue E, Montr\u00e9al QC H1V 1X9",
                        "locality": "Montreal",
                        "postcode": "H1V 1X9",
                        "region": "QC"
                  },
                  "name": "Supernat",
                  "popularity": 0.9456496025738077,
                  "price": 1
            },
            {
                  "distance": 550,
                  "location": {
                        "address": "4596 Sainte-Catherine Rue E",
                        "country": "CA",
                        "cross_street": "",
                        "formatted_address": "4596 Sainte-Catherine Rue E, Montr\u00e9al QC H1V 1Y7",
                        "locality": "Montreal",
                        "postcode": "H1V 1Y7",
                        "region": "QC"
                  },
                  "name": "Patisserie la Lorraine",
                  "popularity": 0.37859576078728235,
                  "price": 1
            },
            {
                  "distance": 597,
                  "location": {
                        "address": "3905 Ontario Rue E",
                        "country": "CA",
                        "cross_street": "",
                        "formatted_address": "3905 Ontario Rue E, Montr\u00e9al QC H1W 1S7",
                        "locality": "Montreal",
                        "postcode": "H1W 1S7",
                        "region": "QC"
                  },
                  "name": "Pizza Fugazzi",
                  "popularity": 0.8975563020439061,
                  "price": 1
            },
            {
                  "distance": 605,
                  "location": {
                        "address": "4641 Sainte-Catherine Rue E",
                        "country": "CA",
                        "cross_street": "Aird",
                        "formatted_address": "4641 Sainte-Catherine Rue E (Aird), Montr\u00e9al QC H1V 1Z1",
                        "locality": "Montreal",
                        "postcode": "H1V 1Z1",
                        "region": "QC"
                  },
                  "name": "La Taqueria d'Hochlag",
                  "popularity": 0.9301192278576835,
                  "price": 1
            },
            {
                  "distance": 615,
                  "location": {
                        "address": "4641 Sainte-Catherine Rue E",
                        "country": "CA",
                        "cross_street": "",
                        "formatted_address": "4641 Sainte-Catherine Rue E, Montr\u00e9al QC H1V 1Z1",
                        "locality": "Montreal",
                        "postcode": "H1V 1Z1",
                        "region": "QC"
                  },
                  "name": "Loupblond",
                  "popularity": 0.7494204201362604,
                  "price": 2
            },
            {
                  "distance": 731,
                  "location": {
                        "address": "5 Simon Valois Pl",
                        "country": "CA",
                        "cross_street": "Ontario",
                        "formatted_address": "5 Simon Valois Pl (Ontario), Montr\u00e9al QC H1W 0A6",
                        "locality": "Montreal",
                        "postcode": "H1W 0A6",
                        "region": "QC"
                  },
                  "name": "Bar Laitier",
                  "popularity": 0.4559637585162756,
                  "price": 1
            },
            {
                  "distance": 802,
                  "location": {
                        "address": "3739 Ontario Rue E",
                        "country": "CA",
                        "cross_street": "Nicolet",
                        "formatted_address": "3739 Ontario Rue E (Nicolet), Montr\u00e9al QC H1W 1S3",
                        "locality": "Montreal",
                        "postcode": "H1W 1S3",
                        "region": "QC"
                  },
                  "name": "Resto-Bar le Pick Up",
                  "popularity": 0.9295987887963664,
                  "price": 2
            },
            {
                  "distance": 877,
                  "location": {
                        "address": "3668 Ontario Rue E",
                        "country": "CA",
                        "cross_street": "",
                        "formatted_address": "3668 Ontario Rue E, Montr\u00e9al QC H1W 1R9",
                        "locality": "Montreal",
                        "postcode": "H1W 1R9",
                        "region": "QC"
                  },
                  "name": "Sabor Del Sur",
                  "popularity": 0.8754494700984103,
                  "price": 1
            }
      ],
      "context": {
            "geo_bounds": {
                  "circle": {
                        "center": {
                              "latitude": 45.55321884,
                              "longitude": -73.53978217
                        },
                        "radius": 1000
                  }
            }
      }
}