{
      "results": [
            {
                  "distance": 763,
                  "location": {
                        "address": "124 Saint- Viateur Rue O",
                        "country": "CA",
                        "cross_street": "coin Waverly",
                        "formatted_address": "124 Saint- Viateur Rue O (coin Waverly), Montr\u00e9al QC H2T 2L1",
                        "locality": "Montreal",
                        "postcode": "H2T 2L1",
                        "region": "QC"
                  },
                  "name": "Caf\u00e9 Olimpico",
                  "popularity": 0.9736468584405753,
                  "price": 1,
                  "rating": 9.2
            },
            {
                  "distance": 770,
                  "location": {
                        "address": "9 Fairmount Ave E",
                        "country": "CA",
                        "cross_street": "coin Fairmount",
                        "formatted_address": "9 Fairmount Ave E (coin Fairmount), Montr\u00e9al QC H2T 1C7",
                        "locality": "Montreal",
                        "postcode": "H2T 1C7",
                        "region": "QC"
                  },
                  "name": "Larry's",
                  "popularity": 0.9267955147615443,
                  "price": 2,
                  "rating": 9.2
            },
            {
                  "distance": 645,
                  "location": {
                        "address": "263 Saint- Viateur Rue O",
                        "country": "CA",
                        "cross_street": "entre Jeanne-Mance & du Parc",
                        "formatted_address": "263 Saint- Viateur Rue O (entre Jeanne-Mance & du Parc), Montr\u00e9al QC H2V 1Y1",
                        "locality": "Montreal",
                        "postcode": "H2V 1Y1",
                        "region": "QC"
                  },
                  "name": "St-Viateur Bagel",
                  "popularity": 0.9821986184708554,
                  "price": 1,
                  "rating": 9.1
            },
            {
                  "distance": 498,
                  "location": {
                        "address": "5357 Ave du Parc",
                        "country": "CA",
                        "cross_street": "entre St-Viateur & Fairmount",
                        "formatted_address": "5357 Ave du Parc (entre St-Viateur & Fairmount), Montr\u00e9al QC H2V 4G9",
                        "locality": "Montreal",
                        "postcode": "H2V 4G9",
                        "region": "QC"
                  },
                  "name": "Milos Restaurant",
                  "popularity": 0.9470098410295231,
                  "price": 4,
                  "rating": 9.1
            },
            {
                  "distance": 819,
                  "location": {
                        "address": "16 Maguire Rue",
                        "country": "CA",
                        "cross_street": "@ Saint-Laurent",
                        "formatted_address": "16 Maguire Rue (@ Saint-Laurent), Montr\u00e9al QC H2T 1B8",
                        "locality": "Montreal",
                        "postcode": "H2T 1B8",
                        "region": "QC"
                  },
                  "name": "Pizzeria Magpie",
                  "popularity": 0.8841076835730507,
                  "price": 1,
                  "rating": 9.1
            },
            {
                  "distance": 832,
                  "location": {
                        "address": "4631 Saint-Laurent Blvd",
                        "country": "CA",
                        "cross_street": "entre Mont-Royal & Villeneuve",
                        "formatted_address": "4631 Saint-Laurent Blvd (entre Mont-Royal & Villeneuve), Montr\u00e9al QC H2T 1R2",
                        "locality": "Montreal",
                        "postcode": "H2T 1R2",
                        "region": "QC"
                  },
                  "name": "Aux Vivres",
                  "popularity": 0.9429054693414081,
                  "price": 2,
                  "rating": 9.0
            },
            {
                  "distance": 937,
                  "location": {
                        "address": "1311 Bernard Ave",
                        "country": "CA",
                        "cross_street": "coin Outremont",
                        "formatted_address": "1311 Bernard Ave (coin Outremont), Montr\u00e9al QC H2V 1W1",
                        "locality": "Montreal",
                        "postcode": "H2V 1W1",
                        "region": "QC"
                  },
                  "name": "Le Glacier Bilboquet",
                  "popularity": 0.9378075321725965,
                  "price": 2,
                  "rating": 9.0
            },
            {
                  "distance": 907,
                  "location": {
                        "address": "4524 Saint-Laurent Blvd",
                        "country": "CA",
                        "cross_street": "coin Mont-Royal",
                        "formatted_address": "4524 Saint-Laurent Blvd (coin Mont-Royal), Montr\u00e9al QC H2T 1R3",
                        "locality": "Montreal",
                        "postcode": "H2T 1R3",
                        "region": "QC"
                  },
                  "name": "Hof Kelsten",
                  "popularity": 0.9274578917486752,
                  "price": 2,
                  "rating": 8.8
            },
            {
                  "distance": 848,
                  "location": {
                        "address": "54 Saint-Viateur Rue O",
                        "country": "CA",
                        "cross_street": "",
                        "formatted_address": "54 Saint-Viateur Rue O, Montr\u00e9al QC H2T 2K8",
                        "locality": "Montreal",
                        "postcode": "H2T 2K8",
                        "region": "QC"
                  },
                  "name": "Falafel Yoni",
                  "popularity": 0.9097038228614686,
                  "price": 1,
                  "rating": 8.6
            },
            {
                  "distance": 779,
                  "location": {
                        "address": "123 Ave du Mont-Royal O",
                        "country": "CA",
                        "cross_street": "",
                        "formatted_address": "123 Ave du Mont-Royal O, Montr\u00e9al QC H2T 2S9",
                        "locality": "Montreal",
                        "postcode": "H2T 2S9",
                        "region": "QC"
                  },
                  "name": "Paquebot Mont-Royal",
                  "popularity": 0.9561411809235427,
                  "price": 1,
                  "rating": 8.6
            },
            {
                  "distance": 823,
                  "location": {
                        "address": "4653 Saint-Laurent Blvd",
                        "country": "CA",
                        "cross_street": "angle Villeneuve",
                        "formatted_address": "4653 Saint-Laurent Blvd (angle Villeneuve), Montr\u00e9al QC H2T 1R2",
                        "locality": "Montreal",
                        "postcode": "H2T 1R2",
                        "region": "QC"
                  },
                  "name": "Robin des Bois",
                  "popularity": 0.8559093489780469,
                  "price": 1,
                  "rating": 8.6
            },
            {
                  "distance": 861,
                  "location": {
                        "address": "52 Saint-Viateur Rue O",
                        "country": "CA",
                        "cross_street": "",
                        "formatted_address": "52 Saint-Viateur Rue O, Montr\u00e9al QC H2T 2K8",
                        "locality": "Montreal",
                        "postcode": "H2T 2K8",
                        "region": "QC"
                  },
                  "name": "Bishop & Bagg",
                  "popularity": 0.9365064345193036,
                  "price": 2,
                  "rating": 8.6
            },
            {
                  "distance": 220,
                  "location": {
                        "address": "5200 Hutchison Rue",
                        "country": "CA",
                        "cross_street": "coin Fairmount",
                        "formatted_address": "5200 Hutchison Rue (coin Fairmount), Montr\u00e9al QC H2V 4B3",
                        "locality": "Montreal",
                        "postcode": "H2V 4B3",
                        "region": "QC"
                  },
                  "name": "La Croissanterie Figaro",
                  "popularity": 0.9416398561695685,
                  "price": 1,
                  "rating": 8.6
            },
            {
                  "distance": 358,
                  "location": {
                        "address": "5240 Ave du Parc",
                        "country": "CA",
                        "cross_street": "Fairmount",
                        "formatted_address": "5240 Ave du Parc (Fairmount), Montr\u00e9al QC H2V 4G7",
                        "locality": "Montreal",
                        "postcode": "H2V 4G7",
                        "region": "QC"
                  },
                  "name": "Th\u00e9\u00e2tre Fairmount",
                  "popularity": 0.9877696820590461,
                  "rating": 8.6
            },
            {
                  "distance": 740,
                  "location": {
                        "address": "176 Saint Viateur Rue O",
                        "address_extended": "# 174",
                        "country": "CA",
                        "cross_street": "",
                        "formatted_address": "176 Saint Viateur Rue O, Montr\u00e9al QC H2T 2L3",
                        "locality": "Montreal",
                        "postcode": "H2T 2L3",
                        "region": "QC"
                  },
                  "name": "\u00cele Flottante",
                  "popularity": 0.891583080999243,
                  "price": 3,
                  "rating": 8.5
            },
            {
                  "distance": 764,
                  "location": {
                        "address": "5207 Saint-Laurent Blvd",
                        "country": "CA",
                        "cross_street": "",
                        "formatted_address": "5207 Saint-Laurent Blvd, Montr\u00e9al QC H2T 1S4",
                        "locality": "Montreal",
                        "postcode": "H2T 1S4",
                        "region": "QC"
                  },
                  "name": "Tsukuyomi Ramen",
                  "popularity": 0.9078113171839516,
                  "rating": 8.3
            },
            {
                  "distance": 726,
                  "location": {
                        "address": "5150 St-Laurent Blvd",
                        "country": "CA",
                        "cross_street": "",
                        "formatted_address": "5150 St-Laurent Blvd, Montr\u00e9al QC H2T 1R8",
                        "locality": "Montreal",
                        "postcode": "H2T 1R8",
                        "region": "QC"
                  },
                  "name": "Cin\u00e9ma Moderne",
                  "popularity": 0.9271267032551098,
                  "price": 1,
                  "rating": 8.3
            },
            {
                  "distance": 873,
                  "location": {
                        "address": "1057 Bernard Ave",
                        "country": "CA",
                        "cross_street": "entre Durocher & Querbes",
                        "formatted_address": "1057 Bernard Ave (entre Durocher & Querbes), Outremont QC H2V 1V1",
                        "locality": "Outremont",
                        "postcode": "H2V 1V1",
                        "region": "QC"
                  },
                  "name": "Lester's Aaa Delicatessen",
                  "popularity": 0.9608606169568509,
                  "price": 2,
                  "rating": 8.3
            },
            {
                  "distance": 711,
                  "location": {
                        "address": "180 Saint- Viateur Rue O",
                        "country": "CA",
                        "cross_street": "angle Esplanade",
                        "formatted_address": "180 Saint- Viateur Rue O (angle Esplanade), Montr\u00e9al QC H2T 2L3",
                        "locality": "Montreal",
                        "postcode": "H2T 2L3",
                        "region": "QC"
                  },
                  "name": "Club Social",
                  "popularity": 0.9385408781226343,
                  "price": 1,
                  "rating": 8.2
            },
            {
                  "distance": 826,
                  "location": {
                        "address": "93 Ave du Mont-Royal Ouest",
                        "country": "CA",
                        "cross_street": "coin St-Urbain",
                        "formatted_address": "93 Ave du Mont-Royal Ouest (coin St-Urbain), Montr\u00e9al QC H2T 2S5",
                        "locality": "Montreal",
                        "postcode": "H2T 2S5",
                        "region": "QC"
                  },
                  "name": "Beautys Luncheonette",
                  "popularity": 0.9646929409538229,
                  "price": 2,
                  "rating": 8.1
            },
            {
                  "distance": 682,
                  "location": {
                        "address": "34 Fairmount Ave O",
                        "country": "CA",
                        "cross_street": "coin Clark",
                        "formatted_address": "34 Fairmount Ave O (coin Clark), Montr\u00e9al QC H2T 2M1",
                        "locality": "Montreal",
                        "postcode": "H2T 2M1",
                        "region": "QC"
                  },
                  "name": "Wilensky's Light Lunch",
                  "popularity": 0.9229631907645723,
                  "price": 1,
                  "rating": 8.1
            },
            {
                  "distance": 705,
                  "location": {
                        "address": "5611 Ave du Parc",
                        "country": "CA",
                        "cross_street": "St-Viateur",
                        "formatted_address": "5611 Ave du Parc (St-Viateur), Montr\u00e9al QC H2V 4H2",
                        "locality": "Montreal",
                        "postcode": "H2V 4H2",
                        "region": "QC"
                  },
                  "name": "Ta Chido",
                  "popularity": 0.9069360333080999,
                  "price": 1,
                  "rating": 8.1
            },
            {
                  "distance": 902,
                  "location": {
                        "address": "11265 Bernard Ave",
                        "country": "CA",
                        "cross_street": "btwn Ave. Champagneur & Ave. Outremont",
                        "formatted_address": "11265 Bernard Ave (btwn Ave. Champagneur & Ave. Outremont), Montr\u00e9al QC H2V 1V8",
                        "locality": "Montreal",
                        "postcode": "H2V 1V8",
                        "region": "QC"
                  },
                  "name": "Restaurant le Petit Italien",
                  "popularity": 0.9217094057532172,
                  "price": 3,
                  "rating": 8.1
            },
            {
                  "distance": 403,
                  "location": {
                        "address": "4806 Ave du Parc",
                        "country": "CA",
                        "cross_street": "",
                        "formatted_address": "4806 Ave du Parc, Montr\u00e9al QC H2V 4E6",
                        "locality": "Montreal",
                        "postcode": "H2V 4E6",
                        "region": "QC"
                  },
                  "name": "Philinos Restaurant Bar",
                  "popularity": 0.9275406888720666,
                  "price": 2,
                  "rating": 8.1
            },
            {
                  "distance": 549,
                  "location": {
                        "address": "4581 Ave du Parc",
                        "country": "CA",
                        "cross_street": "",
                        "formatted_address": "4581 Ave du Parc, Montr\u00e9al QC H2V 4E4",
                        "locality": "Montreal",
                        "postcode": "H2V 4E4",
                        "region": "QC"
                  },
                  "name": "Lola Rosa",
                  "popularity": 0.9120931112793338,
                  "price": 2,
                  "rating": 8.1
            },
            {
                  "distance": 541,
                  "location": {
                        "address": "115 Laurier Ave O",
                        "country": "CA",
                        "cross_street": "entre St-Urbain & De l'Esplanade",
                        "formatted_address": "115 Laurier Ave O (entre St-Urbain & De l'Esplanade), Montr\u00e9al QC H2T 2N6",
                        "locality": "Montreal",
                        "postcode": "H2T 2N6",
                        "region": "QC"
                  },
                  "name": "Bar Henrietta",
                  "popularity": 0.9364591218773657,
                  "price": 2,
                  "rating": 8.1
            },
            {
                  "distance": 532,
                  "location": {
                        "address": "142 Fairmount Ave O",
                        "country": "CA",
                        "cross_street": "",
                        "formatted_address": "142 Fairmount Ave O, Montr\u00e9al QC H2T 2M5",
                        "locality": "Montreal",
                        "postcode": "H2T 2M5",
                        "region": "QC"
                  },
                  "name": "La Khaima",
                  "popularity": 0.9312310749432249,
                  "price": 2,
                  "rating": 8.0
            },
            {
                  "distance": 313,
                  "location": {
                        "address": "5000 Ave du Parc",
                        "country": "CA",
                        "cross_street": "",
                        "formatted_address": "5000 Ave du Parc, Montr\u00e9al QC H2V 4E8",
                        "locality": "Montreal",
                        "postcode": "H2V 4E8",
                        "region": "QC"
                  },
                  "name": "Farine & Vanille",
                  "popularity": 0.9133468962906889,
                  "price": 1,
                  "rating": 8.0
            },
            {
                  "distance": 761,
                  "location": {
                        "address": "4873 Saint-Laurent Blvd",
                        "country": "CA",
                        "cross_street": "entre Villeneuve & St-Joseph",
                        "formatted_address": "4873 Saint-Laurent Blvd (entre Villeneuve & St-Joseph), Montr\u00e9al QC H2T 1R6",
                        "locality": "Montreal",
                        "postcode": "H2T 1R6",
                        "region": "QC"
                  },
                  "name": "Casa del Popolo",
                  "popularity": 0.9028789742619228,
                  "price": 2,
                  "rating": 8.0
            },
            {
                  "distance": 562,
                  "location": {
                        "address": "104 Laurier Ave O",
                        "country": "CA",
                        "formatted_address": "104 Laurier Ave O, Montr\u00e9al QC H2T 2N7",
                        "locality": "Montreal",
                        "postcode": "H2T 2N7",
                        "region": "QC"
                  },
                  "name": "Restaurant la Chronique",
                  "popularity": 0.9418764193792581,
                  "price": 3,
                  "rating": 8.0
            },
            {
                  "distance": 244,
                  "location": {
                        "address": "365 Laurier Ave O",
                        "country": "CA",
                        "cross_street": "Parc",
                        "formatted_address": "365 Laurier Ave O (Parc), Montr\u00e9al QC H2V 2K5",
                        "locality": "Montreal",
                        "postcode": "H2V 2K5",
                        "region": "QC"
                  },
                  "name": "Il Pagliaccio",
                  "popularity": 0.9195566805450416,
                  "price": 2,
                  "rating": 7.9
            },
            {
                  "distance": 906,
                  "location": {
                        "address": "359 Bernard Rue O",
                        "country": "CA",
                        "cross_street": "coin Du Parc",
                        "formatted_address": "359 Bernard Rue O (coin Du Parc), Montr\u00e9al QC H2V 1T6",
                        "locality": "Montreal",
                        "postcode": "H2V 1T6",
                        "region": "QC"
                  },
                  "name": "Boulangerie Cheskie Inc",
                  "popularity": 0.9672005109765329,
                  "price": 1,
                  "rating": 7.8
            },
            {
                  "distance": 798,
                  "location": {
                        "address": "5282 Saint-Laurent Blvd",
                        "address_extended": "coin Maguire",
                        "country": "CA",
                        "cross_street": "coin Maguire",
                        "formatted_address": "5282 Saint-Laurent Blvd (coin Maguire), Montr\u00e9al QC H2T 1S1",
                        "locality": "Montreal",
                        "postcode": "H2T 1S1",
                        "region": "QC"
                  },
                  "name": "Burger de Ville",
                  "popularity": 0.8688611847085541,
                  "price": 2,
                  "rating": 7.8
            },
            {
                  "distance": 737,
                  "location": {
                        "address": "5101 Saint-Laurent Blvd",
                        "country": "CA",
                        "cross_street": "",
                        "formatted_address": "5101 Saint-Laurent Blvd, Montr\u00e9al QC H2T 1R9",
                        "locality": "Montreal",
                        "postcode": "H2T 1R9",
                        "region": "QC"
                  },
                  "name": "Siboire",
                  "popularity": 0.9522733724451173,
                  "price": 2,
                  "rating": 7.7
            },
            {
                  "distance": 383,
                  "location": {
                        "address": "244 Laurier Ave O",
                        "country": "CA",
                        "cross_street": "coin Jeanne-Mance",
                        "formatted_address": "244 Laurier Ave O (coin Jeanne-Mance), Montr\u00e9al QC H2T 2N8",
                        "locality": "Montreal",
                        "postcode": "H2T 2N8",
                        "region": "QC"
                  },
                  "name": "Toi Moi & Caf\u00e9",
                  "popularity": 0.9174867524602573,
                  "price": 2,
                  "rating": 7.7
            }
      ],
      "context": {
            "geo_bounds": {
                  "circle": {
                        "center": {
                              "latitude": 45.51748721,
                              "longitude": -73.59788418
                        },
                        "radius": 1000
                  }
            }
      }
}