{
      "results": [
            {
                  "distance": 890,
                  "location": {
                        "address": "1595 Saint-Laurent Blvd",
                        "country": "CA",
                        "cross_street": "entre De Maisonneuve & Ontario",
                        "formatted_address": "1595 Saint-Laurent Blvd (entre De Maisonneuve & Ontario), Montr\u00e9al QC H2X 2S9",
                        "locality": "Montreal",
                        "postcode": "H2X 2S9",
                        "region": "QC"
                  },
                  "name": "Bouillon Bilk",
                  "popularity": 0.962682153671461,
                  "price": 3,
                  "rating": 9.3
            },
            {
                  "distance": 883,
                  "location": {
                        "address": "4328 Saint-Laurent Blvd",
                        "country": "CA",
                        "cross_street": "Marie-Anne",
                        "formatted_address": "4328 Saint-Laurent Blvd (Marie-Anne), Montr\u00e9al QC H2W 1Z3",
                        "locality": "Montreal",
                        "postcode": "H2W 1Z3",
                        "region": "QC"
                  },
                  "name": "Darling",
                  "popularity": 0.9573358251324754,
                  "price": 3,
                  "rating": 9.2
            },
            {
                  "distance": 841,
                  "location": {
                        "address": "3927 Saint-Denis Rue",
                        "country": "CA",
                        "cross_street": "entre Duluth & Roy",
                        "formatted_address": "3927 Saint-Denis Rue (entre Duluth & Roy), Montr\u00e9al QC H2W 2M4",
                        "locality": "Montreal",
                        "postcode": "H2W 2M4",
                        "region": "QC"
                  },
                  "name": "L'Express",
                  "popularity": 0.9460517600302801,
                  "price": 3,
                  "rating": 9.1
            },
            {
                  "distance": 644,
                  "location": {
                        "address": "77 Rachel Rue O",
                        "country": "CA",
                        "cross_street": "entre Clark & St-Urbain",
                        "formatted_address": "77 Rachel Rue O (entre Clark & St-Urbain), Montr\u00e9al QC H2W 1G2",
                        "locality": "Montreal",
                        "postcode": "H2W 1G2",
                        "region": "QC"
                  },
                  "name": "Noren \u306e\u308c\u3093",
                  "popularity": 0.9153103709311128,
                  "price": 2,
                  "rating": 9.1
            },
            {
                  "distance": 324,
                  "location": {
                        "address": "19 Prince-Arthur Rue O",
                        "country": "CA",
                        "cross_street": "entre St-Laurent & Clark",
                        "formatted_address": "19 Prince-Arthur Rue O (entre St-Laurent & Clark), Montr\u00e9al QC H2X 1S4",
                        "locality": "Montreal",
                        "postcode": "H2X 1S4",
                        "region": "QC"
                  },
                  "name": "Caf\u00e9 Nocturne",
                  "popularity": 0.9314912944738835,
                  "price": 1,
                  "rating": 9.0
            },
            {
                  "distance": 800,
                  "location": {
                        "address": "3801 Saint-Denis Rue",
                        "country": "CA",
                        "cross_street": "",
                        "formatted_address": "3801 Saint-Denis Rue, Montr\u00e9al QC H2W 2M4",
                        "locality": "Montreal",
                        "postcode": "H2W 2M4",
                        "region": "QC"
                  },
                  "name": "Le Club Espresso Bar",
                  "popularity": 0.9342945685087055,
                  "price": 1,
                  "rating": 9.0
            },
            {
                  "distance": 785,
                  "location": {
                        "address": "151 Rachel Rue E",
                        "country": "CA",
                        "cross_street": "coin De Bullion",
                        "formatted_address": "151 Rachel Rue E (coin De Bullion), Montr\u00e9al QC H2W 1E1",
                        "locality": "Montreal",
                        "postcode": "H2W 1E1",
                        "region": "QC"
                  },
                  "name": "Caf\u00e9 N\u00e9v\u00e9",
                  "popularity": 0.9299654617713853,
                  "price": 2,
                  "rating": 9.0
            },
            {
                  "distance": 423,
                  "location": {
                        "address": "3990 Saint-Urbain Rue",
                        "country": "CA",
                        "cross_street": "coin Duluth",
                        "formatted_address": "3990 Saint-Urbain Rue (coin Duluth), Montr\u00e9al QC H2W 1T7",
                        "locality": "Montreal",
                        "postcode": "H2W 1T7",
                        "region": "QC"
                  },
                  "name": "Caf\u00e9 Santropol",
                  "popularity": 0.9517529333838002,
                  "price": 2,
                  "rating": 8.9
            },
            {
                  "distance": 898,
                  "location": {
                        "address": "300 Ontario Rue E",
                        "country": "CA",
                        "cross_street": "coin Sanguinet",
                        "formatted_address": "300 Ontario Rue E (coin Sanguinet), Montr\u00e9al QC H2X 1H6",
                        "locality": "Montreal",
                        "postcode": "H2X 1H6",
                        "region": "QC"
                  },
                  "name": "La Distillerie",
                  "popularity": 0.9436861279333838,
                  "price": 3,
                  "rating": 8.9
            },
            {
                  "distance": 659,
                  "location": {
                        "address": "173 Duluth Ave E",
                        "country": "CA",
                        "cross_street": "coin H\u00f4tel-De-Ville",
                        "formatted_address": "173 Duluth Ave E (coin H\u00f4tel-De-Ville), Montr\u00e9al QC H2W 1H4",
                        "locality": "Montreal",
                        "postcode": "H2W 1H4",
                        "region": "QC"
                  },
                  "name": "Chez Jose",
                  "popularity": 0.919958838001514,
                  "price": 1,
                  "rating": 8.9
            },
            {
                  "distance": 769,
                  "location": {
                        "address": "3660 Saint-Denis Rue",
                        "country": "CA",
                        "cross_street": "coin Cherrier",
                        "formatted_address": "3660 Saint-Denis Rue (coin Cherrier), Montr\u00e9al QC H2X 3L7",
                        "locality": "Montreal",
                        "postcode": "H2X 3L7",
                        "region": "QC"
                  },
                  "name": "Mamie Clafoutis",
                  "popularity": 0.9447151778955337,
                  "price": 2,
                  "rating": 8.9
            },
            {
                  "distance": 579,
                  "location": {
                        "address": "4105 Saint-Laurent Blvd",
                        "country": "CA",
                        "cross_street": "",
                        "formatted_address": "4105 Saint-Laurent Blvd, Montr\u00e9al QC H2W 1Y7",
                        "locality": "Montreal",
                        "postcode": "H2W 1Y7",
                        "region": "QC"
                  },
                  "name": "Le Majestique",
                  "popularity": 0.9523443414080243,
                  "price": 2,
                  "rating": 8.9
            },
            {
                  "distance": 943,
                  "location": {
                        "address": "4185 Drolet Rue",
                        "country": "CA",
                        "cross_street": "coin Rachel",
                        "formatted_address": "4185 Drolet Rue (coin Rachel), Montr\u00e9al QC H2W 2L5",
                        "locality": "Montreal",
                        "postcode": "H2W 2L5",
                        "region": "QC"
                  },
                  "name": "Yokato Yokabai",
                  "popularity": 0.9432957986373959,
                  "price": 2,
                  "rating": 8.9
            },
            {
                  "distance": 496,
                  "location": {
                        "address": "4021 Saint-Laurent Blvd",
                        "country": "CA",
                        "cross_street": "coin Duluth",
                        "formatted_address": "4021 Saint-Laurent Blvd (coin Duluth), Montr\u00e9al QC H2W 1Y4",
                        "locality": "Montreal",
                        "postcode": "H2W 1Y4",
                        "region": "QC"
                  },
                  "name": "Dispatch Coffee",
                  "popularity": 0.9505346328538986,
                  "price": 1,
                  "rating": 8.9
            },
            {
                  "distance": 685,
                  "location": {
                        "address": "4177 Saint-Laurent Blvd",
                        "country": "CA",
                        "cross_street": "coin Rachel",
                        "formatted_address": "4177 Saint-Laurent Blvd (coin Rachel), Montr\u00e9al QC H2W 1Y7",
                        "locality": "Montreal",
                        "postcode": "H2W 1Y7",
                        "region": "QC"
                  },
                  "name": "Patati Patata Friterie de Luxe",
                  "popularity": 0.9553960068130204,
                  "price": 2,
                  "rating": 8.8
            },
            {
                  "distance": 620,
                  "location": {
                        "address": "545 Milton Rue",
                        "country": "CA",
                        "cross_street": "coin Lorne",
                        "formatted_address": "545 Milton Rue (coin Lorne), Montr\u00e9al QC H2X 1W5",
                        "locality": "Montreal",
                        "postcode": "H2X 1W5",
                        "region": "QC"
                  },
                  "name": "Lola Rosa",
                  "popularity": 0.9538583459500378,
                  "price": 2,
                  "rating": 8.8
            },
            {
                  "distance": 384,
                  "location": {
                        "address": "3901A Saint-Laurent Blvd",
                        "country": "CA",
                        "cross_street": "entre St-Cuthbert & Napol\u00e9on",
                        "formatted_address": "3901A Saint-Laurent Blvd (entre St-Cuthbert & Napol\u00e9on), Montr\u00e9al QC H2W 1X9",
                        "locality": "Montreal",
                        "postcode": "H2W 1X9",
                        "region": "QC"
                  },
                  "name": "Schwartz's Montreal Hebrew Delicatessen (Schwartz's Charcuterie H\u00e9bra\u00efque de Montr\u00e9al)",
                  "popularity": 0.989804125662377,
                  "price": 2,
                  "rating": 8.7
            },
            {
                  "distance": 807,
                  "location": {
                        "address": "3609 Saint-Denis Rue",
                        "address_extended": "Square St-Louis",
                        "country": "CA",
                        "cross_street": "Square St-Louis",
                        "formatted_address": "3609 Saint-Denis Rue (Square St-Louis), Montr\u00e9al QC H2X 3L6",
                        "locality": "Montreal",
                        "postcode": "H2X 3L6",
                        "region": "QC"
                  },
                  "name": "La Fabrique Bistrot",
                  "popularity": 0.9323547501892505,
                  "price": 4,
                  "rating": 8.6
            },
            {
                  "distance": 944,
                  "location": {
                        "address": "4115A Saint-Denis Rue",
                        "country": "CA",
                        "cross_street": "coin Duluth",
                        "formatted_address": "4115A Saint-Denis Rue (coin Duluth), Montr\u00e9al QC H2W 2M7",
                        "locality": "Montreal",
                        "postcode": "H2W 2M7",
                        "region": "QC"
                  },
                  "name": "Diese Onze",
                  "popularity": 0.9298944928084785,
                  "rating": 8.6
            },
            {
                  "distance": 953,
                  "location": {
                        "address": "2021 Saint-Denis Rue",
                        "country": "CA",
                        "cross_street": "rue Ontario",
                        "formatted_address": "2021 Saint-Denis Rue (rue Ontario), Montr\u00e9al QC H2X 3K8",
                        "locality": "Montreal",
                        "postcode": "H2X 3K8",
                        "region": "QC"
                  },
                  "name": "Le 4e Mur",
                  "popularity": 0.9381860333080999,
                  "price": 3,
                  "rating": 8.6
            },
            {
                  "distance": 593,
                  "location": {
                        "address": "8 Sherbrooke Rue E",
                        "country": "CA",
                        "cross_street": "Boukevard Saint-Laurent",
                        "formatted_address": "8 Sherbrooke Rue E (Boukevard Saint-Laurent), Montr\u00e9al QC H2X 1C2",
                        "locality": "Montreal",
                        "postcode": "H2X 1C2",
                        "region": "QC"
                  },
                  "name": "Cafe Origine",
                  "popularity": 0.9468324186222559,
                  "price": 1,
                  "rating": 8.5
            },
            {
                  "distance": 516,
                  "location": {
                        "address": "9 Duluth Ave E",
                        "country": "CA",
                        "cross_street": "entre St-Laurent & St-Dominique",
                        "formatted_address": "9 Duluth Ave E (entre St-Laurent & St-Dominique), Montr\u00e9al QC H2W 1G7",
                        "locality": "Montreal",
                        "postcode": "H2W 1G7",
                        "region": "QC"
                  },
                  "name": "R\u00e9servoir",
                  "popularity": 0.9331708932626798,
                  "price": 1,
                  "rating": 8.5
            },
            {
                  "distance": 438,
                  "location": {
                        "address": "73 Prince Arthur Rue E",
                        "country": "CA",
                        "cross_street": "Coloniale",
                        "formatted_address": "73 Prince Arthur Rue E (Coloniale), Montr\u00e9al QC H2X 1B4",
                        "locality": "Montreal",
                        "postcode": "H2X 1B4",
                        "region": "QC"
                  },
                  "name": "Arepera",
                  "popularity": 0.925730980317941,
                  "price": 1,
                  "rating": 8.5
            },
            {
                  "distance": 636,
                  "location": {
                        "address": "3412 Ave du Parc",
                        "country": "CA",
                        "cross_street": "coin Sherbrooke",
                        "formatted_address": "3412 Ave du Parc (coin Sherbrooke), Montr\u00e9al QC H2X 2H5",
                        "locality": "Montreal",
                        "postcode": "H2X 2H5",
                        "region": "QC"
                  },
                  "name": "Moleskine",
                  "popularity": 0.9416280280090841,
                  "price": 1,
                  "rating": 8.4
            },
            {
                  "distance": 815,
                  "location": {
                        "address": "3609 Saint-Denis Rue",
                        "address_extended": "Fl 1ST",
                        "country": "CA",
                        "cross_street": "coin rue du Square-Saint-Louis",
                        "formatted_address": "3609 Saint-Denis Rue (coin rue du Square-Saint-Louis), Montr\u00e9al QC H2X 3L6",
                        "locality": "Montreal",
                        "postcode": "H2X 3L6",
                        "region": "QC"
                  },
                  "name": "Sushi Momo V\u00e9g\u00e9talien",
                  "popularity": 0.8928486941710825,
                  "price": 2,
                  "rating": 8.4
            },
            {
                  "distance": 479,
                  "location": {
                        "address": "156 Roy Rue E",
                        "country": "CA",
                        "cross_street": "coin De Bullion",
                        "formatted_address": "156 Roy Rue E (coin De Bullion), Montr\u00e9al QC H2W 1M2",
                        "locality": "Montreal",
                        "postcode": "H2W 1M2",
                        "region": "QC"
                  },
                  "name": "Else's",
                  "popularity": 0.9207868092354277,
                  "price": 2,
                  "rating": 8.4
            },
            {
                  "distance": 343,
                  "location": {
                        "address": "3600 Saint-Laurent Blvd",
                        "address_extended": "coin Prince-Arthur",
                        "country": "CA",
                        "cross_street": "coin Prince-Arthur",
                        "formatted_address": "3600 Saint-Laurent Blvd (coin Prince-Arthur), Montr\u00e9al QC H2X 2V4",
                        "locality": "Montreal",
                        "postcode": "H2X 2V4",
                        "region": "QC"
                  },
                  "name": "Juliette et Chocolat",
                  "popularity": 0.971304882664648,
                  "price": 2,
                  "rating": 8.2
            },
            {
                  "distance": 541,
                  "location": {
                        "address": "51 Sherbrooke Rue O",
                        "country": "CA",
                        "cross_street": "coin Clark",
                        "formatted_address": "51 Sherbrooke Rue O (coin Clark), Montr\u00e9al QC H2X 1X2",
                        "locality": "Montreal",
                        "postcode": "H2X 1X2",
                        "region": "QC"
                  },
                  "name": "Caf\u00e9 OSMO",
                  "popularity": 0.9720027441332324,
                  "price": 1,
                  "rating": 8.2
            },
            {
                  "distance": 547,
                  "location": {
                        "address": "170 Prince-Arthur Rue E",
                        "country": "CA",
                        "cross_street": "entre De Bullion & H\u00f4tel-de-Ville",
                        "formatted_address": "170 Prince-Arthur Rue E (entre De Bullion & H\u00f4tel-de-Ville), Montr\u00e9al QC H2X 1B7",
                        "locality": "Montreal",
                        "postcode": "H2X 1B7",
                        "region": "QC"
                  },
                  "name": "Les Deux Gamins",
                  "popularity": 0.8988692278576835,
                  "price": 3,
                  "rating": 8.2
            },
            {
                  "distance": 582,
                  "location": {
                        "address": "245 Sherbrooke Rue O",
                        "country": "CA",
                        "cross_street": "coin Jeanne-Mance",
                        "formatted_address": "245 Sherbrooke Rue O (coin Jeanne-Mance), Montr\u00e9al QC H2X 1X7",
                        "locality": "Montreal",
                        "postcode": "H2X 1X7",
                        "region": "QC"
                  },
                  "name": "Benelux",
                  "popularity": 0.9719790878122634,
                  "price": 1,
                  "rating": 8.2
            },
            {
                  "distance": 438,
                  "location": {
                        "address": "3515 Saint-Laurent Blvd",
                        "country": "CA",
                        "cross_street": "entre Sherbrooke & Prince-Arthur",
                        "formatted_address": "3515 Saint-Laurent Blvd (entre Sherbrooke & Prince-Arthur), Montr\u00e9al QC H2X 2T6",
                        "locality": "Montreal",
                        "postcode": "H2X 2T6",
                        "region": "QC"
                  },
                  "name": "McKibbin's Irish Pub",
                  "popularity": 0.9739189061317184,
                  "price": 2,
                  "rating": 8.2
            },
            {
                  "distance": 520,
                  "location": {
                        "address": "20 Duluth Ave E",
                        "country": "CA",
                        "cross_street": "entre St-Laurent & St-Dominique",
                        "formatted_address": "20 Duluth Ave E (entre St-Laurent & St-Dominique), Montr\u00e9al QC H2W 1G6",
                        "locality": "Montreal",
                        "postcode": "H2W 1G6",
                        "region": "QC"
                  },
                  "name": "Bar Suzanne",
                  "popularity": 0.9205620741862226,
                  "price": 2,
                  "rating": 8.1
            },
            {
                  "distance": 898,
                  "location": {
                        "address": "1579 Saint-Laurent Blvd",
                        "country": "CA",
                        "cross_street": "",
                        "formatted_address": "1579 Saint-Laurent Blvd, Montr\u00e9al QC H2X 2S9",
                        "locality": "Montreal",
                        "postcode": "H2X 2S9",
                        "region": "QC"
                  },
                  "name": "Bar Pamplemousse",
                  "popularity": 0.9600563020439061,
                  "rating": 8.1
            },
            {
                  "distance": 827,
                  "location": {
                        "address": "213 Rachel Rue E",
                        "country": "CA",
                        "cross_street": "entre Laval & H\u00f4tel-de-ville",
                        "formatted_address": "213 Rachel Rue E (entre Laval & H\u00f4tel-de-ville), Montr\u00e9al QC H2W 1E4",
                        "locality": "Montreal",
                        "postcode": "H2W 1E4",
                        "region": "QC"
                  },
                  "name": "A Bar",
                  "popularity": 0.8736515897047691,
                  "price": 2,
                  "rating": 8.1
            },
            {
                  "distance": 1010,
                  "location": {
                        "address": "425 Mayor Rue",
                        "country": "CA",
                        "cross_street": "coin St-Alexandre",
                        "formatted_address": "425 Mayor Rue (coin St-Alexandre), Montr\u00e9al QC H3A 1N9",
                        "locality": "Montreal",
                        "postcode": "H3A 1N9",
                        "region": "QC"
                  },
                  "name": "Furco",
                  "popularity": 0.9385763626040878,
                  "price": 2,
                  "rating": 7.9
            }
      ],
      "context": {
            "geo_bounds": {
                  "circle": {
                        "center": {
                              "latitude": 45.51283175,
                              "longitude": -73.57688785
                        },
                        "radius": 1000
                  }
            }
      }
}