{
      "results": [
            {
                  "distance": 393,
                  "location": {
                        "address": "3205 Cremazie Blvd E",
                        "country": "CA",
                        "cross_street": "Cr\u00e9mazie",
                        "formatted_address": "3205 Cremazie Blvd E (Cr\u00e9mazie), Montr\u00e9al QC H1Z 4M5",
                        "locality": "Montreal",
                        "postcode": "H1Z 4M5",
                        "region": "QC"
                  },
                  "name": "Pho Ngon",
                  "popularity": 0.9768404617713853,
                  "price": 2,
                  "rating": 8.5
            },
            {
                  "distance": 590,
                  "location": {
                        "address": "3204 Jarry Rue E",
                        "country": "CA",
                        "cross_street": "",
                        "formatted_address": "3204 Jarry Rue E, Montr\u00e9al QC H1Z 2E2",
                        "locality": "Montreal",
                        "postcode": "H1Z 2E2",
                        "region": "QC"
                  },
                  "name": "Restaurant O Cantinho",
                  "popularity": 0.9048542770628312,
                  "price": 2,
                  "rating": 8.0
            },
            {
                  "distance": 399,
                  "location": {
                        "address": "7735 Saint-Michel Blvd",
                        "country": "CA",
                        "cross_street": "",
                        "formatted_address": "7735 Saint-Michel Blvd, Montr\u00e9al QC H2A 3A7",
                        "locality": "Montreal",
                        "postcode": "H2A 3A7",
                        "region": "QC"
                  },
                  "name": "Poissonnerie M\u00e9diterran\u00e9e",
                  "popularity": 0.8910153292959879,
                  "price": 1,
                  "rating": 7.9
            },
            {
                  "distance": 657,
                  "location": {
                        "address": "3296 Jean-Talon Rue E",
                        "country": "CA",
                        "cross_street": "Boul.St-Michel",
                        "formatted_address": "3296 Jean-Talon Rue E (Boul.St-Michel), Montr\u00e9al QC H2A 1W3",
                        "locality": "Montreal",
                        "postcode": "H2A 1W3",
                        "region": "QC"
                  },
                  "name": "Bar Zoe Karaoke et Cocktails",
                  "popularity": 0.974522142316427,
                  "price": 2,
                  "rating": 7.6
            },
            {
                  "distance": 883,
                  "location": {
                        "address": "3562 Jarry Rue E",
                        "country": "CA",
                        "cross_street": "15e Avenue",
                        "formatted_address": "3562 Jarry Rue E (15e Avenue), Montr\u00e9al QC H1Z 2G3",
                        "locality": "Montreal",
                        "postcode": "H1Z 2G3",
                        "region": "QC"
                  },
                  "name": "Nam Quan Restaurant",
                  "popularity": 0.9610498675246025,
                  "price": 2,
                  "rating": 7.4
            },
            {
                  "distance": 490,
                  "location": {
                        "address": "3250 Cremazie Blvd E",
                        "country": "CA",
                        "cross_street": "Saint-Michel",
                        "formatted_address": "3250 Cremazie Blvd E (Saint-Michel), Montr\u00e9al QC H2A 3N9",
                        "locality": "Montreal",
                        "postcode": "H2A 3N9",
                        "region": "QC"
                  },
                  "name": "Restaurant Pho Nam Inc",
                  "popularity": 0.9806254731264193,
                  "price": 2,
                  "rating": 6.8
            },
            {
                  "distance": 349,
                  "location": {
                        "address": "7734 Saint-Michel Blvd",
                        "country": "CA",
                        "cross_street": "at Cr\u00e9mazie Est",
                        "formatted_address": "7734 Saint-Michel Blvd (at Cr\u00e9mazie Est), Montr\u00e9al QC H2A 3A5",
                        "locality": "Montreal",
                        "postcode": "H2A 3A5",
                        "region": "QC"
                  },
                  "name": "March\u00e9 Kim Hour Inc",
                  "popularity": 0.9871546177138532,
                  "price": 1,
                  "rating": 6.4
            },
            {
                  "distance": 377,
                  "location": {
                        "address": "3201 Cremazie Blvd E",
                        "country": "CA",
                        "cross_street": "10e Avenue",
                        "formatted_address": "3201 Cremazie Blvd E (10e Avenue), Montr\u00e9al QC H1Z 4M5",
                        "locality": "Montreal",
                        "postcode": "H1Z 4M5",
                        "region": "QC"
                  },
                  "name": "Harvey's",
                  "popularity": 0.9832276684330054,
                  "price": 2,
                  "rating": 6.4,
                  "store_id": "2552"
            },
            {
                  "distance": 356,
                  "location": {
                        "address": "7645 Saint-Michel Blvd",
                        "country": "CA",
                        "formatted_address": "7645 Saint-Michel Blvd, Montreal QC H2A 3M4",
                        "locality": "Montr\u00e9al-Nord",
                        "postcode": "H2A 3M4",
                        "region": "QC"
                  },
                  "name": "McDonald's",
                  "popularity": 0.9966408024224073,
                  "price": 1,
                  "rating": 5.3
            },
            {
                  "distance": 574,
                  "location": {
                        "address": "2613 Jean Talon Rue E",
                        "country": "CA",
                        "cross_street": "",
                        "formatted_address": "2613 Jean Talon Rue E, Montr\u00e9al QC",
                        "locality": "Montreal",
                        "region": "QC"
                  },
                  "name": "Resto Cafe Tamaris",
                  "popularity": 0.09826835730507191,
                  "price": 2
            },
            {
                  "distance": 583,
                  "location": {
                        "address": "2566 Jean Talon Rue E",
                        "country": "CA",
                        "cross_street": "",
                        "formatted_address": "2566 Jean Talon Rue E, Montr\u00e9al QC H2A 1T9",
                        "locality": "Montreal",
                        "postcode": "H2A 1T9",
                        "region": "QC"
                  },
                  "name": "Kokoriko",
                  "popularity": 0.6628737698713096,
                  "price": 2
            },
            {
                  "distance": 589,
                  "location": {
                        "address": "3145 Jarry Rue E",
                        "country": "CA",
                        "cross_street": "",
                        "formatted_address": "3145 Jarry Rue E, Montreal QC H1Z 0B6",
                        "locality": "Montreal",
                        "postcode": "H1Z 0B6",
                        "region": "QC"
                  },
                  "name": "Apelia Restaurant",
                  "popularity": 0.6579769114307343,
                  "price": 2
            },
            {
                  "distance": 614,
                  "location": {
                        "address": "2517 Jean-Talon Rue E",
                        "country": "CA",
                        "cross_street": "Iberville",
                        "formatted_address": "2517 Jean-Talon Rue E (Iberville), Montr\u00e9al QC H2A 1T6",
                        "locality": "Montreal",
                        "postcode": "H2A 1T6",
                        "region": "QC"
                  },
                  "name": "Casse-Cro\u00fbte Sissi & Paul",
                  "popularity": 0.9293030847842544,
                  "price": 2
            },
            {
                  "distance": 623,
                  "location": {
                        "address": "2524 Jean-Talon Rue E",
                        "country": "CA",
                        "cross_street": "D' Iberville",
                        "formatted_address": "2524 Jean-Talon Rue E (D' Iberville), Montr\u00e9al QC H2A 1T7",
                        "locality": "Montreal",
                        "postcode": "H2A 1T7",
                        "region": "QC"
                  },
                  "name": "Mexico Restaurant",
                  "popularity": 0.8773301476154428,
                  "price": 1
            },
            {
                  "distance": 897,
                  "location": {
                        "address": "3391 Belair Rue",
                        "country": "CA",
                        "cross_street": "13e avenue",
                        "formatted_address": "3391 Belair Rue (13e avenue), Montr\u00e9al QC H2A 2A6",
                        "locality": "Montreal",
                        "postcode": "H2A 2A6",
                        "region": "QC"
                  },
                  "name": "Montr\u00e9al Caf\u00e9 Restaurent Carthage",
                  "popularity": 0.8973788796366389,
                  "price": 1
            },
            {
                  "distance": 961,
                  "location": {
                        "address": "2548 Belanger Rue",
                        "country": "CA",
                        "cross_street": "Belanger",
                        "formatted_address": "2548 Belanger Rue (Belanger), Montr\u00e9al QC H1Y 1A1",
                        "locality": "Montreal",
                        "postcode": "H1Y 1A1",
                        "region": "QC"
                  },
                  "name": "Bar Excel",
                  "popularity": 0.9128974261922785,
                  "price": 3
            },
            {
                  "distance": 5282,
                  "location": {
                        "address": "2344 Jean-Talon Rue E",
                        "country": "CA",
                        "cross_street": "",
                        "formatted_address": "2344 Jean-Talon Rue E, Montr\u00e9al QC H2E 1V7",
                        "locality": "Montreal",
                        "postcode": "H2E 1V7",
                        "region": "QC"
                  },
                  "name": "Boulangerie P\u00e2tisserie la Fleur de Sel",
                  "popularity": 0.7748982778198334,
                  "price": 1
            },
            {
                  "distance": 249,
                  "location": {
                        "address": "3055A Villeray Rue",
                        "country": "CA",
                        "formatted_address": "3055A Villeray Rue, Montreal QC H2A 1E8",
                        "locality": "Montreal",
                        "postcode": "H2A 1E8",
                        "region": "QC"
                  },
                  "name": "Cafe Bistro la Dolce Vita"
            },
            {
                  "distance": 343,
                  "location": {
                        "address": "7682 Saint-Michel Blvd",
                        "country": "CA",
                        "formatted_address": "7682 Saint-Michel Blvd, Montreal QC H2A 3A5",
                        "locality": "Montreal",
                        "postcode": "H2A 3A5",
                        "region": "QC"
                  },
                  "name": "Brasserie Chez le Pere Gedeon"
            },
            {
                  "distance": 550,
                  "location": {
                        "address": "7961 Saint-Michel Blvd",
                        "country": "CA",
                        "formatted_address": "7961 Saint-Michel Blvd, Montreal QC H1Z 3C9",
                        "locality": "Montreal",
                        "postcode": "H1Z 3C9",
                        "region": "QC"
                  },
                  "name": "Duy Anh"
            },
            {
                  "distance": 558,
                  "location": {
                        "address": "2583 Jean-Talon Rue E",
                        "country": "CA",
                        "formatted_address": "2583 Jean-Talon Rue E, Montreal QC H2A 1V1",
                        "locality": "Montreal",
                        "postcode": "H2A 1V1",
                        "region": "QC"
                  },
                  "name": "Pamela Sue"
            },
            {
                  "distance": 589,
                  "location": {
                        "address": "3204 Jarry Rue E",
                        "country": "CA",
                        "formatted_address": "3204 Jarry Rue E, Montreal QC H1Z 2E2",
                        "locality": "Montreal",
                        "postcode": "H1Z 2E2",
                        "region": "QC"
                  },
                  "name": "Grillades Portugaise Cantinho Eo Cantinhoe"
            },
            {
                  "distance": 663,
                  "location": {
                        "address": "3296 Jean-Talon Rue E",
                        "country": "CA",
                        "formatted_address": "3296 Jean-Talon Rue E, Montreal QC H2A 1W3",
                        "locality": "Montreal",
                        "postcode": "H2A 1W3",
                        "region": "QC"
                  },
                  "name": "Zo\u00e9 Fondues-Karaoke"
            },
            {
                  "distance": 677,
                  "location": {
                        "address": "2464 Jean-Talon Rue E",
                        "country": "CA",
                        "formatted_address": "2464 Jean-Talon Rue E, Montreal QC H2E 1W2",
                        "locality": "Montreal",
                        "postcode": "H2E 1W2",
                        "region": "QC"
                  },
                  "name": "Cafe Depot"
            },
            {
                  "distance": 747,
                  "location": {
                        "address": "7481 Ave de Lorimier",
                        "country": "CA",
                        "formatted_address": "7481 Ave de Lorimier, Montreal QC H2E 2P4",
                        "locality": "Montreal",
                        "postcode": "H2E 2P4",
                        "region": "QC"
                  },
                  "name": "Restaurant Pizza & Pasta"
            },
            {
                  "distance": 782,
                  "location": {
                        "address": "3436 Jean-Talon Rue E",
                        "country": "CA",
                        "formatted_address": "3436 Jean-Talon Rue E, Montreal QC H2A 1W9",
                        "locality": "Montreal",
                        "postcode": "H2A 1W9",
                        "region": "QC"
                  },
                  "name": "La Kasbah"
            },
            {
                  "distance": 843,
                  "location": {
                        "address": "7971 15e Ave",
                        "country": "CA",
                        "formatted_address": "7971 15e Ave, Montreal QC H1Z 3N5",
                        "locality": "Montreal",
                        "postcode": "H1Z 3N5",
                        "region": "QC"
                  },
                  "name": "Les Saveurs de Montr\u00e9al"
            },
            {
                  "distance": 878,
                  "location": {
                        "address": "2555 Belanger Rue",
                        "country": "CA",
                        "formatted_address": "2555 Belanger Rue, Montreal QC H1Y 1A3",
                        "locality": "Montreal",
                        "postcode": "H1Y 1A3",
                        "region": "QC"
                  },
                  "name": "Pura Felicita Caf\u00e9 Traiteur"
            },
            {
                  "distance": 886,
                  "location": {
                        "address": "3575 Jean-Talon Rue E",
                        "country": "CA",
                        "formatted_address": "3575 Jean-Talon Rue E, Montreal QC H2A 1X4",
                        "locality": "Montreal",
                        "postcode": "H2A 1X4",
                        "region": "QC"
                  },
                  "name": "Caf\u00e9 Resto le M\u00e9dit\u00e9rran\u00e9en"
            },
            {
                  "distance": 908,
                  "location": {
                        "address": "3598 Jean Talon Rue E",
                        "country": "CA",
                        "formatted_address": "3598 Jean Talon Rue E, Montreal QC H2A 1X5",
                        "locality": "Montreal",
                        "postcode": "H2A 1X5",
                        "region": "QC"
                  },
                  "name": "Caf\u00e9-resto D\u00e9lices F\u00e8s"
            },
            {
                  "distance": 919,
                  "location": {
                        "address": "3181 Belanger Rue",
                        "country": "CA",
                        "formatted_address": "3181 Belanger Rue, Montreal QC H1Y 1B6",
                        "locality": "Montreal",
                        "postcode": "H1Y 1B6",
                        "region": "QC"
                  },
                  "name": "Restaurant Pnt Inc"
            },
            {
                  "distance": 956,
                  "location": {
                        "address": "2490 Belanger Rue",
                        "country": "CA",
                        "formatted_address": "2490 Belanger Rue, Montreal QC H2G 1E5",
                        "locality": "Montreal",
                        "postcode": "H2G 1E5",
                        "region": "QC"
                  },
                  "name": "Restaurant Grill Tasqueria la Sharade"
            },
            {
                  "distance": 971,
                  "location": {
                        "address": "2015 Jean-Talon Rue E",
                        "country": "CA",
                        "formatted_address": "2015 Jean-Talon Rue E, Montreal QC H2E 1V2",
                        "locality": "Montreal",
                        "postcode": "H2E 1V2",
                        "region": "QC"
                  },
                  "name": "Caf\u00e9 Zabana"
            }
      ],
      "context": {
            "geo_bounds": {
                  "circle": {
                        "center": {
                              "latitude": 45.55873962,
                              "longitude": -73.60589045
                        },
                        "radius": 1000
                  }
            }
      }
}