{
      "results": [
            {
                  "distance": 965,
                  "location": {
                        "address": "1595 Saint-Laurent Blvd",
                        "country": "CA",
                        "cross_street": "entre De Maisonneuve & Ontario",
                        "formatted_address": "1595 Saint-Laurent Blvd (entre De Maisonneuve & Ontario), Montr\u00e9al QC H2X 2S9",
                        "locality": "Montreal",
                        "postcode": "H2X 2S9",
                        "region": "QC"
                  },
                  "name": "Bouillon Bilk",
                  "popularity": 0.962682153671461,
                  "price": 3,
                  "rating": 9.3
            },
            {
                  "distance": 948,
                  "location": {
                        "address": "1228 Sherbrooke Rue O",
                        "country": "CA",
                        "cross_street": "entre Drummond & De la Montagne",
                        "formatted_address": "1228 Sherbrooke Rue O (entre Drummond & De la Montagne), Montr\u00e9al QC H3G 1H6",
                        "locality": "Montreal",
                        "postcode": "H3G 1H6",
                        "region": "QC"
                  },
                  "name": "Maison Boulud",
                  "popularity": 0.9380914080242241,
                  "price": 4,
                  "rating": 9.1
            },
            {
                  "distance": 807,
                  "location": {
                        "address": "705 Sainte-Catherine Rue O",
                        "country": "CA",
                        "cross_street": "",
                        "formatted_address": "705 Sainte-Catherine Rue O, Montr\u00e9al QC H3B 4G5",
                        "locality": "Montreal",
                        "postcode": "H3B 4G5",
                        "region": "QC"
                  },
                  "name": "Time Out Market Montr\u00e9al",
                  "popularity": 0.9987107305071915,
                  "price": 2,
                  "rating": 9.1
            },
            {
                  "distance": 671,
                  "location": {
                        "address": "19 Prince-Arthur Rue O",
                        "country": "CA",
                        "cross_street": "entre St-Laurent & Clark",
                        "formatted_address": "19 Prince-Arthur Rue O (entre St-Laurent & Clark), Montr\u00e9al QC H2X 1S4",
                        "locality": "Montreal",
                        "postcode": "H2X 1S4",
                        "region": "QC"
                  },
                  "name": "Caf\u00e9 Nocturne",
                  "popularity": 0.9314912944738835,
                  "price": 1,
                  "rating": 9.0
            },
            {
                  "distance": 814,
                  "location": {
                        "address": "3990 Saint-Urbain Rue",
                        "country": "CA",
                        "cross_street": "coin Duluth",
                        "formatted_address": "3990 Saint-Urbain Rue (coin Duluth), Montr\u00e9al QC H2W 1T7",
                        "locality": "Montreal",
                        "postcode": "H2W 1T7",
                        "region": "QC"
                  },
                  "name": "Caf\u00e9 Santropol",
                  "popularity": 0.9517529333838002,
                  "price": 2,
                  "rating": 8.9
            },
            {
                  "distance": 940,
                  "location": {
                        "address": "4021 Saint-Laurent Blvd",
                        "country": "CA",
                        "cross_street": "coin Duluth",
                        "formatted_address": "4021 Saint-Laurent Blvd (coin Duluth), Montr\u00e9al QC H2W 1Y4",
                        "locality": "Montreal",
                        "postcode": "H2W 1Y4",
                        "region": "QC"
                  },
                  "name": "Dispatch Coffee",
                  "popularity": 0.9505346328538986,
                  "price": 1,
                  "rating": 8.9
            },
            {
                  "distance": 852,
                  "location": {
                        "address": "3901A Saint-Laurent Blvd",
                        "country": "CA",
                        "cross_street": "entre St-Cuthbert & Napol\u00e9on",
                        "formatted_address": "3901A Saint-Laurent Blvd (entre St-Cuthbert & Napol\u00e9on), Montr\u00e9al QC H2W 1X9",
                        "locality": "Montreal",
                        "postcode": "H2W 1X9",
                        "region": "QC"
                  },
                  "name": "Schwartz's Montreal Hebrew Delicatessen (Schwartz's Charcuterie H\u00e9bra\u00efque de Montr\u00e9al)",
                  "popularity": 0.989804125662377,
                  "price": 2,
                  "rating": 8.7
            },
            {
                  "distance": 915,
                  "location": {
                        "address": "1250 Rue de Bleury",
                        "country": "CA",
                        "cross_street": "at Sainte-Catherine",
                        "formatted_address": "1250 Rue de Bleury (at Sainte-Catherine), Montr\u00e9al QC H3B 2W4",
                        "locality": "Montreal",
                        "postcode": "H3B 2W4",
                        "region": "QC"
                  },
                  "name": "Nyks Bistro Pub",
                  "popularity": 0.9770888531415595,
                  "price": 2,
                  "rating": 8.6
            },
            {
                  "distance": 771,
                  "location": {
                        "address": "8 Sherbrooke Rue E",
                        "country": "CA",
                        "cross_street": "Boukevard Saint-Laurent",
                        "formatted_address": "8 Sherbrooke Rue E (Boukevard Saint-Laurent), Montr\u00e9al QC H2X 1C2",
                        "locality": "Montreal",
                        "postcode": "H2X 1C2",
                        "region": "QC"
                  },
                  "name": "Cafe Origine",
                  "popularity": 0.9468324186222559,
                  "price": 1,
                  "rating": 8.5
            },
            {
                  "distance": 964,
                  "location": {
                        "address": "9 Duluth Ave E",
                        "country": "CA",
                        "cross_street": "entre St-Laurent & St-Dominique",
                        "formatted_address": "9 Duluth Ave E (entre St-Laurent & St-Dominique), Montr\u00e9al QC H2W 1G7",
                        "locality": "Montreal",
                        "postcode": "H2W 1G7",
                        "region": "QC"
                  },
                  "name": "R\u00e9servoir",
                  "popularity": 0.9331708932626798,
                  "price": 1,
                  "rating": 8.5
            },
            {
                  "distance": 613,
                  "location": {
                        "address": "904 Sherbrooke Rue O",
                        "country": "CA",
                        "cross_street": "entre McGill College & Mansfield",
                        "formatted_address": "904 Sherbrooke Rue O (entre McGill College & Mansfield), Montr\u00e9al QC H3A 1G3",
                        "locality": "Montreal",
                        "postcode": "H3A 1G3",
                        "region": "QC"
                  },
                  "name": "Caf\u00e9 Humble Lion",
                  "popularity": 0.9446678652535958,
                  "price": 2,
                  "rating": 8.5
            },
            {
                  "distance": 820,
                  "location": {
                        "address": "73 Prince Arthur Rue E",
                        "country": "CA",
                        "cross_street": "Coloniale",
                        "formatted_address": "73 Prince Arthur Rue E (Coloniale), Montr\u00e9al QC H2X 1B4",
                        "locality": "Montreal",
                        "postcode": "H2X 1B4",
                        "region": "QC"
                  },
                  "name": "Arepera",
                  "popularity": 0.925730980317941,
                  "price": 1,
                  "rating": 8.5
            },
            {
                  "distance": 465,
                  "location": {
                        "address": "3412 Ave du Parc",
                        "country": "CA",
                        "cross_street": "coin Sherbrooke",
                        "formatted_address": "3412 Ave du Parc (coin Sherbrooke), Montr\u00e9al QC H2X 2H5",
                        "locality": "Montreal",
                        "postcode": "H2X 2H5",
                        "region": "QC"
                  },
                  "name": "Moleskine",
                  "popularity": 0.9416280280090841,
                  "price": 1,
                  "rating": 8.4
            },
            {
                  "distance": 952,
                  "location": {
                        "address": "156 Roy Rue E",
                        "country": "CA",
                        "cross_street": "coin De Bullion",
                        "formatted_address": "156 Roy Rue E (coin De Bullion), Montr\u00e9al QC H2W 1M2",
                        "locality": "Montreal",
                        "postcode": "H2W 1M2",
                        "region": "QC"
                  },
                  "name": "Else's",
                  "popularity": 0.9207868092354277,
                  "price": 2,
                  "rating": 8.4
            },
            {
                  "distance": 703,
                  "location": {
                        "address": "3600 Saint-Laurent Blvd",
                        "address_extended": "coin Prince-Arthur",
                        "country": "CA",
                        "cross_street": "coin Prince-Arthur",
                        "formatted_address": "3600 Saint-Laurent Blvd (coin Prince-Arthur), Montr\u00e9al QC H2X 2V4",
                        "locality": "Montreal",
                        "postcode": "H2X 2V4",
                        "region": "QC"
                  },
                  "name": "Juliette et Chocolat",
                  "popularity": 0.971304882664648,
                  "price": 2,
                  "rating": 8.2
            },
            {
                  "distance": 700,
                  "location": {
                        "address": "51 Sherbrooke Rue O",
                        "country": "CA",
                        "cross_street": "coin Clark",
                        "formatted_address": "51 Sherbrooke Rue O (coin Clark), Montr\u00e9al QC H2X 1X2",
                        "locality": "Montreal",
                        "postcode": "H2X 1X2",
                        "region": "QC"
                  },
                  "name": "Caf\u00e9 OSMO",
                  "popularity": 0.9720027441332324,
                  "price": 1,
                  "rating": 8.2
            },
            {
                  "distance": 936,
                  "location": {
                        "address": "170 Prince-Arthur Rue E",
                        "country": "CA",
                        "cross_street": "entre De Bullion & H\u00f4tel-de-Ville",
                        "formatted_address": "170 Prince-Arthur Rue E (entre De Bullion & H\u00f4tel-de-Ville), Montr\u00e9al QC H2X 1B7",
                        "locality": "Montreal",
                        "postcode": "H2X 1B7",
                        "region": "QC"
                  },
                  "name": "Les Deux Gamins",
                  "popularity": 0.8988692278576835,
                  "price": 3,
                  "rating": 8.2
            },
            {
                  "distance": 536,
                  "location": {
                        "address": "245 Sherbrooke Rue O",
                        "country": "CA",
                        "cross_street": "coin Jeanne-Mance",
                        "formatted_address": "245 Sherbrooke Rue O (coin Jeanne-Mance), Montr\u00e9al QC H2X 1X7",
                        "locality": "Montreal",
                        "postcode": "H2X 1X7",
                        "region": "QC"
                  },
                  "name": "Benelux",
                  "popularity": 0.9719790878122634,
                  "price": 1,
                  "rating": 8.2
            },
            {
                  "distance": 728,
                  "location": {
                        "address": "3515 Saint-Laurent Blvd",
                        "country": "CA",
                        "cross_street": "entre Sherbrooke & Prince-Arthur",
                        "formatted_address": "3515 Saint-Laurent Blvd (entre Sherbrooke & Prince-Arthur), Montr\u00e9al QC H2X 2T6",
                        "locality": "Montreal",
                        "postcode": "H2X 2T6",
                        "region": "QC"
                  },
                  "name": "McKibbin's Irish Pub",
                  "popularity": 0.9739189061317184,
                  "price": 2,
                  "rating": 8.2
            },
            {
                  "distance": 915,
                  "location": {
                        "address": "1472 Peel Rue",
                        "country": "CA",
                        "cross_street": "coin De Maisonneuve",
                        "formatted_address": "1472 Peel Rue (coin De Maisonneuve), Montr\u00e9al QC H3A 1S8",
                        "locality": "Montreal",
                        "postcode": "H3A 1S8",
                        "region": "QC"
                  },
                  "name": "Cafe Vasco Da Gama",
                  "popularity": 0.9501561317183952,
                  "price": 2,
                  "rating": 8.2
            },
            {
                  "distance": 971,
                  "location": {
                        "address": "20 Duluth Ave E",
                        "country": "CA",
                        "cross_street": "entre St-Laurent & St-Dominique",
                        "formatted_address": "20 Duluth Ave E (entre St-Laurent & St-Dominique), Montr\u00e9al QC H2W 1G6",
                        "locality": "Montreal",
                        "postcode": "H2W 1G6",
                        "region": "QC"
                  },
                  "name": "Bar Suzanne",
                  "popularity": 0.9205620741862226,
                  "price": 2,
                  "rating": 8.1
            },
            {
                  "distance": 964,
                  "location": {
                        "address": "1579 Saint-Laurent Blvd",
                        "country": "CA",
                        "cross_street": "",
                        "formatted_address": "1579 Saint-Laurent Blvd, Montr\u00e9al QC H2X 2S9",
                        "locality": "Montreal",
                        "postcode": "H2X 2S9",
                        "region": "QC"
                  },
                  "name": "Bar Pamplemousse",
                  "popularity": 0.9600563020439061,
                  "rating": 8.1
            },
            {
                  "distance": 924,
                  "location": {
                        "address": "1250 Robert-Bourassa Blvd",
                        "country": "CA",
                        "cross_street": "",
                        "formatted_address": "1250 Robert-Bourassa Blvd, Montr\u00e9al QC H3B 3B8",
                        "locality": "Montreal",
                        "postcode": "H3B 3B8",
                        "region": "QC"
                  },
                  "name": "Le East",
                  "popularity": 0.9653316616199848,
                  "price": 2,
                  "rating": 8.1
            },
            {
                  "distance": 889,
                  "location": {
                        "address": "732 Sainte-Catherine Rue O",
                        "country": "CA",
                        "cross_street": "McGill Av.",
                        "formatted_address": "732 Sainte-Catherine Rue O (McGill Av.), Montr\u00e9al QC H3B 1B9",
                        "locality": "Montreal",
                        "postcode": "H3B 1B9",
                        "region": "QC"
                  },
                  "name": "Les 3 Brasseurs",
                  "popularity": 0.9831566994700984,
                  "price": 2,
                  "rating": 8.0
            },
            {
                  "distance": 675,
                  "location": {
                        "address": "20 Prince-Arthur Rue O",
                        "country": "CA",
                        "cross_street": "coin Saint-Laurent",
                        "formatted_address": "20 Prince-Arthur Rue O (coin Saint-Laurent), Montr\u00e9al QC H2X 1S3",
                        "locality": "Montreal",
                        "postcode": "H2X 1S3",
                        "region": "QC"
                  },
                  "name": "Ye Olde Orchard Pub & Grill",
                  "popularity": 0.9363171839515518,
                  "price": 2,
                  "rating": 7.8
            },
            {
                  "distance": 871,
                  "location": {
                        "address": "3908 Saint-Laurent Blvd",
                        "country": "CA",
                        "cross_street": "",
                        "formatted_address": "3908 Saint-Laurent Blvd, Montr\u00e9al QC H2W 1Y2",
                        "locality": "Montreal",
                        "postcode": "H2W 1Y2",
                        "region": "QC"
                  },
                  "name": "North Star Machines \u00e0 Piastres",
                  "popularity": 0.9947719530658592,
                  "price": 2,
                  "rating": 7.8
            },
            {
                  "distance": 776,
                  "location": {
                        "address": "705 Sainte-Catherine Rue O",
                        "address_extended": "Tunnel Level",
                        "country": "CA",
                        "cross_street": "",
                        "formatted_address": "705 Sainte-Catherine Rue O, Montr\u00e9al QC H3B 4G5",
                        "locality": "Montreal",
                        "postcode": "H3B 4G5",
                        "region": "QC"
                  },
                  "name": "A&W Restaurant",
                  "popularity": 0.9869771953065859,
                  "price": 1,
                  "rating": 7.8,
                  "store_id": "5535"
            },
            {
                  "distance": 442,
                  "location": {
                        "address": "224 Milton Rue",
                        "country": "CA",
                        "cross_street": "",
                        "formatted_address": "224 Milton Rue, Montr\u00e9al QC H2X 1V6",
                        "locality": "Montreal",
                        "postcode": "H2X 1V6",
                        "region": "QC"
                  },
                  "name": "Mae Sri Comptoir Thai",
                  "popularity": 0.9586132664647994,
                  "price": 2,
                  "rating": 7.7
            },
            {
                  "distance": 818,
                  "location": {
                        "address": "3864 Saint-Laurent Blvd",
                        "country": "CA",
                        "cross_street": "entre St-Cuthbert & Bagg",
                        "formatted_address": "3864 Saint-Laurent Blvd (entre St-Cuthbert & Bagg), Montr\u00e9al QC H2W 1Y2",
                        "locality": "Montreal",
                        "postcode": "H2W 1Y2",
                        "region": "QC"
                  },
                  "name": "Main Deli Steak House",
                  "popularity": 0.9460635881907645,
                  "price": 2,
                  "rating": 7.5
            },
            {
                  "distance": 935,
                  "location": {
                        "address": "1251 McGill College Ave",
                        "country": "CA",
                        "cross_street": "Rue Sainte-Catherine O",
                        "formatted_address": "1251 McGill College Ave (Rue Sainte-Catherine O), Montr\u00e9al QC H3B 2Y4",
                        "locality": "Montreal",
                        "postcode": "H3B 2Y4",
                        "region": "QC"
                  },
                  "name": "Enoteca Monza Pizzeria Moderna",
                  "popularity": 0.9676736373959122,
                  "price": 2,
                  "rating": 7.5
            },
            {
                  "distance": 801,
                  "location": {
                        "address": "2055 Peel Rue",
                        "country": "CA",
                        "cross_street": "Sherbrooke",
                        "formatted_address": "2055 Peel Rue (Sherbrooke), Montr\u00e9al QC H3A 1V4",
                        "locality": "Montreal",
                        "postcode": "H3A 1V4",
                        "region": "QC"
                  },
                  "name": "Universel D\u00e9jeuner & Grillade",
                  "popularity": 0.9662424299772899,
                  "price": 2,
                  "rating": 7.5
            },
            {
                  "distance": 997,
                  "location": {
                        "address": "93 St Catherine Rue O",
                        "country": "CA",
                        "cross_street": "",
                        "formatted_address": "93 St Catherine Rue O, Montr\u00e9al QC H2X 1Z7",
                        "locality": "Montreal",
                        "postcode": "H2X 1Z7",
                        "region": "QC"
                  },
                  "name": "Tim Hortons",
                  "popularity": 0.980542676003028,
                  "price": 1,
                  "rating": 7.5
            },
            {
                  "distance": 984,
                  "location": {
                        "address": "1490 Stanley Rue",
                        "country": "CA",
                        "cross_street": "coin de Maisonneuve",
                        "formatted_address": "1490 Stanley Rue (coin de Maisonneuve), Montr\u00e9al QC H3A 1P7",
                        "locality": "Montreal",
                        "postcode": "H3A 1P7",
                        "region": "QC"
                  },
                  "name": "Firegrill Restaurant & Bar",
                  "popularity": 0.9710801476154428,
                  "price": 3,
                  "rating": 7.4
            },
            {
                  "distance": 324,
                  "location": {
                        "address": "3498 Ave du Parc",
                        "country": "CA",
                        "cross_street": "Milton Street",
                        "formatted_address": "3498 Ave du Parc (Milton Street), Montr\u00e9al QC H2X 2H5",
                        "locality": "Montreal",
                        "postcode": "H2X 2H5",
                        "region": "QC"
                  },
                  "name": "Milton B",
                  "popularity": 0.9634864685844058,
                  "price": 1,
                  "rating": 7.4
            },
            {
                  "distance": 755,
                  "location": {
                        "address": "3481 Saint-Laurent Blvd",
                        "country": "CA",
                        "cross_street": "",
                        "formatted_address": "3481 Saint-Laurent Blvd, Montr\u00e9al QC H2X 2T6",
                        "locality": "Montreal",
                        "postcode": "H2X 2T6",
                        "region": "QC"
                  },
                  "name": "Bootlegger, l'Authentique",
                  "popularity": 0.9536099545798638,
                  "price": 3,
                  "rating": 7.2
            }
      ],
      "context": {
            "geo_bounds": {
                  "circle": {
                        "center": {
                              "latitude": 45.50856687,
                              "longitude": -73.57769787
                        },
                        "radius": 1000
                  }
            }
      }
}