{
      "results": [
            {
                  "distance": 580,
                  "location": {
                        "address": "1440 Cure-Labelle Blvd",
                        "country": "CA",
                        "cross_street": "",
                        "formatted_address": "1440 Cure-Labelle Blvd, Laval QC H7V 2W1",
                        "locality": "Laval",
                        "postcode": "H7V 2W1",
                        "region": "QC"
                  },
                  "name": "Tim Hortons",
                  "popularity": 0.9787556904400607,
                  "price": 1,
                  "rating": 8.0
            },
            {
                  "distance": 565,
                  "location": {
                        "address": "3455 Saint-Martin Blvd W",
                        "country": "CA",
                        "cross_street": "Boulevard Chomedey",
                        "formatted_address": "3455 Saint-Martin Blvd W (Boulevard Chomedey), Laval QC H7T 1A2",
                        "locality": "Laval",
                        "postcode": "H7T 1A2",
                        "region": "QC"
                  },
                  "name": "Beroya",
                  "popularity": 0.9472462733196465,
                  "price": 2,
                  "rating": 7.8
            },
            {
                  "distance": 866,
                  "location": {
                        "address": "1510 Chomedey Blvd",
                        "country": "CA",
                        "cross_street": "",
                        "formatted_address": "1510 Chomedey Blvd, Laval QC H7V 3N8",
                        "locality": "Laval",
                        "postcode": "H7V 3N8",
                        "region": "QC"
                  },
                  "name": "Restaurant Toyo Grillades a la Japonaise",
                  "popularity": 0.8994912077122199,
                  "price": 2,
                  "rating": 7.3
            },
            {
                  "distance": 546,
                  "location": {
                        "address": "3467 St-Martin Blvd O",
                        "country": "CA",
                        "cross_street": "Chomedey Blvd.",
                        "formatted_address": "3467 St-Martin Blvd O (Chomedey Blvd.), Laval QC H7T 1A2",
                        "locality": "Laval",
                        "postcode": "H7T 1A2",
                        "region": "QC"
                  },
                  "name": "Arouch",
                  "popularity": 0.9711684370257967,
                  "price": 1,
                  "rating": 7.3
            },
            {
                  "distance": 688,
                  "location": {
                        "address": "2050 Blvd Cur\u00e9-Labelle",
                        "country": "CA",
                        "formatted_address": "2050 Blvd Cur\u00e9-Labelle, Laval QC H7T 1R1",
                        "locality": "Laval",
                        "postcode": "H7T 1R1",
                        "region": "QC"
                  },
                  "name": "La Paysanne Gelato",
                  "popularity": 0.9359100241006874,
                  "price": 1,
                  "rating": 7.1
            },
            {
                  "distance": 65,
                  "location": {
                        "address": "3800 Saint-Martin Blvd O",
                        "country": "CA",
                        "formatted_address": "3800 Saint-Martin Blvd O, Laval QC H7T 1B3",
                        "locality": "Laval",
                        "postcode": "H7T 1B3",
                        "region": "QC"
                  },
                  "name": "Dunn's Famous",
                  "popularity": 0.9636704454164063,
                  "price": 1,
                  "rating": 6.9
            },
            {
                  "distance": 213,
                  "location": {
                        "address": "1738 Cure-Labelle Blvd",
                        "country": "CA",
                        "cross_street": "St Martin",
                        "formatted_address": "1738 Cure-Labelle Blvd (St Martin), Laval QC H7T 1L2",
                        "locality": "Laval",
                        "postcode": "H7T 1L2",
                        "region": "QC"
                  },
                  "name": "B12 Burgers",
                  "popularity": 0.990627510488262,
                  "price": 1,
                  "rating": 6.9
            },
            {
                  "distance": 790,
                  "location": {
                        "address": "3325 Saint-Martin Blvd O",
                        "country": "CA",
                        "cross_street": "",
                        "formatted_address": "3325 Saint-Martin Blvd O, Laval QC H7T 1S2",
                        "locality": "Laval",
                        "postcode": "H7T 1S2",
                        "region": "QC"
                  },
                  "name": "R\u00f4tisserie St-Hubert",
                  "popularity": 0.9357315004909399,
                  "price": 2,
                  "rating": 6.8,
                  "store_id": "100092"
            },
            {
                  "distance": 664,
                  "location": {
                        "address": "1345 Cure-Labelle Blvd",
                        "country": "CA",
                        "formatted_address": "1345 Cure-Labelle Blvd, Laval QC H7V 2V9",
                        "locality": "Laval",
                        "postcode": "H7V 2V9",
                        "region": "QC"
                  },
                  "name": "Dic Ann's",
                  "popularity": 0.9822369008301348,
                  "price": 1,
                  "rating": 6.6
            },
            {
                  "distance": 167,
                  "location": {
                        "address": "1695 Cure-Labelle Blvd",
                        "country": "CA",
                        "cross_street": "",
                        "formatted_address": "1695 Cure-Labelle Blvd, Laval QC H7V 2W6",
                        "locality": "Laval",
                        "postcode": "H7V 2W6",
                        "region": "QC"
                  },
                  "name": "A&W Restaurant",
                  "popularity": 0.9518878871730786,
                  "price": 1,
                  "rating": 6.6,
                  "store_id": "5324"
            },
            {
                  "distance": 588,
                  "location": {
                        "address": "3453 Saint-Martin Blvd O",
                        "country": "CA",
                        "formatted_address": "3453 Saint-Martin Blvd O, Laval QC H7T 1A2",
                        "locality": "Laval",
                        "postcode": "H7T 1A2",
                        "region": "QC"
                  },
                  "name": "Cafe Univers",
                  "popularity": 0.9045791305900205,
                  "price": 3,
                  "rating": 6.5
            },
            {
                  "distance": 867,
                  "location": {
                        "address": "2321 Cure Labelle Blvd",
                        "address_extended": "Unit 21",
                        "country": "CA",
                        "cross_street": "",
                        "formatted_address": "2321 Cure Labelle Blvd, Laval QC H7T 1R3",
                        "locality": "Laval",
                        "postcode": "H7T 1R3",
                        "region": "QC"
                  },
                  "name": "Subway",
                  "popularity": 0.9068999375167366,
                  "price": 1,
                  "rating": 6.5,
                  "store_id": "20831"
            },
            {
                  "distance": 753,
                  "location": {
                        "address": "2145 Cure-Labelle Blvd",
                        "country": "CA",
                        "cross_street": "at Cure-Labelle",
                        "formatted_address": "2145 Cure-Labelle Blvd (at Cure-Labelle), Laval QC H7T 1L4",
                        "locality": "Laval",
                        "postcode": "H7T 1L4",
                        "region": "QC"
                  },
                  "name": "Tim Hortons",
                  "popularity": 0.9883959653664197,
                  "price": 1,
                  "rating": 6.4
            },
            {
                  "distance": 809,
                  "location": {
                        "address": "2075 Chomedey Blvd",
                        "country": "CA",
                        "cross_street": "",
                        "formatted_address": "2075 Chomedey Blvd, Laval QC H7T 0G5",
                        "locality": "Laval",
                        "postcode": "H7T 0G5",
                        "region": "QC"
                  },
                  "name": "Tim Hortons",
                  "popularity": 0.8470945282513612,
                  "price": 2,
                  "rating": 6.4
            },
            {
                  "distance": 626,
                  "location": {
                        "address": "1365 Cure-Labelle Blvd",
                        "country": "CA",
                        "formatted_address": "1365 Cure-Labelle Blvd, Laval QC H7V 2V9",
                        "locality": "Laval",
                        "postcode": "H7V 2V9",
                        "region": "QC"
                  },
                  "name": "Saverio",
                  "popularity": 0.8812817995179862,
                  "price": 3,
                  "rating": 6.4
            },
            {
                  "distance": 692,
                  "location": {
                        "address": "3370 Saint-Martin Blvd O",
                        "country": "CA",
                        "cross_street": "",
                        "formatted_address": "3370 Saint-Martin Blvd O, Laval QC H7T 1A1",
                        "locality": "Laval",
                        "postcode": "H7T 1A1",
                        "region": "QC"
                  },
                  "name": "R\u00f4tisserie Scores",
                  "popularity": 0.9376059983932875,
                  "price": 2,
                  "rating": 6.0,
                  "store_id": "SC_09"
            },
            {
                  "distance": 50,
                  "location": {
                        "address": "3821 Saint-Martin Blvd O",
                        "country": "CA",
                        "cross_street": "",
                        "formatted_address": "3821 Saint-Martin Blvd O, Laval QC H7T 1B2",
                        "locality": "Laval",
                        "postcode": "H7T 1B2",
                        "region": "QC"
                  },
                  "name": "Bouza - Cr\u00e8me Glac\u00e9e Syrienne",
                  "popularity": 0.962867089172543,
                  "price": 1
            },
            {
                  "distance": 143,
                  "location": {
                        "address": "3873 Saint-Martin Blvd O",
                        "country": "CA",
                        "cross_street": "",
                        "formatted_address": "3873 Saint-Martin Blvd O, Laval QC H7T 1B2",
                        "locality": "Laval",
                        "postcode": "H7T 1B2",
                        "region": "QC"
                  },
                  "name": "Zoom Pizza",
                  "popularity": 0.9113630277604213,
                  "price": 1
            },
            {
                  "distance": 255,
                  "location": {
                        "address": "1601 Cure-Labelle Blvd",
                        "country": "CA",
                        "cross_street": "",
                        "formatted_address": "1601 Cure-Labelle Blvd, Laval QC H7V 2W6",
                        "locality": "Laval",
                        "postcode": "H7V 2W6",
                        "region": "QC"
                  },
                  "name": "Bar le Base",
                  "popularity": 0.860037489958047,
                  "price": 3
            },
            {
                  "distance": 263,
                  "location": {
                        "address": "1629 Cure-Labelle Blvd",
                        "country": "CA",
                        "cross_street": "",
                        "formatted_address": "1629 Cure-Labelle Blvd, Laval QC H7V 2W6",
                        "locality": "Laval",
                        "postcode": "H7V 2W6",
                        "region": "QC"
                  },
                  "name": "D\u00e9lices des C\u00e8dres",
                  "popularity": 0.8728911898598589,
                  "price": 1
            },
            {
                  "distance": 334,
                  "location": {
                        "address": "3600 Saint-Martin Blvd O",
                        "country": "CA",
                        "cross_street": "",
                        "formatted_address": "3600 Saint-Martin Blvd O, Laval QC H7T 1A5",
                        "locality": "Laval",
                        "postcode": "H7T 1A5",
                        "region": "QC"
                  },
                  "name": "Restaurant Oeuffruits D\u00e9jeuner-D\u00eener Inc",
                  "popularity": 0.9517093635633312,
                  "price": 1
            },
            {
                  "distance": 407,
                  "location": {
                        "address": "1534 Cure-Labelle Blvd",
                        "country": "CA",
                        "cross_street": "",
                        "formatted_address": "1534 Cure-Labelle Blvd, Laval QC H7V 2W2",
                        "locality": "Laval",
                        "postcode": "H7V 2W2",
                        "region": "QC"
                  },
                  "name": "Casa Creole",
                  "popularity": 0.8711952155672588,
                  "price": 2
            },
            {
                  "distance": 731,
                  "location": {
                        "address": "1298 Blvd Cur\u00e9-Labelle",
                        "country": "CA",
                        "cross_street": "",
                        "formatted_address": "1298 Blvd Cur\u00e9-Labelle, Laval QC H7V 2V9",
                        "locality": "Laval",
                        "postcode": "H7V 2V9",
                        "region": "QC"
                  },
                  "name": "Ph\u1edf Dz\u0169ng Restaurant",
                  "popularity": 0.928412032491297,
                  "price": 2
            },
            {
                  "distance": 796,
                  "location": {
                        "address": "1260 Cure-Labelle Blvd",
                        "country": "CA",
                        "cross_street": "",
                        "formatted_address": "1260 Cure-Labelle Blvd, Laval QC H7V 2W1",
                        "locality": "Laval",
                        "postcode": "H7V 2W1",
                        "region": "QC"
                  },
                  "name": "La Belle Province",
                  "popularity": 0.9749174328304918,
                  "price": 1
            },
            {
                  "distance": 803,
                  "location": {
                        "address": "3352 Saint-Martin Blvd O",
                        "country": "CA",
                        "cross_street": "",
                        "formatted_address": "3352 Saint-Martin Blvd O, Laval QC H7T 1A1",
                        "locality": "Laval",
                        "postcode": "H7T 1A1",
                        "region": "QC"
                  },
                  "name": "Cafe Milano",
                  "popularity": 0.9870570382933143,
                  "price": 1
            },
            {
                  "distance": 823,
                  "location": {
                        "address": "2159 Cure-Labelle Blvd",
                        "country": "CA",
                        "cross_street": "Du Carrefour",
                        "formatted_address": "2159 Cure-Labelle Blvd (Du Carrefour), Laval QC H7T 1R3",
                        "locality": "Laval",
                        "postcode": "H7T 1R3",
                        "region": "QC"
                  },
                  "name": "Shawarmaz",
                  "popularity": 0.9843791841471035,
                  "price": 2
            },
            {
                  "distance": 850,
                  "location": {
                        "address": "1253 Cure-Labelle Blvd",
                        "country": "CA",
                        "cross_street": "",
                        "formatted_address": "1253 Cure-Labelle Blvd, Laval QC H7V 2V9",
                        "locality": "Laval",
                        "postcode": "H7V 2V9",
                        "region": "QC"
                  },
                  "name": "Centrale Bergham",
                  "popularity": 0.8768187092743015,
                  "price": 1
            },
            {
                  "distance": 868,
                  "location": {
                        "address": "2325 Cure-Labelle Blvd",
                        "country": "CA",
                        "cross_street": "Cure labelle Chomedey",
                        "formatted_address": "2325 Cure-Labelle Blvd (Cure labelle Chomedey), Laval QC H7T 1R3",
                        "locality": "Laval",
                        "postcode": "H7T 1R3",
                        "region": "QC"
                  },
                  "name": "Fritou",
                  "popularity": 0.8789609925912701,
                  "price": 1
            },
            {
                  "distance": 894,
                  "location": {
                        "address": "1205 Cure-Labelle Blvd",
                        "country": "CA",
                        "cross_street": "Rue L\u00e9pine",
                        "formatted_address": "1205 Cure-Labelle Blvd (Rue L\u00e9pine), Laval QC H7V 2V8",
                        "locality": "Laval",
                        "postcode": "H7V 2V8",
                        "region": "QC"
                  },
                  "name": "Allons Burger",
                  "popularity": 0.9765241453182183,
                  "price": 1
            },
            {
                  "distance": 913,
                  "location": {
                        "address": "3236 Saint-Martin Blvd O",
                        "country": "CA",
                        "cross_street": "",
                        "formatted_address": "3236 Saint-Martin Blvd O, Laval QC H7T 1A1",
                        "locality": "Laval",
                        "postcode": "H7T 1A1",
                        "region": "QC"
                  },
                  "name": "Kojax Souflaki",
                  "popularity": 0.9369811657591717,
                  "price": 2
            },
            {
                  "distance": 922,
                  "location": {
                        "address": "2212 Cure-Labelle Blvd",
                        "country": "CA",
                        "cross_street": "",
                        "formatted_address": "2212 Cure-Labelle Blvd, Laval QC H7T 1R1",
                        "locality": "Laval",
                        "postcode": "H7T 1R1",
                        "region": "QC"
                  },
                  "name": "Ta-Cochon Taqueria Mexicaine",
                  "popularity": 0.9401945907346246,
                  "price": 1
            },
            {
                  "distance": 967,
                  "location": {
                        "address": "1224 Cure-Labelle Blvd",
                        "country": "CA",
                        "cross_street": "",
                        "formatted_address": "1224 Cure-Labelle Blvd, Laval QC H7V 2V5",
                        "locality": "Laval",
                        "postcode": "H7V 2V5",
                        "region": "QC"
                  },
                  "name": "La Nuit Blanche Resto-Lounge",
                  "popularity": 0.30063375881460325,
                  "price": 3
            },
            {
                  "distance": 1284,
                  "location": {
                        "address": "1230 Cure-Labelle Blvd",
                        "country": "CA",
                        "cross_street": "",
                        "formatted_address": "1230 Cure-Labelle Blvd, Laval QC H7V 2V5",
                        "locality": "Laval",
                        "postcode": "H7V 2V5",
                        "region": "QC"
                  },
                  "name": "Restaurant Chez Lien",
                  "popularity": 0.024457734535392305,
                  "price": 2
            },
            {
                  "distance": 4106,
                  "location": {
                        "address": "2212 Cure-Labelle Blvd",
                        "country": "CA",
                        "cross_street": "",
                        "formatted_address": "2212 Cure-Labelle Blvd, Laval QC H7T 1R1",
                        "locality": "Laval",
                        "postcode": "H7T 1R1",
                        "region": "QC"
                  },
                  "name": "Tacochon",
                  "popularity": 0.8326341158618227,
                  "price": 1
            },
            {
                  "distance": 48,
                  "location": {
                        "address": "3825 Saint-Martin Blvd O",
                        "country": "CA",
                        "formatted_address": "3825 Saint-Martin Blvd O, Laval QC H7T 1B2",
                        "locality": "Laval",
                        "postcode": "H7T 1B2",
                        "region": "QC"
                  },
                  "name": "Panda Sushi Express"
            }
      ],
      "context": {
            "geo_bounds": {
                  "circle": {
                        "center": {
                              "latitude": 45.55301754,
                              "longitude": -73.75822663
                        },
                        "radius": 1000
                  }
            }
      }
}