{
      "results": [
            {
                  "distance": 200,
                  "location": {
                        "address": "1431 Saint-Laurent Blvd",
                        "country": "CA",
                        "cross_street": "entre De Maisonneuve & Ste-Catherine",
                        "formatted_address": "1431 Saint-Laurent Blvd (entre De Maisonneuve & Ste-Catherine), Montr\u00e9al QC H2X 2S8",
                        "locality": "Montreal",
                        "postcode": "H2X 2S8",
                        "region": "QC"
                  },
                  "name": "Cadet",
                  "popularity": 0.9538465177895533,
                  "price": 2,
                  "rating": 9.4
            },
            {
                  "distance": 805,
                  "location": {
                        "address": "360 Saint-Jacques Rue",
                        "country": "CA",
                        "cross_street": "",
                        "formatted_address": "360 Saint-Jacques Rue, Montr\u00e9al QC H2Y 1P5",
                        "locality": "Montreal",
                        "postcode": "H2Y 1P5",
                        "region": "QC"
                  },
                  "name": "Crew Collective & Caf\u00e9",
                  "popularity": 0.9824115253595761,
                  "price": 1,
                  "rating": 9.3
            },
            {
                  "distance": 319,
                  "location": {
                        "address": "1595 Saint-Laurent Blvd",
                        "country": "CA",
                        "cross_street": "entre De Maisonneuve & Ontario",
                        "formatted_address": "1595 Saint-Laurent Blvd (entre De Maisonneuve & Ontario), Montr\u00e9al QC H2X 2S9",
                        "locality": "Montreal",
                        "postcode": "H2X 2S9",
                        "region": "QC"
                  },
                  "name": "Bouillon Bilk",
                  "popularity": 0.962682153671461,
                  "price": 3,
                  "rating": 9.3
            },
            {
                  "distance": 532,
                  "location": {
                        "address": "1067 Rue de Bleury",
                        "country": "CA",
                        "cross_street": "De la Gaucheti\u00e8re",
                        "formatted_address": "1067 Rue de Bleury (De la Gaucheti\u00e8re), Montr\u00e9al QC H2Z 1N1",
                        "locality": "Montreal",
                        "postcode": "H2Z 1N1",
                        "region": "QC"
                  },
                  "name": "La Finca caf\u00e9 & bureau",
                  "popularity": 0.9523798258894777,
                  "price": 1,
                  "rating": 9.1
            },
            {
                  "distance": 941,
                  "location": {
                        "address": "19 Prince-Arthur Rue O",
                        "country": "CA",
                        "cross_street": "entre St-Laurent & Clark",
                        "formatted_address": "19 Prince-Arthur Rue O (entre St-Laurent & Clark), Montr\u00e9al QC H2X 1S4",
                        "locality": "Montreal",
                        "postcode": "H2X 1S4",
                        "region": "QC"
                  },
                  "name": "Caf\u00e9 Nocturne",
                  "popularity": 0.9314912944738835,
                  "price": 1,
                  "rating": 9.0
            },
            {
                  "distance": 125,
                  "location": {
                        "address": "1106B Saint Laurent Blvd",
                        "country": "CA",
                        "cross_street": "coin Ren\u00e9-L\u00e9vesque",
                        "formatted_address": "1106B Saint Laurent Blvd (coin Ren\u00e9-L\u00e9vesque), Montr\u00e9al QC H2Z 1J5",
                        "locality": "Montreal",
                        "postcode": "H2Z 1J5",
                        "region": "QC"
                  },
                  "name": "Bar le Mal N\u00e9cessaire",
                  "popularity": 0.9491152535957608,
                  "price": 3,
                  "rating": 9.0
            },
            {
                  "distance": 850,
                  "location": {
                        "address": "380 Saint Paul Rue E",
                        "country": "CA",
                        "cross_street": "coin Bonsecours",
                        "formatted_address": "380 Saint Paul Rue E (coin Bonsecours), Montr\u00e9al QC H2Y 1H2",
                        "locality": "Montreal",
                        "postcode": "H2Y 1H2",
                        "region": "QC"
                  },
                  "name": "Pub BreWskey",
                  "popularity": 0.9748888152914459,
                  "price": 1,
                  "rating": 8.9
            },
            {
                  "distance": 759,
                  "location": {
                        "address": "419 Saint-Vincent Rue",
                        "country": "CA",
                        "cross_street": "Rue Saint-Amable",
                        "formatted_address": "419 Saint-Vincent Rue (Rue Saint-Amable), Montr\u00e9al QC H2Y 3A6",
                        "locality": "Montreal",
                        "postcode": "H2Y 3A6",
                        "region": "QC"
                  },
                  "name": "Caf\u00e9 Olimpico",
                  "popularity": 0.9666682437547313,
                  "price": 1,
                  "rating": 8.9
            },
            {
                  "distance": 865,
                  "location": {
                        "address": "139 Saint-Paul Rue O",
                        "country": "CA",
                        "cross_street": "",
                        "formatted_address": "139 Saint-Paul Rue O, Montr\u00e9al QC H2Y 1Z5",
                        "locality": "Montreal",
                        "postcode": "H2Y 1Z5",
                        "region": "QC"
                  },
                  "name": "Pub Wolf & Workman",
                  "popularity": 0.9454485238455715,
                  "price": 2,
                  "rating": 8.7
            },
            {
                  "distance": 451,
                  "location": {
                        "address": "1250 Rue de Bleury",
                        "country": "CA",
                        "cross_street": "at Sainte-Catherine",
                        "formatted_address": "1250 Rue de Bleury (at Sainte-Catherine), Montr\u00e9al QC H3B 2W4",
                        "locality": "Montreal",
                        "postcode": "H3B 2W4",
                        "region": "QC"
                  },
                  "name": "Nyks Bistro Pub",
                  "popularity": 0.9770888531415595,
                  "price": 2,
                  "rating": 8.6
            },
            {
                  "distance": 999,
                  "location": {
                        "address": "460 McGill Rue",
                        "country": "CA",
                        "cross_street": "",
                        "formatted_address": "460 McGill Rue, Montr\u00e9al QC H2Y 2H2",
                        "locality": "Montreal",
                        "postcode": "H2Y 2H2",
                        "region": "QC"
                  },
                  "name": "Structure Torr\u00e9facteurs - Structure Coffee Roasters",
                  "popularity": 0.9362343868281605,
                  "price": 1,
                  "rating": 8.6
            },
            {
                  "distance": 868,
                  "location": {
                        "address": "151 Saint-Paul Rue O",
                        "country": "CA",
                        "cross_street": "",
                        "formatted_address": "151 Saint-Paul Rue O, Montr\u00e9al QC H2Y 1Z5",
                        "locality": "Montreal",
                        "postcode": "H2Y 1Z5",
                        "region": "QC"
                  },
                  "name": "Tommy Caf\u00e9",
                  "popularity": 0.9337741294473884,
                  "price": 1,
                  "rating": 8.6
            },
            {
                  "distance": 567,
                  "location": {
                        "address": "301 Emery Rue",
                        "country": "CA",
                        "cross_street": "entre St-Denis & Sanguinet",
                        "formatted_address": "301 Emery Rue (entre St-Denis & Sanguinet), Montr\u00e9al QC H2X 1J2",
                        "locality": "Montreal",
                        "postcode": "H2X 1J2",
                        "region": "QC"
                  },
                  "name": "Caf\u00e9 Saint-Henri Quartier Latin",
                  "popularity": 0.9289718962906889,
                  "price": 1,
                  "rating": 8.6
            },
            {
                  "distance": 713,
                  "location": {
                        "address": "453 Saint-Sulpice Rue",
                        "country": "CA",
                        "cross_street": "Notre-Dame O.",
                        "formatted_address": "453 Saint-Sulpice Rue (Notre-Dame O.), Montr\u00e9al QC H2Y 2V8",
                        "locality": "Montreal",
                        "postcode": "H2Y 2V8",
                        "region": "QC"
                  },
                  "name": "Les Glaceurs",
                  "popularity": 0.9073145344436033,
                  "price": 3,
                  "rating": 8.5
            },
            {
                  "distance": 740,
                  "location": {
                        "address": "1749 Saint-Denis Rue",
                        "country": "CA",
                        "cross_street": "coin Ontario",
                        "formatted_address": "1749 Saint-Denis Rue (coin Ontario), Montr\u00e9al QC H2X 3K4",
                        "locality": "Montreal",
                        "postcode": "H2X 3K4",
                        "region": "QC"
                  },
                  "name": "Le Saint Bock",
                  "popularity": 0.9721565102195306,
                  "price": 2,
                  "rating": 8.4
            },
            {
                  "distance": 729,
                  "location": {
                        "address": "200 Notre-Dame Rue O",
                        "country": "CA",
                        "cross_street": "coin Saint-Fran\u00e7ois Xavier",
                        "formatted_address": "200 Notre-Dame Rue O (coin Saint-Fran\u00e7ois Xavier), Montr\u00e9al QC H2Y 1T3",
                        "locality": "Montreal",
                        "postcode": "H2Y 1T3",
                        "region": "QC"
                  },
                  "name": "Tommy",
                  "popularity": 0.9703586298258895,
                  "price": 1,
                  "rating": 8.3
            },
            {
                  "distance": 277,
                  "location": {
                        "address": "1006 Saint-Laurent Blvd",
                        "country": "CA",
                        "cross_street": "",
                        "formatted_address": "1006 Saint-Laurent Blvd, Montr\u00e9al QC H2Z 1J3",
                        "locality": "Montreal",
                        "postcode": "H2Z 1J3",
                        "region": "QC"
                  },
                  "name": "Nouilles de Lan Zhou",
                  "popularity": 0.9843868281604845,
                  "price": 2,
                  "rating": 8.3
            },
            {
                  "distance": 786,
                  "location": {
                        "address": "3 Saint-Paul Rue E",
                        "country": "CA",
                        "formatted_address": "3 Saint-Paul Rue E, Montr\u00e9al QC H2Y 1E9",
                        "locality": "Montreal",
                        "postcode": "H2Y 1E9",
                        "region": "QC"
                  },
                  "name": "Creperie Chez Suzette",
                  "popularity": 0.9561530090840272,
                  "price": 2,
                  "rating": 8.3
            },
            {
                  "distance": 948,
                  "location": {
                        "address": "3600 Saint-Laurent Blvd",
                        "address_extended": "coin Prince-Arthur",
                        "country": "CA",
                        "cross_street": "coin Prince-Arthur",
                        "formatted_address": "3600 Saint-Laurent Blvd (coin Prince-Arthur), Montr\u00e9al QC H2X 2V4",
                        "locality": "Montreal",
                        "postcode": "H2X 2V4",
                        "region": "QC"
                  },
                  "name": "Juliette et Chocolat",
                  "popularity": 0.971304882664648,
                  "price": 2,
                  "rating": 8.2
            },
            {
                  "distance": 662,
                  "location": {
                        "address": "51 Sherbrooke Rue O",
                        "country": "CA",
                        "cross_street": "coin Clark",
                        "formatted_address": "51 Sherbrooke Rue O (coin Clark), Montr\u00e9al QC H2X 1X2",
                        "locality": "Montreal",
                        "postcode": "H2X 1X2",
                        "region": "QC"
                  },
                  "name": "Caf\u00e9 OSMO",
                  "popularity": 0.9720027441332324,
                  "price": 1,
                  "rating": 8.2
            },
            {
                  "distance": 781,
                  "location": {
                        "address": "39 Saint-Paul Rue E",
                        "country": "CA",
                        "cross_street": "St-Gabriel",
                        "formatted_address": "39 Saint-Paul Rue E (St-Gabriel), Montreal QC H2Y 1G2",
                        "locality": "Montreal",
                        "postcode": "H2Y 1G2",
                        "region": "QC"
                  },
                  "name": "Vieux-Port Steakhouse",
                  "popularity": 0.9651542392127176,
                  "price": 2,
                  "rating": 8.2
            },
            {
                  "distance": 667,
                  "location": {
                        "address": "245 Sherbrooke Rue O",
                        "country": "CA",
                        "cross_street": "coin Jeanne-Mance",
                        "formatted_address": "245 Sherbrooke Rue O (coin Jeanne-Mance), Montr\u00e9al QC H2X 1X7",
                        "locality": "Montreal",
                        "postcode": "H2X 1X7",
                        "region": "QC"
                  },
                  "name": "Benelux",
                  "popularity": 0.9719790878122634,
                  "price": 1,
                  "rating": 8.2
            },
            {
                  "distance": 756,
                  "location": {
                        "address": "426 Jacques-Cartier Pl",
                        "country": "CA",
                        "cross_street": "",
                        "formatted_address": "426 Jacques-Cartier Pl, Montr\u00e9al QC H2Y 3B3",
                        "locality": "Montreal",
                        "postcode": "H2Y 3B3",
                        "region": "QC"
                  },
                  "name": "Maggie Oakes",
                  "popularity": 0.9443603330809992,
                  "price": 4,
                  "rating": 8.2
            },
            {
                  "distance": 292,
                  "location": {
                        "address": "150 St Catherine Rue W",
                        "address_extended": "Room 201C",
                        "country": "CA",
                        "cross_street": "",
                        "formatted_address": "150 St Catherine Rue W, Montr\u00e9al QC H2X 3Y2",
                        "locality": "Montreal",
                        "postcode": "H2X 3Y2",
                        "region": "QC"
                  },
                  "name": "La Cage",
                  "popularity": 0.9884202308856926,
                  "price": 2,
                  "rating": 8.2,
                  "store_id": "LC_08"
            },
            {
                  "distance": 590,
                  "location": {
                        "address": "1567 Saint-Denis Rue",
                        "country": "CA",
                        "cross_street": "coin De Maisonneuve",
                        "formatted_address": "1567 Saint-Denis Rue (coin De Maisonneuve), Montr\u00e9al QC H2X 3K3",
                        "locality": "Montreal",
                        "postcode": "H2X 3K3",
                        "region": "QC"
                  },
                  "name": "Saint-Houblon",
                  "popularity": 0.9718608062074187,
                  "price": 3,
                  "rating": 8.2
            },
            {
                  "distance": 826,
                  "location": {
                        "address": "3515 Saint-Laurent Blvd",
                        "country": "CA",
                        "cross_street": "entre Sherbrooke & Prince-Arthur",
                        "formatted_address": "3515 Saint-Laurent Blvd (entre Sherbrooke & Prince-Arthur), Montr\u00e9al QC H2X 2T6",
                        "locality": "Montreal",
                        "postcode": "H2X 2T6",
                        "region": "QC"
                  },
                  "name": "McKibbin's Irish Pub",
                  "popularity": 0.9739189061317184,
                  "price": 2,
                  "rating": 8.2
            },
            {
                  "distance": 1005,
                  "location": {
                        "address": "468 McGill Rue",
                        "country": "CA",
                        "cross_street": "",
                        "formatted_address": "468 McGill Rue, Montr\u00e9al QC H2Y 2H2",
                        "locality": "Montreal",
                        "postcode": "H2Y 2H2",
                        "region": "QC"
                  },
                  "name": "Five Guys Burgers & Fries",
                  "popularity": 0.9749361279333838,
                  "price": 2,
                  "rating": 8.2,
                  "store_id": "1281"
            },
            {
                  "distance": 306,
                  "location": {
                        "address": "1579 Saint-Laurent Blvd",
                        "country": "CA",
                        "cross_street": "",
                        "formatted_address": "1579 Saint-Laurent Blvd, Montr\u00e9al QC H2X 2S9",
                        "locality": "Montreal",
                        "postcode": "H2X 2S9",
                        "region": "QC"
                  },
                  "name": "Bar Pamplemousse",
                  "popularity": 0.9600563020439061,
                  "rating": 8.1
            },
            {
                  "distance": 894,
                  "location": {
                        "address": "1250 Robert-Bourassa Blvd",
                        "country": "CA",
                        "cross_street": "",
                        "formatted_address": "1250 Robert-Bourassa Blvd, Montr\u00e9al QC H3B 3B8",
                        "locality": "Montreal",
                        "postcode": "H3B 3B8",
                        "region": "QC"
                  },
                  "name": "Le East",
                  "popularity": 0.9653316616199848,
                  "price": 2,
                  "rating": 8.1
            },
            {
                  "distance": 502,
                  "location": {
                        "address": "1080 Rue de Bleury",
                        "country": "CA",
                        "cross_street": "",
                        "formatted_address": "1080 Rue de Bleury, Montr\u00e9al QC H2Z 1N2",
                        "locality": "Montreal",
                        "postcode": "H2Z 1N2",
                        "region": "QC"
                  },
                  "name": "Chifa",
                  "popularity": 0.9603165215745647,
                  "price": 2,
                  "rating": 8.0
            },
            {
                  "distance": 855,
                  "location": {
                        "address": "124 Saint-Paul Rue O",
                        "country": "CA",
                        "cross_street": "Place Royale",
                        "formatted_address": "124 Saint-Paul Rue O (Place Royale), Montr\u00e9al QC H2Y 1Z3",
                        "locality": "Montreal",
                        "postcode": "H2Y 1Z3",
                        "region": "QC"
                  },
                  "name": "M\u00e9chant B\u0153uf Bar & Brasserie",
                  "popularity": 0.922537376987131,
                  "price": 2,
                  "rating": 8.0
            },
            {
                  "distance": 831,
                  "location": {
                        "address": "2049 Saint-Denis Rue",
                        "country": "CA",
                        "cross_street": "entre Ontario & Sherbrooke",
                        "formatted_address": "2049 Saint-Denis Rue (entre Ontario & Sherbrooke), Montr\u00e9al QC H2X 3K8",
                        "locality": "Montreal",
                        "postcode": "H2X 3K8",
                        "region": "QC"
                  },
                  "name": "Brasserie Artisanale l'Am\u00e8re a Boire Inc",
                  "popularity": 0.9146479939439819,
                  "price": 2,
                  "rating": 7.9
            },
            {
                  "distance": 635,
                  "location": {
                        "address": "1615 Saint-Denis Rue",
                        "address_extended": "coin \u00c9mery",
                        "country": "CA",
                        "cross_street": "coin \u00c9mery",
                        "formatted_address": "1615 Saint-Denis Rue (coin \u00c9mery), Montr\u00e9al QC H2X 3K3",
                        "locality": "Montreal",
                        "postcode": "H2X 3K3",
                        "region": "QC"
                  },
                  "name": "Juliette et Chocolat",
                  "popularity": 0.9692112982588947,
                  "price": 2,
                  "rating": 7.9
            },
            {
                  "distance": 656,
                  "location": {
                        "address": "1649 Saint-Denis Rue",
                        "country": "CA",
                        "cross_street": "entre Emery & Ontario",
                        "formatted_address": "1649 Saint-Denis Rue (entre Emery & Ontario), Montr\u00e9al QC H2X 3K4",
                        "locality": "Montreal",
                        "postcode": "H2X 3K4",
                        "region": "QC"
                  },
                  "name": "Pub l'Ile Noire",
                  "popularity": 0.9520841218773657,
                  "price": 2,
                  "rating": 7.9
            },
            {
                  "distance": 936,
                  "location": {
                        "address": "20 Prince-Arthur Rue O",
                        "country": "CA",
                        "cross_street": "coin Saint-Laurent",
                        "formatted_address": "20 Prince-Arthur Rue O (coin Saint-Laurent), Montr\u00e9al QC H2X 1S3",
                        "locality": "Montreal",
                        "postcode": "H2X 1S3",
                        "region": "QC"
                  },
                  "name": "Ye Olde Orchard Pub & Grill",
                  "popularity": 0.9363171839515518,
                  "price": 2,
                  "rating": 7.8
            }
      ],
      "context": {
            "geo_bounds": {
                  "circle": {
                        "center": {
                              "latitude": 45.50928961,
                              "longitude": -73.56241599
                        },
                        "radius": 1000
                  }
            }
      }
}