{
      "results": [
            {
                  "distance": 828,
                  "location": {
                        "address": "1678 Saint-Joseph Blvd",
                        "country": "CA",
                        "formatted_address": "1678 Saint-Joseph Blvd, Montr\u00e9al QC H8S 2N1",
                        "locality": "Montreal",
                        "postcode": "H8S 2N1",
                        "region": "QC"
                  },
                  "name": "Restaurant El Meson",
                  "popularity": 0.9525809046177138,
                  "price": 1,
                  "rating": 8.0
            },
            {
                  "distance": 821,
                  "location": {
                        "address": "3119 Victoria Rue",
                        "country": "CA",
                        "cross_street": "32e Avenue",
                        "formatted_address": "3119 Victoria Rue (32e Avenue), Montreal QC H8S 0B1",
                        "locality": "Lachine",
                        "postcode": "H8S 0B1",
                        "region": "QC"
                  },
                  "name": "Patisserie Marius et Fanny",
                  "popularity": 0.9479206093868282,
                  "price": 1,
                  "rating": 7.7
            },
            {
                  "distance": 888,
                  "location": {
                        "address": "637 32e Ave",
                        "address_extended": "Plaza le Village Lachine",
                        "country": "CA",
                        "cross_street": "",
                        "formatted_address": "637 32e Ave, Lachine QC H8T 3G6",
                        "locality": "Lachine",
                        "postcode": "H8T 3G6",
                        "region": "QC"
                  },
                  "name": "Thai Express",
                  "popularity": 0.9067704390613172,
                  "price": 2,
                  "rating": 7.3,
                  "store_id": "197"
            },
            {
                  "distance": 766,
                  "location": {
                        "address": "1900 Saint-Joseph Blvd",
                        "country": "CA",
                        "cross_street": "",
                        "formatted_address": "1900 Saint-Joseph Blvd, Lachine QC H8S 2N5",
                        "locality": "Lachine",
                        "postcode": "H8S 2N5",
                        "region": "QC"
                  },
                  "name": "Il Fornetto Restaurant",
                  "popularity": 0.9391441143073429,
                  "price": 2,
                  "rating": 7.1
            },
            {
                  "distance": 803,
                  "location": {
                        "address": "1718 Saint-Joseph Blvd",
                        "country": "CA",
                        "cross_street": "18th ave",
                        "formatted_address": "1718 Saint-Joseph Blvd (18th ave), Lachine QC H8S 2N2",
                        "locality": "Lachine",
                        "postcode": "H8S 2N2",
                        "region": "QC"
                  },
                  "name": "Pasta Andrea",
                  "popularity": 0.9488313777441333,
                  "price": 2,
                  "rating": 7.1
            },
            {
                  "distance": 659,
                  "location": {
                        "address": "2525 Victoria Rue",
                        "country": "CA",
                        "cross_street": "",
                        "formatted_address": "2525 Victoria Rue, Lachine QC H8S 0A7",
                        "locality": "Lachine",
                        "postcode": "H8S 0A7",
                        "region": "QC"
                  },
                  "name": "Tim Hortons",
                  "popularity": 0.9938375283875852,
                  "price": 1,
                  "rating": 6.9
            },
            {
                  "distance": 668,
                  "location": {
                        "address": "1380 Notre-Dame Rue",
                        "country": "CA",
                        "cross_street": "",
                        "formatted_address": "1380 Notre-Dame Rue, Lachine QC H8S 2C8",
                        "locality": "Lachine",
                        "postcode": "H8S 2C8",
                        "region": "QC"
                  },
                  "name": "Restaurant Toto Pizzeria Lachine",
                  "popularity": 0.8498060181680545,
                  "price": 1,
                  "rating": 6.8
            },
            {
                  "distance": 626,
                  "location": {
                        "address": "1110 Provost Rue",
                        "country": "CA",
                        "cross_street": "",
                        "formatted_address": "1110 Provost Rue, Lachine QC H8S 1N5",
                        "locality": "Lachine",
                        "postcode": "H8S 1N5",
                        "region": "QC"
                  },
                  "name": "Subway",
                  "popularity": 0.9941332323996972,
                  "price": 1,
                  "rating": 6.4,
                  "store_id": "55364"
            },
            {
                  "distance": 736,
                  "location": {
                        "address": "2944 Remembrance Rue",
                        "address_extended": "Unit 47A",
                        "country": "CA",
                        "cross_street": "32 avenue",
                        "formatted_address": "2944 Remembrance Rue (32 avenue), Montr\u00e9al QC H8S 1X8",
                        "locality": "Montreal",
                        "postcode": "H8S 1X8",
                        "region": "QC"
                  },
                  "name": "Subway",
                  "popularity": 0.9158781226343679,
                  "price": 1,
                  "rating": 6.3,
                  "store_id": "22200"
            },
            {
                  "distance": 921,
                  "location": {
                        "address": "665 32e Ave",
                        "country": "CA",
                        "cross_street": "Rue Provost",
                        "formatted_address": "665 32e Ave (Rue Provost), Lachine QC H8T 3G6",
                        "locality": "Lachine",
                        "postcode": "H8T 3G6",
                        "region": "QC"
                  },
                  "name": "R\u00f4tisserie St-Hubert",
                  "popularity": 0.9845169379258137,
                  "price": 2,
                  "rating": 5.9,
                  "store_id": "100097"
            },
            {
                  "distance": 636,
                  "location": {
                        "address": "430 28e Ave",
                        "country": "CA",
                        "cross_street": "Rue Victoria",
                        "formatted_address": "430 28e Ave (Rue Victoria), Lachine QC H8S 3Z4",
                        "locality": "Lachine",
                        "postcode": "H8S 3Z4",
                        "region": "QC"
                  },
                  "name": "McDonald's",
                  "popularity": 0.9964397236941711,
                  "price": 1,
                  "rating": 5.6
            },
            {
                  "distance": 634,
                  "location": {
                        "address": "2780 Remembrance Rue",
                        "country": "CA",
                        "formatted_address": "2780 Remembrance Rue, Lachine QC H8S 1X8",
                        "locality": "Lachine",
                        "postcode": "H8S 1X8",
                        "region": "QC"
                  },
                  "name": "Restaurant Eggsquis",
                  "popularity": 0.9915310370931113,
                  "price": 1,
                  "rating": 5.4
            },
            {
                  "distance": 551,
                  "location": {
                        "address": "1875 Notre-Dame Rue",
                        "country": "CA",
                        "cross_street": "19e Ave",
                        "formatted_address": "1875 Notre-Dame Rue (19e Ave), Lachine QC H8S 2E9",
                        "locality": "Lachine",
                        "postcode": "H8S 2E9",
                        "region": "QC"
                  },
                  "name": "Caf\u00e9 du March\u00e9",
                  "popularity": 0.8442704390613172,
                  "price": 1
            },
            {
                  "distance": 579,
                  "location": {
                        "address": "1895 Piche Rue",
                        "country": "CA",
                        "cross_street": "",
                        "formatted_address": "1895 Piche Rue, Lachine QC H8S 2H9",
                        "locality": "Lachine",
                        "postcode": "H8S 2H9",
                        "region": "QC"
                  },
                  "name": "Nonnina",
                  "popularity": 0.9854631907645723,
                  "price": 1
            },
            {
                  "distance": 587,
                  "location": {
                        "address": "2972 Remembrance Rue",
                        "country": "CA",
                        "cross_street": "",
                        "formatted_address": "2972 Remembrance Rue, Montr\u00e9al QC H8S 1X8",
                        "locality": "Montreal",
                        "postcode": "H8S 1X8",
                        "region": "QC"
                  },
                  "name": "Amir",
                  "popularity": 0.5464610143830432,
                  "price": 1
            },
            {
                  "distance": 685,
                  "location": {
                        "address": "1498 Notre-Dame Rue",
                        "country": "CA",
                        "cross_street": "15e avenue",
                        "formatted_address": "1498 Notre-Dame Rue (15e avenue), Lachine QC H8S 2E1",
                        "locality": "Lachine",
                        "postcode": "H8S 2E1",
                        "region": "QC"
                  },
                  "name": "Patisserie Fine Savoureuse",
                  "popularity": 0.14385408781226344,
                  "price": 1
            },
            {
                  "distance": 689,
                  "location": {
                        "address": "1015 Provost Rue",
                        "country": "CA",
                        "cross_street": "10th Avenue",
                        "formatted_address": "1015 Provost Rue (10th Avenue), Lachine QC H8S 1N3",
                        "locality": "Lachine",
                        "postcode": "H8S 1N3",
                        "region": "QC"
                  },
                  "name": "Caf\u00e9 Bar Cercle Sportif",
                  "popularity": 0.036998485995457984,
                  "price": 2
            },
            {
                  "distance": 692,
                  "location": {
                        "address": "403 Notre-Dame Rue",
                        "country": "CA",
                        "cross_street": "",
                        "formatted_address": "403 Notre-Dame Rue, Repentigny QC J6A 2T2",
                        "locality": "Repentigny",
                        "postcode": "J6A 2T2",
                        "region": "QC"
                  },
                  "name": "Le Grill Barosso",
                  "popularity": 0.11683856926570779,
                  "price": 2
            },
            {
                  "distance": 699,
                  "location": {
                        "address": "2972 Remembrance Rue",
                        "address_extended": "Suite 28",
                        "country": "CA",
                        "cross_street": "",
                        "formatted_address": "2972 Remembrance Rue, Lachine QC H8S 1X8",
                        "locality": "Lachine",
                        "postcode": "H8S 1X8",
                        "region": "QC"
                  },
                  "name": "Pizza Hut",
                  "popularity": 0.9492098788796366,
                  "price": 1,
                  "store_id": "R46001"
            },
            {
                  "distance": 749,
                  "location": {
                        "address": "2530 Saint-Joseph Blvd",
                        "country": "CA",
                        "formatted_address": "2530 Saint-Joseph Blvd, Lachine QC H8S 2N9",
                        "locality": "Lachine",
                        "postcode": "H8S 2N9",
                        "region": "QC"
                  },
                  "name": "Villa Taormina Restaurant",
                  "popularity": 0.934945117335352,
                  "price": 2
            },
            {
                  "distance": 867,
                  "location": {
                        "address": "1050 Notre-Dame Rue",
                        "country": "CA",
                        "cross_street": "",
                        "formatted_address": "1050 Notre-Dame Rue, Lachine QC H8S 2C2",
                        "locality": "Lachine",
                        "postcode": "H8S 2C2",
                        "region": "QC"
                  },
                  "name": "Restaurant Lachine Rotisserie et Grillades",
                  "popularity": 0.7039056585919757,
                  "price": 2
            },
            {
                  "distance": 886,
                  "location": {
                        "address": "633 32e Ave",
                        "country": "CA",
                        "cross_street": "",
                        "formatted_address": "633 32e Ave, Montr\u00e9al QC H8T 3G6",
                        "locality": "Montreal",
                        "postcode": "H8T 3G6",
                        "region": "QC"
                  },
                  "name": "Sushi Shop",
                  "popularity": 0.949907740348221,
                  "price": 2
            },
            {
                  "distance": 900,
                  "location": {
                        "address": "880 Notre-Dame Rue",
                        "country": "CA",
                        "cross_street": "",
                        "formatted_address": "880 Notre-Dame Rue, Lachine QC H8S 2B7",
                        "locality": "Lachine",
                        "postcode": "H8S 2B7",
                        "region": "QC"
                  },
                  "name": "Trans Canada Pizzeria & Submarine",
                  "popularity": 0.32975728614685845,
                  "price": 2
            },
            {
                  "distance": 935,
                  "location": {
                        "address": "900 Notre-Dame Rue",
                        "country": "CA",
                        "cross_street": "",
                        "formatted_address": "900 Notre-Dame Rue, Lachine QC H8S 2B9",
                        "locality": "Lachine",
                        "postcode": "H8S 2B9",
                        "region": "QC"
                  },
                  "name": "Bar l'H\u00f4tel-de-ville",
                  "popularity": 0.6886000189250567,
                  "price": 1
            },
            {
                  "distance": 980,
                  "location": {
                        "address": "595 Provost Rue",
                        "country": "CA",
                        "cross_street": "rue Provost",
                        "formatted_address": "595 Provost Rue (rue Provost), Lachine QC H8S 1M3",
                        "locality": "Lachine",
                        "postcode": "H8S 1M3",
                        "region": "QC"
                  },
                  "name": "Restaurant Expression d'Asie",
                  "popularity": 0.9579272331566995
            },
            {
                  "distance": 25382,
                  "location": {
                        "address": "1895 Piche Rue",
                        "country": "CA",
                        "cross_street": "",
                        "formatted_address": "1895 Piche Rue, Lachine QC H8S 2H9",
                        "locality": "Lachine",
                        "postcode": "H8S 2H9",
                        "region": "QC"
                  },
                  "name": "Gaufrabec",
                  "popularity": 0.5934959349593496,
                  "price": 1
            },
            {
                  "distance": 263,
                  "location": {
                        "address": "1750 Saint-Francois Ch",
                        "country": "CA",
                        "formatted_address": "1750 Saint-Francois Ch, Dorval QC H9P 2P6",
                        "locality": "Dorval",
                        "postcode": "H9P 2P6",
                        "region": "QC"
                  },
                  "name": "Resto Romy Inc"
            },
            {
                  "distance": 452,
                  "location": {
                        "address": "2505 Provost Rue",
                        "country": "CA",
                        "formatted_address": "2505 Provost Rue, Lachine QC H8S 1R2",
                        "locality": "Lachine",
                        "postcode": "H8S 1R2",
                        "region": "QC"
                  },
                  "name": "Lachine Arena Pizza & Bar-B-Q"
            },
            {
                  "distance": 531,
                  "location": {
                        "address": "1726 Notre-Dame Rue O",
                        "country": "CA",
                        "formatted_address": "1726 Notre-Dame Rue O, Montreal QC H3J 1M3",
                        "locality": "Montreal",
                        "postcode": "H3J 1M3",
                        "region": "QC"
                  },
                  "name": "Mlle Butterfly"
            },
            {
                  "distance": 546,
                  "location": {
                        "address": "1180 Saint Antoine Rue O",
                        "address_extended": "Suite 200",
                        "country": "CA",
                        "formatted_address": "1180 Saint Antoine Rue O, Montreal QC",
                        "locality": "Montreal",
                        "region": "QC"
                  },
                  "name": "Hot Soupe"
            },
            {
                  "distance": 552,
                  "location": {
                        "address": "1200 Provost Rue",
                        "country": "CA",
                        "formatted_address": "1200 Provost Rue, Lachine QC H8S 1N6",
                        "locality": "Lachine",
                        "postcode": "H8S 1N6",
                        "region": "QC"
                  },
                  "name": "Champion Pizza 2 Pour 1"
            },
            {
                  "distance": 552,
                  "location": {
                        "address": "1200 Provost Rue",
                        "country": "CA",
                        "formatted_address": "1200 Provost Rue, Lachine QC H8S 1N6",
                        "locality": "Lachine",
                        "postcode": "H8S 1N6",
                        "region": "QC"
                  },
                  "name": "Pizza Provost"
            },
            {
                  "distance": 607,
                  "location": {
                        "address": "1110 Provost Rue",
                        "country": "CA",
                        "formatted_address": "1110 Provost Rue, Lachine QC H8S 1N5",
                        "locality": "Lachine",
                        "postcode": "H8S 1N5",
                        "region": "QC"
                  },
                  "name": "Restaurant Pfk"
            },
            {
                  "distance": 657,
                  "location": {
                        "address": "1070 Provost Rue",
                        "country": "CA",
                        "formatted_address": "1070 Provost Rue, Lachine QC H8S 1N2",
                        "locality": "Lachine",
                        "postcode": "H8S 1N2",
                        "region": "QC"
                  },
                  "name": "Pizza 2 Pointes"
            },
            {
                  "distance": 682,
                  "location": {
                        "address": "2972 Remembrance Rue",
                        "country": "CA",
                        "formatted_address": "2972 Remembrance Rue, Lachine QC H8S 1X8",
                        "locality": "Lachine",
                        "postcode": "H8S 1X8",
                        "region": "QC"
                  },
                  "name": "Double Pizza"
            }
      ],
      "context": {
            "geo_bounds": {
                  "circle": {
                        "center": {
                              "latitude": 45.43993803,
                              "longitude": -73.68146235
                        },
                        "radius": 1000
                  }
            }
      }
}