{
      "results": [
            {
                  "distance": 39,
                  "location": {
                        "address": "1272 Sainte-Catherine Rue E",
                        "country": "CA",
                        "cross_street": "",
                        "formatted_address": "1272 Sainte-Catherine Rue E, Montr\u00e9al QC H2L 2H2",
                        "locality": "Montreal",
                        "postcode": "H2L 2H2",
                        "region": "QC"
                  },
                  "name": "Bar Renard",
                  "popularity": 0.9689274224072673,
                  "price": 2,
                  "rating": 9.0
            },
            {
                  "distance": 887,
                  "location": {
                        "address": "300 Ontario Rue E",
                        "country": "CA",
                        "cross_street": "coin Sanguinet",
                        "formatted_address": "300 Ontario Rue E (coin Sanguinet), Montr\u00e9al QC H2X 1H6",
                        "locality": "Montreal",
                        "postcode": "H2X 1H6",
                        "region": "QC"
                  },
                  "name": "La Distillerie",
                  "popularity": 0.9436861279333838,
                  "price": 3,
                  "rating": 8.9
            },
            {
                  "distance": 822,
                  "location": {
                        "address": "1700 Ontario Rue E",
                        "country": "CA",
                        "cross_street": "coin Papineau",
                        "formatted_address": "1700 Ontario Rue E (coin Papineau), Montr\u00e9al QC H2L 1S7",
                        "locality": "Montreal",
                        "postcode": "H2L 1S7",
                        "region": "QC"
                  },
                  "name": "La Fabrique Arhoma",
                  "popularity": 0.953420704012112,
                  "price": 1,
                  "rating": 8.9
            },
            {
                  "distance": 809,
                  "location": {
                        "address": "301 Emery Rue",
                        "country": "CA",
                        "cross_street": "entre St-Denis & Sanguinet",
                        "formatted_address": "301 Emery Rue (entre St-Denis & Sanguinet), Montr\u00e9al QC H2X 1J2",
                        "locality": "Montreal",
                        "postcode": "H2X 1J2",
                        "region": "QC"
                  },
                  "name": "Caf\u00e9 Saint-Henri Quartier Latin",
                  "popularity": 0.9289718962906889,
                  "price": 1,
                  "rating": 8.6
            },
            {
                  "distance": 811,
                  "location": {
                        "address": "2021 Saint-Denis Rue",
                        "country": "CA",
                        "cross_street": "rue Ontario",
                        "formatted_address": "2021 Saint-Denis Rue (rue Ontario), Montr\u00e9al QC H2X 3K8",
                        "locality": "Montreal",
                        "postcode": "H2X 3K8",
                        "region": "QC"
                  },
                  "name": "Le 4e Mur",
                  "popularity": 0.9381860333080999,
                  "price": 3,
                  "rating": 8.6
            },
            {
                  "distance": 683,
                  "location": {
                        "address": "1579 Saint-Denis Rue",
                        "country": "CA",
                        "cross_street": "entre De Maisonneuve & \u00c9mery",
                        "formatted_address": "1579 Saint-Denis Rue (entre De Maisonneuve & \u00c9mery), Montr\u00e9al QC H2X 3K3",
                        "locality": "Montreal",
                        "postcode": "H2X 3K3",
                        "region": "QC"
                  },
                  "name": "Vua Sandwichs",
                  "popularity": 0.9491507380772143,
                  "price": 1,
                  "rating": 8.6
            },
            {
                  "distance": 140,
                  "location": {
                        "address": "1310 Blvd de Maisonneuve Est",
                        "country": "CA",
                        "cross_street": "Visitation",
                        "formatted_address": "1310 Blvd de Maisonneuve Est (Visitation), Montr\u00e9al QC H2L 2A5",
                        "locality": "Montreal",
                        "postcode": "H2L 2A5",
                        "region": "QC"
                  },
                  "name": "Bistro le Passe Compose",
                  "popularity": 0.9547809424678274,
                  "price": 1,
                  "rating": 8.5
            },
            {
                  "distance": 194,
                  "location": {
                        "address": "1112 Blvd de Maisonneuve Est",
                        "country": "CA",
                        "cross_street": "btwn Amherst & Wolfe St.",
                        "formatted_address": "1112 Blvd de Maisonneuve Est (btwn Amherst & Wolfe St.), Montr\u00e9al QC H2L 1Z5",
                        "locality": "Montreal",
                        "postcode": "H2L 1Z5",
                        "region": "QC"
                  },
                  "name": "O'Thym",
                  "popularity": 0.9423613739591219,
                  "price": 3,
                  "rating": 8.5
            },
            {
                  "distance": 761,
                  "location": {
                        "address": "1749 Saint-Denis Rue",
                        "country": "CA",
                        "cross_street": "coin Ontario",
                        "formatted_address": "1749 Saint-Denis Rue (coin Ontario), Montr\u00e9al QC H2X 3K4",
                        "locality": "Montreal",
                        "postcode": "H2X 3K4",
                        "region": "QC"
                  },
                  "name": "Le Saint Bock",
                  "popularity": 0.9721565102195306,
                  "price": 2,
                  "rating": 8.4
            },
            {
                  "distance": 725,
                  "location": {
                        "address": "1668 Saint-Denis Rue",
                        "country": "CA",
                        "cross_street": "coin de Maisonneuve",
                        "formatted_address": "1668 Saint-Denis Rue (coin de Maisonneuve), Montr\u00e9al QC H2X 3K6",
                        "locality": "Montreal",
                        "postcode": "H2X 3K6",
                        "region": "QC"
                  },
                  "name": "Pizzeria Dei Compari",
                  "popularity": 0.9388484102952309,
                  "price": 2,
                  "rating": 8.3
            },
            {
                  "distance": 72,
                  "location": {
                        "address": "1301 Sainte-Catherine Rue E",
                        "country": "CA",
                        "cross_street": "coin De la Visitation",
                        "formatted_address": "1301 Sainte-Catherine Rue E (coin De la Visitation), Montr\u00e9al QC H2L 2H4",
                        "locality": "Montreal",
                        "postcode": "H2L 2H4",
                        "region": "QC"
                  },
                  "name": "Starbucks",
                  "popularity": 0.9795254542013626,
                  "price": 2,
                  "rating": 8.3,
                  "store_id": "830"
            },
            {
                  "distance": 685,
                  "location": {
                        "address": "1567 Saint-Denis Rue",
                        "country": "CA",
                        "cross_street": "coin De Maisonneuve",
                        "formatted_address": "1567 Saint-Denis Rue (coin De Maisonneuve), Montr\u00e9al QC H2X 3K3",
                        "locality": "Montreal",
                        "postcode": "H2X 3K3",
                        "region": "QC"
                  },
                  "name": "Saint-Houblon",
                  "popularity": 0.9718608062074187,
                  "price": 3,
                  "rating": 8.2
            },
            {
                  "distance": 155,
                  "location": {
                        "address": "1115 Sainte-Catherine Rue E",
                        "country": "CA",
                        "cross_street": "coin Wolfe",
                        "formatted_address": "1115 Sainte-Catherine Rue E (coin Wolfe), Montr\u00e9al QC H2L 2G6",
                        "locality": "Montreal",
                        "postcode": "H2L 2G6",
                        "region": "QC"
                  },
                  "name": "Cabaret Mado",
                  "popularity": 0.9138436790310371,
                  "price": 2,
                  "rating": 8.1
            },
            {
                  "distance": 699,
                  "location": {
                        "address": "1633 Saint-Denis Rue",
                        "country": "CA",
                        "cross_street": "",
                        "formatted_address": "1633 Saint-Denis Rue, Montr\u00e9al QC H2X 3K3",
                        "locality": "Montreal",
                        "postcode": "H2X 3K3",
                        "region": "QC"
                  },
                  "name": "Omnivore",
                  "popularity": 0.9007853898561695,
                  "price": 2,
                  "rating": 8.1
            },
            {
                  "distance": 117,
                  "location": {
                        "address": "1212 Blvd de Maisonneuve Est",
                        "country": "CA",
                        "cross_street": "",
                        "formatted_address": "1212 Blvd de Maisonneuve Est, Montr\u00e9al QC H2L 1Z9",
                        "locality": "Montreal",
                        "postcode": "H2L 1Z9",
                        "region": "QC"
                  },
                  "name": "En Couleur",
                  "popularity": 0.9447861468584405,
                  "rating": 8.0
            },
            {
                  "distance": 831,
                  "location": {
                        "address": "2049 Saint-Denis Rue",
                        "country": "CA",
                        "cross_street": "entre Ontario & Sherbrooke",
                        "formatted_address": "2049 Saint-Denis Rue (entre Ontario & Sherbrooke), Montr\u00e9al QC H2X 3K8",
                        "locality": "Montreal",
                        "postcode": "H2X 3K8",
                        "region": "QC"
                  },
                  "name": "Brasserie Artisanale l'Am\u00e8re a Boire Inc",
                  "popularity": 0.9146479939439819,
                  "price": 2,
                  "rating": 7.9
            },
            {
                  "distance": 685,
                  "location": {
                        "address": "1615 Saint-Denis Rue",
                        "address_extended": "coin \u00c9mery",
                        "country": "CA",
                        "cross_street": "coin \u00c9mery",
                        "formatted_address": "1615 Saint-Denis Rue (coin \u00c9mery), Montr\u00e9al QC H2X 3K3",
                        "locality": "Montreal",
                        "postcode": "H2X 3K3",
                        "region": "QC"
                  },
                  "name": "Juliette et Chocolat",
                  "popularity": 0.9692112982588947,
                  "price": 2,
                  "rating": 7.9
            },
            {
                  "distance": 709,
                  "location": {
                        "address": "1649 Saint-Denis Rue",
                        "country": "CA",
                        "cross_street": "entre Emery & Ontario",
                        "formatted_address": "1649 Saint-Denis Rue (entre Emery & Ontario), Montr\u00e9al QC H2X 3K4",
                        "locality": "Montreal",
                        "postcode": "H2X 3K4",
                        "region": "QC"
                  },
                  "name": "Pub l'Ile Noire",
                  "popularity": 0.9520841218773657,
                  "price": 2,
                  "rating": 7.9
            },
            {
                  "distance": 790,
                  "location": {
                        "address": "1690 Ontario Rue E",
                        "country": "CA",
                        "cross_street": "entre De Champlain & Papineau",
                        "formatted_address": "1690 Ontario Rue E (entre De Champlain & Papineau), Montr\u00e9al QC H2L 1S7",
                        "locality": "Montreal",
                        "postcode": "H2L 1S7",
                        "region": "QC"
                  },
                  "name": "Au Petit Extra",
                  "popularity": 0.9349924299772899,
                  "price": 4,
                  "rating": 7.9
            },
            {
                  "distance": 96,
                  "location": {
                        "address": "1315 Sainte-Catherine Rue E",
                        "country": "CA",
                        "cross_street": "entre Visitation et Panet",
                        "formatted_address": "1315 Sainte-Catherine Rue E (entre Visitation et Panet), Montr\u00e9al QC H2L 2H4",
                        "locality": "Montreal",
                        "postcode": "H2L 2H4",
                        "region": "QC"
                  },
                  "name": "Bar l'aigle Noir",
                  "popularity": 0.9607778198334594,
                  "price": 2,
                  "rating": 7.9
            },
            {
                  "distance": 625,
                  "location": {
                        "address": "1365 Ontario Rue E",
                        "country": "CA",
                        "formatted_address": "1365 Ontario Rue E, Montr\u00e9al QC H2L 1S2",
                        "locality": "Montreal",
                        "postcode": "H2L 1S2",
                        "region": "QC"
                  },
                  "name": "Poutineville",
                  "popularity": 0.9661241483724451,
                  "price": 2,
                  "rating": 7.9
            },
            {
                  "distance": 895,
                  "location": {
                        "address": "1412 Sainte-Elisabeth Rue",
                        "country": "CA",
                        "cross_street": "coin Ste-Catherine Est",
                        "formatted_address": "1412 Sainte-Elisabeth Rue (coin Ste-Catherine Est), Montr\u00e9al QC H2X 3C6",
                        "locality": "Montreal",
                        "postcode": "H2X 3C6",
                        "region": "QC"
                  },
                  "name": "Sainte-Elisabeth",
                  "popularity": 0.9640187358062074,
                  "price": 2,
                  "rating": 7.8
            },
            {
                  "distance": 755,
                  "location": {
                        "address": "1710 Saint-Denis Rue",
                        "country": "CA",
                        "cross_street": "entre Ontario et Emery",
                        "formatted_address": "1710 Saint-Denis Rue (entre Ontario et Emery), Montr\u00e9al QC H2X 3K6",
                        "locality": "Montreal",
                        "postcode": "H2X 3K6",
                        "region": "QC"
                  },
                  "name": "Frite Alors",
                  "popularity": 0.9397473504920515,
                  "price": 2,
                  "rating": 7.8
            },
            {
                  "distance": 276,
                  "location": {
                        "address": "921 Sainte-Catherine Rue E",
                        "country": "CA",
                        "cross_street": "entre St-Andr\u00e9 & St-Timoth\u00e9e",
                        "formatted_address": "921 Sainte-Catherine Rue E (entre St-Andr\u00e9 & St-Timoth\u00e9e), Montr\u00e9al QC H2L 2E5",
                        "locality": "Montreal",
                        "postcode": "H2L 2E5",
                        "region": "QC"
                  },
                  "name": "La graine br\u00fbl\u00e9e",
                  "popularity": 0.9593584405753217,
                  "price": 1,
                  "rating": 7.8
            },
            {
                  "distance": 879,
                  "location": {
                        "address": "1030 Cherrier Rue",
                        "country": "CA",
                        "cross_street": "at Parc-Lafontaine Ave.",
                        "formatted_address": "1030 Cherrier Rue (at Parc-Lafontaine Ave.), Montr\u00e9al QC H2L 1H9",
                        "locality": "Montreal",
                        "postcode": "H2L 1H9",
                        "region": "QC"
                  },
                  "name": "Bistro T\u00f4t ou Tard",
                  "popularity": 0.9615821347464042,
                  "price": 1,
                  "rating": 7.7
            },
            {
                  "distance": 709,
                  "location": {
                        "address": "1627 Saint-Denis Rue",
                        "country": "CA",
                        "formatted_address": "1627 Saint-Denis Rue, Montr\u00e9al QC H2X 3K3",
                        "locality": "Montreal",
                        "postcode": "H2X 3K3",
                        "region": "QC"
                  },
                  "name": "Bistro a Jojo",
                  "popularity": 0.9450700227100681,
                  "rating": 7.7
            },
            {
                  "distance": 503,
                  "location": {
                        "address": "1812 Sainte-Catherine Rue E",
                        "country": "CA",
                        "cross_street": "Av Papineau",
                        "formatted_address": "1812 Sainte-Catherine Rue E (Av Papineau), Montr\u00e9al QC H2K 2H3",
                        "locality": "Montreal",
                        "postcode": "H2K 2H3",
                        "region": "QC"
                  },
                  "name": "Bar le Stud",
                  "popularity": 0.9814534443603331,
                  "price": 2,
                  "rating": 7.5
            },
            {
                  "distance": 856,
                  "location": {
                        "address": "2080A Saint-Denis Rue",
                        "country": "CA",
                        "cross_street": "entre Sherbrooke & Ontario",
                        "formatted_address": "2080A Saint-Denis Rue (entre Sherbrooke & Ontario), Montr\u00e9al QC H2X 3K7",
                        "locality": "Montreal",
                        "postcode": "H2X 3K7",
                        "region": "QC"
                  },
                  "name": "Caf\u00e9 Gitana",
                  "popularity": 0.9328397047691143,
                  "price": 2,
                  "rating": 7.5
            },
            {
                  "distance": 968,
                  "location": {
                        "address": "3575 Berri Rue",
                        "country": "CA",
                        "formatted_address": "3575 Berri Rue, Montr\u00e9al QC H2L 4G3",
                        "locality": "Montreal",
                        "postcode": "H2L 4G3",
                        "region": "QC"
                  },
                  "name": "Patisserie St Louis de France",
                  "popularity": 0.9443366767600303,
                  "price": 1,
                  "rating": 7.5
            },
            {
                  "distance": 533,
                  "location": {
                        "address": "505 Sainte-Catherine Rue E",
                        "country": "CA",
                        "cross_street": "Rue Berri",
                        "formatted_address": "505 Sainte-Catherine Rue E (Rue Berri), Montr\u00e9al QC H2L 2C9",
                        "locality": "Montreal",
                        "postcode": "H2L 2C9",
                        "region": "QC"
                  },
                  "name": "Caf\u00e9 Van Houtte",
                  "popularity": 0.9991720287660864,
                  "price": 1,
                  "rating": 7.4
            },
            {
                  "distance": 141,
                  "location": {
                        "address": "1111 Sainte-Catherine Rue E",
                        "country": "CA",
                        "cross_street": "",
                        "formatted_address": "1111 Sainte-Catherine Rue E, Montr\u00e9al QC H2L 2G6",
                        "locality": "Montreal",
                        "postcode": "H2L 2G6",
                        "region": "QC"
                  },
                  "name": "Campus",
                  "popularity": 0.9524271385314156,
                  "price": 3,
                  "rating": 7.3
            },
            {
                  "distance": 691,
                  "location": {
                        "address": "1228 Saint-Denis Rue",
                        "country": "CA",
                        "formatted_address": "1228 Saint-Denis Rue, Montr\u00e9al QC H2X 3J6",
                        "locality": "Montreal",
                        "postcode": "H2X 3J6",
                        "region": "QC"
                  },
                  "name": "Restaurant Soupesoup",
                  "popularity": 0.9592401589704769,
                  "price": 1,
                  "rating": 7.3
            },
            {
                  "distance": 141,
                  "location": {
                        "address": "1333 Sainte-Catherine Rue E",
                        "country": "CA",
                        "cross_street": "coin Panet",
                        "formatted_address": "1333 Sainte-Catherine Rue E (coin Panet), Montr\u00e9al QC H2L 2H4",
                        "locality": "Montreal",
                        "postcode": "H2L 2H4",
                        "region": "QC"
                  },
                  "name": "Le Saloon Bistro Bar Inc",
                  "popularity": 0.9465721990915973,
                  "price": 2,
                  "rating": 7.3
            },
            {
                  "distance": 766,
                  "location": {
                        "address": "1652 Ontario Rue E",
                        "country": "CA",
                        "cross_street": "",
                        "formatted_address": "1652 Ontario Rue E, Montr\u00e9al QC H2L 1S7",
                        "locality": "Montreal",
                        "postcode": "H2L 1S7",
                        "region": "QC"
                  },
                  "name": "Dame Tartine D\u00e9jeuner et D\u00eener",
                  "popularity": 0.9304031037093111,
                  "price": 1,
                  "rating": 7.3
            },
            {
                  "distance": 727,
                  "location": {
                        "address": "1658 Saint-Denis Rue",
                        "country": "CA",
                        "cross_street": "at \u00c9mery",
                        "formatted_address": "1658 Saint-Denis Rue (at \u00c9mery), Montr\u00e9al QC H2X 3K6",
                        "locality": "Montreal",
                        "postcode": "H2X 3K6",
                        "region": "QC"
                  },
                  "name": "Les 3 Brasseurs",
                  "popularity": 0.9574659348978047,
                  "price": 2,
                  "rating": 7.3
            }
      ],
      "context": {
            "geo_bounds": {
                  "circle": {
                        "center": {
                              "latitude": 45.51888453,
                              "longitude": -73.55593845
                        },
                        "radius": 1000
                  }
            }
      }
}