{
      "results": [
            {
                  "distance": 889,
                  "location": {
                        "address": "3632 Ontario Rue E",
                        "address_extended": "coin De Chambly",
                        "country": "CA",
                        "cross_street": "coin De Chambly",
                        "formatted_address": "3632 Ontario Rue E (coin De Chambly), Montr\u00e9al QC H1W 1R7",
                        "locality": "Montreal",
                        "postcode": "H1W 1R7",
                        "region": "QC"
                  },
                  "name": "L'Espace Public-Brasseurs de Quartier",
                  "popularity": 0.9611799772899319,
                  "price": 2,
                  "rating": 8.8
            },
            {
                  "distance": 862,
                  "location": {
                        "address": "3606 Ontario Rue E",
                        "country": "CA",
                        "cross_street": "entre Joliette & De Chambly",
                        "formatted_address": "3606 Ontario Rue E (entre Joliette & De Chambly), Montr\u00e9al QC H1W 1R7",
                        "locality": "Montreal",
                        "postcode": "H1W 1R7",
                        "region": "QC"
                  },
                  "name": "Atomic Cafe",
                  "popularity": 0.9511733535200606,
                  "price": 1,
                  "rating": 8.5
            },
            {
                  "distance": 735,
                  "location": {
                        "address": "4093 Molson Rue",
                        "country": "CA",
                        "cross_street": "Rue William-Tremblay",
                        "formatted_address": "4093 Molson Rue (Rue William-Tremblay), Montr\u00e9al QC H1Y 3L1",
                        "locality": "Montreal",
                        "postcode": "H1Y 3L1",
                        "region": "QC"
                  },
                  "name": "Mamie Clafoutis",
                  "popularity": 0.9076693792581377,
                  "price": 1,
                  "rating": 7.9
            },
            {
                  "distance": 80,
                  "location": {
                        "address": "3121 Hochelaga Rue",
                        "country": "CA",
                        "cross_street": "",
                        "formatted_address": "3121 Hochelaga Rue, Montr\u00e9al QC H1W 1G3",
                        "locality": "Montreal",
                        "postcode": "H1W 1G3",
                        "region": "QC"
                  },
                  "name": "Maneki Comptoir Asiat'",
                  "popularity": 0.8695235616956851,
                  "price": 2,
                  "rating": 7.2
            },
            {
                  "distance": 294,
                  "location": {
                        "address": "3090 Sherbrooke Rue E",
                        "country": "CA",
                        "cross_street": "coin Moreau",
                        "formatted_address": "3090 Sherbrooke Rue E (coin Moreau), Montr\u00e9al QC H1W 1B5",
                        "locality": "Montreal",
                        "postcode": "H1W 1B5",
                        "region": "QC"
                  },
                  "name": "Deli Miami",
                  "popularity": 0.9861492240726722,
                  "price": 1,
                  "rating": 6.9
            },
            {
                  "distance": 957,
                  "location": {
                        "address": "2544 Ontario Rue E",
                        "country": "CA",
                        "cross_street": "coin Frontenac",
                        "formatted_address": "2544 Ontario Rue E (coin Frontenac), Montr\u00e9al QC H2K 1W4",
                        "locality": "Montreal",
                        "postcode": "H2K 1W4",
                        "region": "QC"
                  },
                  "name": "Subway",
                  "popularity": 0.8541824375473126,
                  "price": 1,
                  "rating": 6.4,
                  "store_id": "38095"
            },
            {
                  "distance": 552,
                  "location": {
                        "address": "2765 Sherbrooke Rue E",
                        "country": "CA",
                        "cross_street": "Montgomery",
                        "formatted_address": "2765 Sherbrooke Rue E (Montgomery), Montr\u00e9al QC H2K 1G9",
                        "locality": "Montreal",
                        "postcode": "H2K 1G9",
                        "region": "QC"
                  },
                  "name": "Subway",
                  "popularity": 0.8906368281604845,
                  "price": 1,
                  "rating": 6.3,
                  "store_id": "27680"
            },
            {
                  "distance": 748,
                  "location": {
                        "address": "3501 Ontario Rue E",
                        "country": "CA",
                        "cross_street": "Aylwin",
                        "formatted_address": "3501 Ontario Rue E (Aylwin), Montr\u00e9al QC H1W 1R4",
                        "locality": "Montreal",
                        "postcode": "H1W 1R4",
                        "region": "QC"
                  },
                  "name": "Subway",
                  "popularity": 0.927008421650265,
                  "price": 1,
                  "rating": 6.2,
                  "store_id": "14811"
            },
            {
                  "distance": 798,
                  "location": {
                        "address": "2700 Ontario Rue E",
                        "country": "CA",
                        "cross_street": "Bercy",
                        "formatted_address": "2700 Ontario Rue E (Bercy), Montr\u00e9al QC H2K 1W9",
                        "locality": "Montreal",
                        "postcode": "H2K 1W9",
                        "region": "QC"
                  },
                  "name": "Tim Hortons",
                  "popularity": 0.967791919000757,
                  "price": 1,
                  "rating": 5.6
            },
            {
                  "distance": 896,
                  "location": {
                        "address": "3634 Ontario Rue E",
                        "country": "CA",
                        "cross_street": "coin Chambly",
                        "formatted_address": "3634 Ontario Rue E (coin Chambly), Montr\u00e9al QC H1W 1R7",
                        "locality": "Montreal",
                        "postcode": "H1W 1R7",
                        "region": "QC"
                  },
                  "name": "Tim Hortons",
                  "popularity": 0.958873485995458,
                  "price": 1,
                  "rating": 5.4
            },
            {
                  "distance": 433,
                  "location": {
                        "address": "2901 Sherbrooke St E",
                        "country": "CA",
                        "cross_street": "",
                        "formatted_address": "2901 Sherbrooke St E, Montr\u00e9al QC H1W 1B2",
                        "locality": "Montreal",
                        "postcode": "H1W 1B2",
                        "region": "QC"
                  },
                  "name": "McDonald's",
                  "popularity": 0.9885621688115064,
                  "price": 1,
                  "rating": 5.3,
                  "store_id": "40472"
            },
            {
                  "distance": 747,
                  "location": {
                        "address": "4091 Molson Rue",
                        "country": "CA",
                        "cross_street": "",
                        "formatted_address": "4091 Molson Rue, Montr\u00e9al QC H1Y 3L1",
                        "locality": "Montreal",
                        "postcode": "H1Y 3L1",
                        "region": "QC"
                  },
                  "name": "Pizzeria Caldo",
                  "popularity": 0.17878264572293717,
                  "price": 1,
                  "rating": 5.3
            },
            {
                  "distance": 924,
                  "location": {
                        "address": "2600 Ontario Rue E",
                        "country": "CA",
                        "cross_street": "coin Du Havre",
                        "formatted_address": "2600 Ontario Rue E (coin Du Havre), Montr\u00e9al QC H2K 4K4",
                        "locality": "Montreal",
                        "postcode": "H2K 4K4",
                        "region": "QC"
                  },
                  "name": "McDonald's",
                  "popularity": 0.9883729182437547,
                  "price": 1,
                  "rating": 4.6,
                  "store_id": "10089"
            },
            {
                  "distance": 517,
                  "location": {
                        "address": "3179 Ontario Rue E",
                        "country": "CA",
                        "cross_street": "D\u00e9zery",
                        "formatted_address": "3179 Ontario Rue E (D\u00e9zery), Montr\u00e9al QC H1W 1P1",
                        "locality": "Montreal",
                        "postcode": "H1W 1P1",
                        "region": "QC"
                  },
                  "name": "Chez Sandrine",
                  "popularity": 0.6639856169568509,
                  "price": 1
            },
            {
                  "distance": 525,
                  "location": {
                        "address": "3213 Ontario Rue E",
                        "country": "CA",
                        "cross_street": "",
                        "formatted_address": "3213 Ontario Rue E, Montr\u00e9al QC H1W 1P3",
                        "locality": "Montreal",
                        "postcode": "H1W 1P3",
                        "region": "QC"
                  },
                  "name": "Coop\u00e9rative Rond-Point, caf\u00e9 autog\u00e9r\u00e9",
                  "popularity": 0.7255275359576079,
                  "price": 1
            },
            {
                  "distance": 541,
                  "location": {
                        "address": "3227 Ontario Rue E",
                        "country": "CA",
                        "cross_street": "",
                        "formatted_address": "3227 Ontario Rue E, Montr\u00e9al QC H1W 1P3",
                        "locality": "Montreal",
                        "postcode": "H1W 1P3",
                        "region": "QC"
                  },
                  "name": "3 Patapoufs",
                  "popularity": 0.961132664647994
            },
            {
                  "distance": 619,
                  "location": {
                        "address": "3328 Ontario Rue E",
                        "country": "CA",
                        "cross_street": "",
                        "formatted_address": "3328 Ontario Rue E, Montr\u00e9al QC H1W 1P7",
                        "locality": "Montreal",
                        "postcode": "H1W 1P7",
                        "region": "QC"
                  },
                  "name": "Blockhaus",
                  "popularity": 0.9533142505677517,
                  "price": 3
            },
            {
                  "distance": 625,
                  "location": {
                        "address": "3485 Ontario Rue E",
                        "country": "CA",
                        "cross_street": "",
                        "formatted_address": "3485 Ontario Rue E, Montr\u00e9al QC H1W 1R4",
                        "locality": "Montreal",
                        "postcode": "H1W 1R4",
                        "region": "QC"
                  },
                  "name": "La Canoise",
                  "popularity": 0.43404617713853144,
                  "price": 1
            },
            {
                  "distance": 638,
                  "location": {
                        "address": "3350 Ontario Rue E",
                        "country": "CA",
                        "cross_street": "Davidson",
                        "formatted_address": "3350 Ontario Rue E (Davidson), Montr\u00e9al QC H1W 1P7",
                        "locality": "Montreal",
                        "postcode": "H1W 1P7",
                        "region": "QC"
                  },
                  "name": "El Jumelgi",
                  "popularity": 0.6334216502649508
            },
            {
                  "distance": 663,
                  "location": {
                        "address": "3417 Ontario Rue E",
                        "country": "CA",
                        "cross_street": "",
                        "formatted_address": "3417 Ontario Rue E, Montr\u00e9al QC H1W 1R1",
                        "locality": "Montreal",
                        "postcode": "H1W 1R1",
                        "region": "QC"
                  },
                  "name": "Boustan",
                  "popularity": 0.9085683194549584,
                  "price": 2
            },
            {
                  "distance": 682,
                  "location": {
                        "address": "4090 Andre-Laurendeau Rue",
                        "country": "CA",
                        "cross_street": "",
                        "formatted_address": "4090 Andre-Laurendeau Rue, Montreal QC H1Y 3N6",
                        "locality": "Montreal",
                        "postcode": "H1Y 3N6",
                        "region": "QC"
                  },
                  "name": "La Caf\u00e9shop",
                  "popularity": 0.8607470666161998,
                  "price": 1
            },
            {
                  "distance": 697,
                  "location": {
                        "address": "3445 Ontario Rue E",
                        "country": "CA",
                        "formatted_address": "3445 Ontario Rue E, Montr\u00e9al QC H1W 1R1",
                        "locality": "Montreal",
                        "postcode": "H1W 1R1",
                        "region": "QC"
                  },
                  "name": "Pizza Piroz",
                  "popularity": 0.9594530658591975,
                  "price": 1
            },
            {
                  "distance": 778,
                  "location": {
                        "address": "2683 Ontario Rue E",
                        "country": "CA",
                        "cross_street": "",
                        "formatted_address": "2683 Ontario Rue E, Montr\u00e9al QC H2K 1X1",
                        "locality": "Montreal",
                        "postcode": "H2K 1X1",
                        "region": "QC"
                  },
                  "name": "Bar Sexe Mania",
                  "popularity": 0.9735995457986374,
                  "price": 3
            },
            {
                  "distance": 783,
                  "location": {
                        "address": "2600 William-Tremblay Rue",
                        "country": "CA",
                        "cross_street": "",
                        "formatted_address": "2600 William-Tremblay Rue, Montr\u00e9al QC H1Y 3J2",
                        "locality": "Montreal",
                        "postcode": "H1Y 3J2",
                        "region": "QC"
                  },
                  "name": "Station W",
                  "popularity": 0.9345902725208176,
                  "price": 1
            },
            {
                  "distance": 874,
                  "location": {
                        "address": "2600 Ontario Rue E",
                        "address_extended": "# 10",
                        "country": "CA",
                        "cross_street": "Du Havre",
                        "formatted_address": "2600 Ontario Rue E (Du Havre), Montr\u00e9al QC H2K 4K4",
                        "locality": "Montreal",
                        "postcode": "H2K 4K4",
                        "region": "QC"
                  },
                  "name": "Restaurant Bercy",
                  "popularity": 0.8457844436033308,
                  "price": 2
            },
            {
                  "distance": 904,
                  "location": {
                        "address": "3537 Rachel Rue E",
                        "country": "CA",
                        "cross_street": "",
                        "formatted_address": "3537 Rachel Rue E, Montr\u00e9al QC H1W 1A8",
                        "locality": "Montreal",
                        "postcode": "H1W 1A8",
                        "region": "QC"
                  },
                  "name": "Jardin des Delices",
                  "popularity": 0.9223599545798638,
                  "price": 2
            },
            {
                  "distance": 987,
                  "location": {
                        "address": "3739 Ontario Rue E",
                        "country": "CA",
                        "cross_street": "Nicolet",
                        "formatted_address": "3739 Ontario Rue E (Nicolet), Montr\u00e9al QC H1W 1S3",
                        "locality": "Montreal",
                        "postcode": "H1W 1S3",
                        "region": "QC"
                  },
                  "name": "Resto-Bar le Pick Up",
                  "popularity": 0.9295987887963664,
                  "price": 2
            },
            {
                  "distance": 271,
                  "location": {
                        "address": "2150 Moreau Rue",
                        "country": "CA",
                        "formatted_address": "2150 Moreau Rue, Montreal QC H1W 2M3",
                        "locality": "Montreal",
                        "postcode": "H1W 2M3",
                        "region": "QC"
                  },
                  "name": "Fous de l'\u00cele Kombucha Inc"
            },
            {
                  "distance": 304,
                  "location": {
                        "address": "2150 Moreau Rue",
                        "country": "CA",
                        "formatted_address": "2150 Moreau Rue, Montreal QC",
                        "locality": "Montreal",
                        "region": "QC"
                  },
                  "name": "Les Touriers"
            },
            {
                  "distance": 429,
                  "location": {
                        "address": "3400 Hochelaga Rue",
                        "country": "CA",
                        "formatted_address": "3400 Hochelaga Rue, Montreal QC H1W 1H3",
                        "locality": "Montreal",
                        "postcode": "H1W 1H3",
                        "region": "QC"
                  },
                  "name": "Restaurant Yammi Yammi Pizza"
            },
            {
                  "distance": 525,
                  "location": {
                        "address": "2755 Sherbrooke Rue E",
                        "country": "CA",
                        "formatted_address": "2755 Sherbrooke Rue E, Montreal QC H2K 1G9",
                        "locality": "Montreal",
                        "postcode": "H2K 1G9",
                        "region": "QC"
                  },
                  "name": "Pizza Hut"
            },
            {
                  "distance": 525,
                  "location": {
                        "address": "3213 Ontario Rue E",
                        "country": "CA",
                        "formatted_address": "3213 Ontario Rue E, Montreal QC H1W 1P3",
                        "locality": "Montreal",
                        "postcode": "H1W 1P3",
                        "region": "QC"
                  },
                  "name": "Rond-Point, caf\u00e9 autog\u00e9r\u00e9"
            },
            {
                  "distance": 592,
                  "location": {
                        "address": "3529 Hochelaga Rue",
                        "country": "CA",
                        "formatted_address": "3529 Hochelaga Rue, Montreal QC H1W 1H8",
                        "locality": "Montreal",
                        "postcode": "H1W 1H8",
                        "region": "QC"
                  },
                  "name": "Taverne Morelli"
            },
            {
                  "distance": 726,
                  "location": {
                        "address": "2727 Ontario Rue E",
                        "country": "CA",
                        "formatted_address": "2727 Ontario Rue E, Montreal QC H2K 1X2",
                        "locality": "Montreal",
                        "postcode": "H2K 1X2",
                        "region": "QC"
                  },
                  "name": "Shandmas"
            },
            {
                  "distance": 748,
                  "location": {
                        "address": "2925 Rachel Rue E",
                        "country": "CA",
                        "formatted_address": "2925 Rachel Rue E, Montreal QC H1W 3Z8",
                        "locality": "Montreal",
                        "postcode": "H1W 3Z8",
                        "region": "QC"
                  },
                  "name": "Starbucks",
                  "store_id": "65587-300003"
            }
      ],
      "context": {
            "geo_bounds": {
                  "circle": {
                        "center": {
                              "latitude": 45.54137497,
                              "longitude": -73.55422318
                        },
                        "radius": 1000
                  }
            }
      }
}