{
      "results": [
            {
                  "distance": 347,
                  "location": {
                        "address": "1600 le Corbusier Blvd",
                        "country": "CA",
                        "cross_street": "Souvenir",
                        "formatted_address": "1600 le Corbusier Blvd (Souvenir), Laval QC H7S 1Y9",
                        "locality": "Chomedey",
                        "postcode": "H7S 1Y9",
                        "region": "QC"
                  },
                  "name": "Fu Lam",
                  "popularity": 0.5863607962152995,
                  "rating": 7.9
            },
            {
                  "distance": 97,
                  "location": {
                        "address": "3005 Blvd de la Concorde Est",
                        "country": "CA",
                        "cross_street": "",
                        "formatted_address": "3005 Blvd de la Concorde Est, Laval QC H7E 2B5",
                        "locality": "Laval",
                        "postcode": "H7E 2B5",
                        "region": "QC"
                  },
                  "name": "Mikasa Express",
                  "popularity": 0.8899401945907346,
                  "price": 2,
                  "rating": 7.3
            },
            {
                  "distance": 103,
                  "location": {
                        "address": "2975 Blvd de la CONCORDE Est",
                        "country": "CA",
                        "cross_street": "",
                        "formatted_address": "2975 Blvd de la CONCORDE Est, Laval QC H7E 2B5",
                        "locality": "Laval",
                        "postcode": "H7E 2B5",
                        "region": "QC"
                  },
                  "name": "Tutti Frutti",
                  "popularity": 0.9353744532714452,
                  "price": 1,
                  "rating": 6.5
            },
            {
                  "distance": 83,
                  "location": {
                        "address": "3003 de la Concorde E",
                        "country": "CA",
                        "cross_street": "",
                        "formatted_address": "3003 de la Concorde E, Laval QC H7E 2B5",
                        "locality": "Laval",
                        "postcode": "H7E 2B5",
                        "region": "QC"
                  },
                  "name": "Subway",
                  "popularity": 0.87315897527448,
                  "price": 1,
                  "rating": 6.4,
                  "store_id": "16504"
            },
            {
                  "distance": 240,
                  "location": {
                        "address": "2895 Blvd de la Concorde Est",
                        "country": "CA",
                        "cross_street": "at Croissant de Calli\u00e8res",
                        "formatted_address": "2895 Blvd de la Concorde Est (at Croissant de Calli\u00e8res), Laval QC H7E 2B5",
                        "locality": "Duvernay",
                        "postcode": "H7E 2B5",
                        "region": "QC"
                  },
                  "name": "McDonald's",
                  "popularity": 0.9845577077568508,
                  "price": 1,
                  "rating": 6.0,
                  "store_id": "2107"
            },
            {
                  "distance": 69,
                  "location": {
                        "address": "1004 Rue de Callieres",
                        "country": "CA",
                        "cross_street": "",
                        "formatted_address": "1004 Rue de Callieres, Laval QC H7E 3N2",
                        "locality": "Laval",
                        "postcode": "H7E 3N2",
                        "region": "QC"
                  },
                  "name": "Brasserie de Callieres",
                  "popularity": 0.45434258680710526,
                  "price": 2
            },
            {
                  "distance": 71,
                  "location": {
                        "address": "3051 Blvd de la Concorde Est",
                        "country": "CA",
                        "cross_street": "",
                        "formatted_address": "3051 Blvd de la Concorde Est, Laval QC H7E 2C1",
                        "locality": "Laval",
                        "postcode": "H7E 2C1",
                        "region": "QC"
                  },
                  "name": "Chez Cora",
                  "popularity": 0.9059180576631259,
                  "price": 1
            },
            {
                  "distance": 88,
                  "location": {
                        "address": "3015 Comcorde E",
                        "country": "CA",
                        "cross_street": "Champlain",
                        "formatted_address": "3015 Comcorde E (Champlain), Laval QC",
                        "locality": "Laval",
                        "region": "QC"
                  },
                  "name": "L'imparfait",
                  "popularity": 0.17709542086941,
                  "price": 2
            },
            {
                  "distance": 209,
                  "location": {
                        "address": "2921 Blvd de la Concorde Est",
                        "country": "CA",
                        "formatted_address": "2921 Blvd de la Concorde Est, Laval QC H7E 2B5",
                        "locality": "Laval",
                        "postcode": "H7E 2B5",
                        "region": "QC"
                  },
                  "name": "Restaurant Amir",
                  "popularity": 0.9555476211729002,
                  "price": 1
            },
            {
                  "distance": 316,
                  "location": {
                        "address": "949 d'Auteuil Blvd",
                        "country": "CA",
                        "cross_street": "",
                        "formatted_address": "949 d'Auteuil Blvd, Laval QC H7E 5J7",
                        "locality": "Laval",
                        "postcode": "H7E 5J7",
                        "region": "QC"
                  },
                  "name": "Taglio di Roma",
                  "popularity": 0.6051950370436491,
                  "price": 2
            },
            {
                  "distance": 360,
                  "location": {
                        "address": "3100 Blvd de la Concorde E",
                        "address_extended": "# 83",
                        "country": "CA",
                        "cross_street": "",
                        "formatted_address": "3100 Blvd de la Concorde E, Laval QC H7E 2B8",
                        "locality": "Laval",
                        "postcode": "H7E 2B8",
                        "region": "QC"
                  },
                  "name": "Fu Lam XP",
                  "popularity": 0.8039810764973668
            },
            {
                  "distance": 366,
                  "location": {
                        "address": "2850 Blvd de la Concorde Est",
                        "country": "CA",
                        "cross_street": "",
                        "formatted_address": "2850 Blvd de la Concorde Est, Laval QC H7E 2B4",
                        "locality": "Duvernay",
                        "postcode": "H7E 2B4",
                        "region": "QC"
                  },
                  "name": "Restaurant la Maison P\u00e9kin Lt\u00e9e",
                  "popularity": 0.8320985450325805,
                  "price": 1
            },
            {
                  "distance": 586,
                  "location": {
                        "address": "3533 Blvd de la Concorde E",
                        "country": "CA",
                        "cross_street": "",
                        "formatted_address": "3533 Blvd de la Concorde E, Laval QC H7E 2C6",
                        "locality": "Laval",
                        "postcode": "H7E 2C6",
                        "region": "QC"
                  },
                  "name": "Double Pizza",
                  "popularity": 0.9245737748817281,
                  "price": 1
            },
            {
                  "distance": 885,
                  "location": {
                        "address": "3630 Blvd de la Concorde E",
                        "country": "CA",
                        "cross_street": "",
                        "formatted_address": "3630 Blvd de la Concorde E, Laval QC H7E 2C9",
                        "locality": "Laval",
                        "postcode": "H7E 2C9",
                        "region": "QC"
                  },
                  "name": "Chair de Poule",
                  "popularity": 0.3175935017406052,
                  "price": 2
            },
            {
                  "distance": 82,
                  "location": {
                        "address": "3005 Blvd de la Concorde E",
                        "country": "CA",
                        "formatted_address": "3005 Blvd de la Concorde E, Laval QC H7E 2B5",
                        "locality": "Laval",
                        "postcode": "H7E 2B5",
                        "region": "QC"
                  },
                  "name": "Mikasa Chiisai"
            },
            {
                  "distance": 110,
                  "location": {
                        "address": "3099 de la Concorde Est",
                        "country": "CA",
                        "formatted_address": "3099 de la Concorde Est, Laval QC H7E 2C1",
                        "locality": "Laval",
                        "postcode": "H7E 2C1",
                        "region": "QC"
                  },
                  "name": "Tim Hortons"
            },
            {
                  "distance": 127,
                  "location": {
                        "address": "3099 Blvd de la Concorde E",
                        "country": "CA",
                        "formatted_address": "3099 Blvd de la Concorde E, Laval QC H7E 2C1",
                        "locality": "Laval",
                        "postcode": "H7E 2C1",
                        "region": "QC"
                  },
                  "name": "Harvey's"
            },
            {
                  "distance": 146,
                  "location": {
                        "address": "3100 Blvd de la Concorde E",
                        "country": "CA",
                        "formatted_address": "3100 Blvd de la Concorde E, Laval QC H7E 2B8",
                        "locality": "Laval",
                        "postcode": "H7E 2B8",
                        "region": "QC"
                  },
                  "name": "Lotus Bleu"
            },
            {
                  "distance": 152,
                  "location": {
                        "address": "3100 Blvd de la Concorde E",
                        "address_extended": "# 11",
                        "country": "CA",
                        "formatted_address": "3100 Blvd de la Concorde E, Laval QC H7E 2B8",
                        "locality": "Laval",
                        "postcode": "H7E 2B8",
                        "region": "QC"
                  },
                  "name": "Restaurants P'Tits Fourneaux"
            },
            {
                  "distance": 164,
                  "location": {
                        "address": "2941 Blvd de la Concorde E Duvernay",
                        "country": "CA",
                        "formatted_address": "2941 Blvd de la Concorde E Duvernay, Laval QC H7E 2B5",
                        "locality": "Laval",
                        "postcode": "H7E 2B5",
                        "region": "QC"
                  },
                  "name": "Restaurant la Belle Province"
            },
            {
                  "distance": 202,
                  "location": {
                        "address": "3100 Blvd de la Concorde E",
                        "country": "CA",
                        "formatted_address": "3100 Blvd de la Concorde E, Laval QC H7E 2B8",
                        "locality": "Laval",
                        "postcode": "H7E 2B8",
                        "region": "QC"
                  },
                  "name": "Primo Pizzeria"
            },
            {
                  "distance": 237,
                  "location": {
                        "address": "700 Voie de la Desserte Ouest",
                        "country": "CA",
                        "formatted_address": "700 Voie de la Desserte Ouest, Laval QC H7A 3Z4",
                        "locality": "Laval",
                        "postcode": "H7A 3Z4",
                        "region": "QC"
                  },
                  "name": "McDonald's"
            },
            {
                  "distance": 341,
                  "location": {
                        "address": "3313 Blvd de la Concorde E",
                        "country": "CA",
                        "formatted_address": "3313 Blvd de la Concorde E, Laval QC H7E 2C3",
                        "locality": "Laval",
                        "postcode": "H7E 2C3",
                        "region": "QC"
                  },
                  "name": "Boulangerie Del Sole Concorde"
            },
            {
                  "distance": 433,
                  "location": {
                        "address": "2708C de la Concorde Blvd E",
                        "country": "CA",
                        "formatted_address": "2708C de la Concorde Blvd E, Laval QC H7E 2B4",
                        "locality": "Laval",
                        "postcode": "H7E 2B4",
                        "region": "QC"
                  },
                  "name": "Lorraine Laine Tricot"
            },
            {
                  "distance": 999,
                  "location": {
                        "address": "2193 Blvd de Blois",
                        "country": "CA",
                        "formatted_address": "2193 Blvd de Blois, Laval QC H7E 1P6",
                        "locality": "Laval",
                        "postcode": "H7E 1P6",
                        "region": "QC"
                  },
                  "name": "Pizza a Theo"
            }
      ],
      "context": {
            "geo_bounds": {
                  "circle": {
                        "center": {
                              "latitude": 45.59342198,
                              "longitude": -73.66902173
                        },
                        "radius": 1000
                  }
            }
      }
}