{
      "results": [
            {
                  "distance": 706,
                  "location": {
                        "address": "275 Hickson Rue",
                        "country": "CA",
                        "cross_street": "coin Wellington",
                        "formatted_address": "275 Hickson Rue (coin Wellington), Verdun QC H4G 2J7",
                        "locality": "Verdun",
                        "postcode": "H4G 2J7",
                        "region": "QC"
                  },
                  "name": "Garage Cafe",
                  "popularity": 0.9310773088569265,
                  "price": 2,
                  "rating": 9.0
            },
            {
                  "distance": 734,
                  "location": {
                        "address": "5411 rue de Verdun",
                        "country": "CA",
                        "cross_street": "coin Argyle",
                        "formatted_address": "5411 rue de Verdun (coin Argyle), Verdun QC H4H 1K6",
                        "locality": "Verdun",
                        "postcode": "H4H 1K6",
                        "region": "QC"
                  },
                  "name": "Bagel St-Lo",
                  "popularity": 0.9861965367146102,
                  "price": 1,
                  "rating": 8.9
            },
            {
                  "distance": 783,
                  "location": {
                        "address": "3852 Wellington Rue",
                        "country": "CA",
                        "cross_street": "",
                        "formatted_address": "3852 Wellington Rue, Verdun QC H4G 1V2",
                        "locality": "Verdun",
                        "postcode": "H4G 1V2",
                        "region": "QC"
                  },
                  "name": "Station W",
                  "popularity": 0.9501916161998486,
                  "price": 1,
                  "rating": 8.8
            },
            {
                  "distance": 600,
                  "location": {
                        "address": "4026 Wellington Rue",
                        "country": "CA",
                        "cross_street": "entre De L'\u00c9glise & Hickson",
                        "formatted_address": "4026 Wellington Rue (entre De L'\u00c9glise & Hickson), Verdun QC H4G 1V3",
                        "locality": "Verdun",
                        "postcode": "H4G 1V3",
                        "region": "QC"
                  },
                  "name": "Benelux",
                  "popularity": 0.9749834405753217,
                  "price": 2,
                  "rating": 8.7
            },
            {
                  "distance": 922,
                  "location": {
                        "address": "3681 Wellington Rue",
                        "country": "CA",
                        "cross_street": "",
                        "formatted_address": "3681 Wellington Rue, Montr\u00e9al QC H4G 1V1",
                        "locality": "Montreal",
                        "postcode": "H4G 1V1",
                        "region": "QC"
                  },
                  "name": "Rita",
                  "popularity": 0.9461936979560939,
                  "price": 2,
                  "rating": 8.2
            },
            {
                  "distance": 789,
                  "location": {
                        "address": "3819 Wellington Rue",
                        "country": "CA",
                        "cross_street": "",
                        "formatted_address": "3819 Wellington Rue, Verdun QC H4G 1V1",
                        "locality": "Verdun",
                        "postcode": "H4G 1V1",
                        "region": "QC"
                  },
                  "name": "Bar Social Verdun",
                  "popularity": 0.9276353141559425,
                  "price": 2,
                  "rating": 8.0
            },
            {
                  "distance": 757,
                  "location": {
                        "address": "3876 Wellington Rue",
                        "country": "CA",
                        "cross_street": "coin Hickson",
                        "formatted_address": "3876 Wellington Rue (coin Hickson), Verdun QC H4G 1V2",
                        "locality": "Verdun",
                        "postcode": "H4G 1V2",
                        "region": "QC"
                  },
                  "name": "Nouveau Delhi Express",
                  "popularity": 0.9155232778198334,
                  "price": 2,
                  "rating": 8.0
            },
            {
                  "distance": 430,
                  "location": {
                        "address": "4811 Wellington Rue",
                        "country": "CA",
                        "cross_street": "",
                        "formatted_address": "4811 Wellington Rue, Verdun QC H4G 1X5",
                        "locality": "Verdun",
                        "postcode": "H4G 1X5",
                        "region": "QC"
                  },
                  "name": "Rex Pizza",
                  "popularity": 0.69742382664648,
                  "price": 1,
                  "rating": 7.8
            },
            {
                  "distance": 442,
                  "location": {
                        "address": "4718 Wellington Rue",
                        "country": "CA",
                        "cross_street": "2e avenue",
                        "formatted_address": "4718 Wellington Rue (2e avenue), Montr\u00e9al QC H4G 1X3",
                        "locality": "Montreal",
                        "postcode": "H4G 1X3",
                        "region": "QC"
                  },
                  "name": "Le Tr\u00e8fle",
                  "popularity": 0.9579982021196064,
                  "rating": 7.8
            },
            {
                  "distance": 598,
                  "location": {
                        "address": "4019 Wellington Rue",
                        "country": "CA",
                        "cross_street": "De L'\u00c9glise",
                        "formatted_address": "4019 Wellington Rue (De L'\u00c9glise), Verdun QC H4G 1V6",
                        "locality": "Verdun",
                        "postcode": "H4G 1V6",
                        "region": "QC"
                  },
                  "name": "Bar Palco",
                  "popularity": 0.9636993754731265,
                  "price": 2,
                  "rating": 7.7
            },
            {
                  "distance": 769,
                  "location": {
                        "address": "3819 Wellington Rue",
                        "address_extended": "Suite 102",
                        "country": "CA",
                        "cross_street": "",
                        "formatted_address": "3819 Wellington Rue, Montr\u00e9al QC H4G 1V1",
                        "locality": "Montreal",
                        "postcode": "H4G 1V1",
                        "region": "QC"
                  },
                  "name": "Chez Robin Bistro Local",
                  "popularity": 0.8777204769114307,
                  "price": 1,
                  "rating": 7.6
            },
            {
                  "distance": 762,
                  "location": {
                        "address": "3872 Wellington Rue",
                        "country": "CA",
                        "cross_street": "Hickson",
                        "formatted_address": "3872 Wellington Rue (Hickson), Verdun QC H4G 1V2",
                        "locality": "Verdun",
                        "postcode": "H4G 1V2",
                        "region": "QC"
                  },
                  "name": "Aka-Fuji",
                  "popularity": 0.8395036903860712,
                  "price": 2,
                  "rating": 7.6
            },
            {
                  "distance": 409,
                  "location": {
                        "address": "4707 Wellington Rue",
                        "country": "CA",
                        "cross_street": "",
                        "formatted_address": "4707 Wellington Rue, Montr\u00e9al QC H4G 1X2",
                        "locality": "Montreal",
                        "postcode": "H4G 1X2",
                        "region": "QC"
                  },
                  "name": "Pho Bac No1",
                  "popularity": 0.8680332134746405,
                  "price": 2,
                  "rating": 7.5
            },
            {
                  "distance": 452,
                  "location": {
                        "address": "4844 Wellington Rue",
                        "country": "CA",
                        "cross_street": "",
                        "formatted_address": "4844 Wellington Rue, Verdun QC H4G 1X4",
                        "locality": "Verdun",
                        "postcode": "H4G 1X4",
                        "region": "QC"
                  },
                  "name": "Comptoir 21",
                  "popularity": 0.9071962528387585,
                  "price": 1,
                  "rating": 7.5
            },
            {
                  "distance": 626,
                  "location": {
                        "address": "3990 Wellington Rue",
                        "country": "CA",
                        "cross_street": "entre De l'\u00c9glise & Hickson",
                        "formatted_address": "3990 Wellington Rue (entre De l'\u00c9glise & Hickson), Verdun QC H4G 1V3",
                        "locality": "Verdun",
                        "postcode": "H4G 1V3",
                        "region": "QC"
                  },
                  "name": "Boulangerie P\u00e2tisserie Wellington",
                  "popularity": 0.9482872823618471,
                  "price": 1,
                  "rating": 7.4
            },
            {
                  "distance": 512,
                  "location": {
                        "address": "5013 Wellington Rue",
                        "country": "CA",
                        "cross_street": "",
                        "formatted_address": "5013 Wellington Rue, Montr\u00e9al QC H4G 1Y1",
                        "locality": "Montreal",
                        "postcode": "H4G 1Y1",
                        "region": "QC"
                  },
                  "name": "El Sabor de Mexico",
                  "popularity": 0.9422785768357305,
                  "price": 1,
                  "rating": 7.2
            },
            {
                  "distance": 402,
                  "location": {
                        "address": "4701 Wellington Rue",
                        "country": "CA",
                        "cross_street": "coin 2e avenue",
                        "formatted_address": "4701 Wellington Rue (coin 2e avenue), Montr\u00e9al QC H4G 1X2",
                        "locality": "Montreal",
                        "postcode": "H4G 1X2",
                        "region": "QC"
                  },
                  "name": "Villa Wellington",
                  "popularity": 0.9000638720666162,
                  "price": 2,
                  "rating": 6.8
            },
            {
                  "distance": 929,
                  "location": {
                        "address": "3625 Wellington Rue",
                        "country": "CA",
                        "cross_street": "",
                        "formatted_address": "3625 Wellington Rue, Montr\u00e9al QC H4G 1T9",
                        "locality": "Montreal",
                        "postcode": "H4G 1T9",
                        "region": "QC"
                  },
                  "name": "Les Street Monkeys",
                  "popularity": 0.9585659538228615,
                  "rating": 6.4
            },
            {
                  "distance": 646,
                  "location": {
                        "address": "3969 Wellington St",
                        "country": "CA",
                        "cross_street": "",
                        "formatted_address": "3969 Wellington St, Verdun QC H4G 1V6",
                        "locality": "Verdun",
                        "postcode": "H4G 1V6",
                        "region": "QC"
                  },
                  "name": "Pizza Hut",
                  "popularity": 0.89028198334595,
                  "price": 1,
                  "rating": 6.4,
                  "store_id": "R43401"
            },
            {
                  "distance": 824,
                  "location": {
                        "address": "5443 Wellington Rue",
                        "country": "CA",
                        "cross_street": "coin Woodland",
                        "formatted_address": "5443 Wellington Rue (coin Woodland), Verdun QC H4H 1N4",
                        "locality": "Verdun",
                        "postcode": "H4H 1N4",
                        "region": "QC"
                  },
                  "name": "Woodland Restaurant",
                  "popularity": 0.911064061317184,
                  "price": 1,
                  "rating": 6.3
            },
            {
                  "distance": 772,
                  "location": {
                        "address": "4120 Lasalle Blvd",
                        "country": "CA",
                        "cross_street": "",
                        "formatted_address": "4120 Lasalle Blvd, Verdun QC H4G 2A5",
                        "locality": "Verdun",
                        "postcode": "H4G 2A5",
                        "region": "QC"
                  },
                  "name": "St-Hubert Express",
                  "popularity": 0.9810985995457986,
                  "price": 2,
                  "rating": 6.1,
                  "store_id": "100179"
            },
            {
                  "distance": 691,
                  "location": {
                        "address": "30 Rue de l'eglise",
                        "country": "CA",
                        "cross_street": "Boulevard Lasalle",
                        "formatted_address": "30 Rue de l'eglise (Boulevard Lasalle), Verdun QC H4G 2L9",
                        "locality": "Verdun",
                        "postcode": "H4G 2L9",
                        "region": "QC"
                  },
                  "name": "Tim Hortons",
                  "popularity": 0.9914364118092355,
                  "price": 1,
                  "rating": 5.5
            },
            {
                  "distance": 742,
                  "location": {
                        "address": "4300 la Salle Blvd",
                        "country": "CA",
                        "cross_street": "Rue Gordon",
                        "formatted_address": "4300 la Salle Blvd (Rue Gordon), Verdun QC H4G 2A8",
                        "locality": "Verdun",
                        "postcode": "H4G 2A8",
                        "region": "QC"
                  },
                  "name": "McDonald's",
                  "popularity": 0.9971139288417865,
                  "price": 1,
                  "rating": 5.1,
                  "store_id": "5465"
            },
            {
                  "distance": 357,
                  "location": {
                        "address": "4437 Wellington Rue",
                        "country": "CA",
                        "cross_street": "",
                        "formatted_address": "4437 Wellington Rue, Montr\u00e9al QC H4G 1W6",
                        "locality": "Montreal",
                        "postcode": "H4G 1W6",
                        "region": "QC"
                  },
                  "name": "Le 5e",
                  "popularity": 0.8465059613928841,
                  "price": 1
            },
            {
                  "distance": 364,
                  "location": {
                        "address": "4549 Wellington Rue",
                        "country": "CA",
                        "cross_street": "1st Av",
                        "formatted_address": "4549 Wellington Rue (1st Av), Verdun QC H4G 1W8",
                        "locality": "Verdun",
                        "postcode": "H4G 1W8",
                        "region": "QC"
                  },
                  "name": "Falafel Yoni",
                  "popularity": 0.883575416351249,
                  "price": 1
            },
            {
                  "distance": 375,
                  "location": {
                        "address": "552 rue de l\u2019\u00c9glise",
                        "country": "CA",
                        "cross_street": "",
                        "formatted_address": "552 rue de l\u2019\u00c9glise, Montr\u00e9al QC H4G 2M7",
                        "locality": "Montreal",
                        "postcode": "H4G 2M7",
                        "region": "QC"
                  },
                  "name": "Pub Church St",
                  "popularity": 0.9804953633610901,
                  "price": 1
            },
            {
                  "distance": 383,
                  "location": {
                        "address": "4621 Wellington Rue",
                        "country": "CA",
                        "cross_street": "",
                        "formatted_address": "4621 Wellington Rue, Verdun QC H4G 1X1",
                        "locality": "Verdun",
                        "postcode": "H4G 1X1",
                        "region": "QC"
                  },
                  "name": "Uniburger",
                  "popularity": 0.928581566994701,
                  "price": 1
            },
            {
                  "distance": 384,
                  "location": {
                        "address": "739 de l'Eglise",
                        "country": "CA",
                        "formatted_address": "739 de l'Eglise, Verdun QC H4G 2N1",
                        "locality": "Verdun",
                        "postcode": "H4G 2N1",
                        "region": "QC"
                  },
                  "name": "Sandwicherie le Bouche Trou BBQ",
                  "popularity": 0.5004139856169568,
                  "price": 1
            },
            {
                  "distance": 384,
                  "location": {
                        "address": "4536 Wellington Rue",
                        "country": "CA",
                        "cross_street": "",
                        "formatted_address": "4536 Wellington Rue, Montr\u00e9al QC H4G 1W7",
                        "locality": "Montreal",
                        "postcode": "H4G 1W7",
                        "region": "QC"
                  },
                  "name": "Viet Express",
                  "popularity": 0.8108204012112036,
                  "price": 2
            },
            {
                  "distance": 387,
                  "location": {
                        "address": "4554 Wellington Rue",
                        "country": "CA",
                        "cross_street": "1re avenue",
                        "formatted_address": "4554 Wellington Rue (1re avenue), Montr\u00e9al QC H4G 1W7",
                        "locality": "Montreal",
                        "postcode": "H4G 1W7",
                        "region": "QC"
                  },
                  "name": "Lili & Oli",
                  "popularity": 0.9719199470098411,
                  "price": 1
            },
            {
                  "distance": 388,
                  "location": {
                        "address": "4406 Wellington Rue",
                        "country": "CA",
                        "cross_street": "Rielle",
                        "formatted_address": "4406 Wellington Rue (Rielle), Verdun QC H4G 1W5",
                        "locality": "Verdun",
                        "postcode": "H4G 1W5",
                        "region": "QC"
                  },
                  "name": "Cr\u00e8merie Wellington",
                  "popularity": 0.8898798258894777,
                  "price": 1
            },
            {
                  "distance": 393,
                  "location": {
                        "address": "4327 Wellington Rue",
                        "country": "CA",
                        "cross_street": "",
                        "formatted_address": "4327 Wellington Rue, Verdun QC H4G 1W3",
                        "locality": "Verdun",
                        "postcode": "H4G 1W3",
                        "region": "QC"
                  },
                  "name": "Caf\u00e9 Saint-Henri",
                  "popularity": 0.9106264193792581,
                  "price": 1
            },
            {
                  "distance": 393,
                  "location": {
                        "address": "4578 Wellington Rue",
                        "country": "CA",
                        "cross_street": "",
                        "formatted_address": "4578 Wellington Rue, Montr\u00e9al QC H4G 1W7",
                        "locality": "Montreal",
                        "postcode": "H4G 1W7",
                        "region": "QC"
                  },
                  "name": "Pizz\u00e9ria NO.900",
                  "popularity": 0.9577379825889477,
                  "price": 1
            },
            {
                  "distance": 397,
                  "location": {
                        "address": "4634 Wellington Rue",
                        "country": "CA",
                        "cross_street": "",
                        "formatted_address": "4634 Wellington Rue, Verdun QC H4G 1W9",
                        "locality": "Verdun",
                        "postcode": "H4G 1W9",
                        "region": "QC"
                  },
                  "name": "Pizza Expresso",
                  "popularity": 0.6096115632096897,
                  "price": 1
            },
            {
                  "distance": 399,
                  "location": {
                        "address": "4579 Wellington Rue",
                        "country": "CA",
                        "cross_street": "1\u00e8re Avenue",
                        "formatted_address": "4579 Wellington Rue (1\u00e8re Avenue), Verdun QC H4G 1W8",
                        "locality": "Verdun",
                        "postcode": "H4G 1W8",
                        "region": "QC"
                  },
                  "name": "La Belle Province",
                  "popularity": 0.8582631529144588,
                  "price": 1
            }
      ],
      "context": {
            "geo_bounds": {
                  "circle": {
                        "center": {
                              "latitude": 45.45948769,
                              "longitude": -73.57209206
                        },
                        "radius": 1000
                  }
            }
      }
}