{
      "results": [
            {
                  "distance": 706,
                  "location": {
                        "address": "5485 Victoria Ave",
                        "country": "CA",
                        "cross_street": "Saint-Kevin",
                        "formatted_address": "5485 Victoria Ave (Saint-Kevin), Montr\u00e9al QC H3W 2P9",
                        "locality": "Montreal",
                        "postcode": "H3W 2P9",
                        "region": "QC"
                  },
                  "name": "Restaurant Hoai Huong",
                  "popularity": 0.9431420325510976,
                  "price": 1,
                  "rating": 8.5
            },
            {
                  "distance": 304,
                  "location": {
                        "address": "5265 Decarie Blvd",
                        "country": "CA",
                        "cross_street": "Isabella",
                        "formatted_address": "5265 Decarie Blvd (Isabella), Montr\u00e9al QC H3W 3C2",
                        "locality": "Montreal",
                        "postcode": "H3W 3C2",
                        "region": "QC"
                  },
                  "name": "Snowdon Deli",
                  "popularity": 0.9864922407267221,
                  "price": 2,
                  "rating": 7.9
            },
            {
                  "distance": 222,
                  "location": {
                        "address": "5136 Decarie Blvd",
                        "country": "CA",
                        "cross_street": "",
                        "formatted_address": "5136 Decarie Blvd, Montreal QC H3X 2H9",
                        "locality": "Hampstead",
                        "postcode": "H3X 2H9",
                        "region": "QC"
                  },
                  "name": "Pho 88",
                  "popularity": 0.9451055071915215,
                  "price": 2,
                  "rating": 7.9
            },
            {
                  "distance": 829,
                  "location": {
                        "address": "5690 Victoria Ave",
                        "country": "CA",
                        "cross_street": "C\u00f4te St-Catherine",
                        "formatted_address": "5690 Victoria Ave (C\u00f4te St-Catherine), Montr\u00e9al QC H3W 2P8",
                        "locality": "Montreal",
                        "postcode": "H3W 2P8",
                        "region": "QC"
                  },
                  "name": "Sen Vang",
                  "popularity": 0.9870363361090083,
                  "price": 2,
                  "rating": 7.9
            },
            {
                  "distance": 287,
                  "location": {
                        "address": "5208 Decarie Blvd",
                        "country": "CA",
                        "cross_street": "",
                        "formatted_address": "5208 Decarie Blvd, Montr\u00e9al QC H3X 2H9",
                        "locality": "Montreal",
                        "postcode": "H3X 2H9",
                        "region": "QC"
                  },
                  "name": "Tropical Paradise",
                  "popularity": 0.9385527062831188,
                  "price": 2,
                  "rating": 7.9
            },
            {
                  "distance": 779,
                  "location": {
                        "address": "5599 Ch de la Cote-Saint-Luc",
                        "country": "CA",
                        "cross_street": "",
                        "formatted_address": "5599 Ch de la Cote-Saint-Luc, Montr\u00e9al QC H3X 2C9",
                        "locality": "Montreal",
                        "postcode": "H3X 2C9",
                        "region": "QC"
                  },
                  "name": "Pendeli's Pizza",
                  "popularity": 0.9530895155185466,
                  "price": 1,
                  "rating": 7.8
            },
            {
                  "distance": 744,
                  "location": {
                        "address": "5493A Victoria Ave",
                        "country": "CA",
                        "cross_street": "Dupuis",
                        "formatted_address": "5493A Victoria Ave (Dupuis), Montr\u00e9al QC H3W 2P9",
                        "locality": "Montreal",
                        "postcode": "H3W 2P9",
                        "region": "QC"
                  },
                  "name": "Restaurant Jolee",
                  "popularity": 0.9849545798637396,
                  "rating": 7.5
            },
            {
                  "distance": 738,
                  "location": {
                        "address": "5403 ch. de la C\u00f4te Saint-Luc",
                        "country": "CA",
                        "formatted_address": "5403 ch. de la C\u00f4te Saint-Luc, Montr\u00e9al QC H3X 2C3",
                        "locality": "Montreal",
                        "postcode": "H3X 2C3",
                        "region": "QC"
                  },
                  "name": "C\u00f4te St Luc Bar-B-Q",
                  "popularity": 0.8623793527630583,
                  "price": 2,
                  "rating": 7.3
            },
            {
                  "distance": 36,
                  "location": {
                        "address": "5095 Queen Mary Ch",
                        "country": "CA",
                        "cross_street": "Westbury",
                        "formatted_address": "5095 Queen Mary Ch (Westbury), Montr\u00e9al QC H3W 1X4",
                        "locality": "Montreal",
                        "postcode": "H3W 1X4",
                        "region": "QC"
                  },
                  "name": "Tim Hortons",
                  "popularity": 0.9688091408024224,
                  "price": 1,
                  "rating": 6.8
            },
            {
                  "distance": 43,
                  "location": {
                        "address": "5071 Queen Mary Rd",
                        "country": "CA",
                        "cross_street": "",
                        "formatted_address": "5071 Queen Mary Rd, Montr\u00e9al QC H3W 1X4",
                        "locality": "Montreal",
                        "postcode": "H3W 1X4",
                        "region": "QC"
                  },
                  "name": "Second Cup CAF\u00c9 & Cie avec Pinkberry yogourt glac\u00e9",
                  "popularity": 0.9350870552611658,
                  "price": 1,
                  "rating": 6.4
            },
            {
                  "distance": 73,
                  "location": {
                        "address": "5002 Queen Mary Ch",
                        "country": "CA",
                        "cross_street": "ch Circle",
                        "formatted_address": "5002 Queen Mary Ch (ch Circle), Montr\u00e9al QC H3W 1X2",
                        "locality": "Montreal",
                        "postcode": "H3W 1X2",
                        "region": "QC"
                  },
                  "name": "Pizza Hut",
                  "popularity": 0.9152630582891749,
                  "price": 1,
                  "rating": 6.3,
                  "store_id": "R47001"
            },
            {
                  "distance": 978,
                  "location": {
                        "address": "4241 Decarie Blvd",
                        "country": "CA",
                        "cross_street": "Monkland",
                        "formatted_address": "4241 Decarie Blvd (Monkland), Montr\u00e9al QC H4A 3K4",
                        "locality": "Montreal",
                        "postcode": "H4A 3K4",
                        "region": "QC"
                  },
                  "name": "Quartier-Perse",
                  "popularity": 0.9122232210446631,
                  "rating": 6.2
            },
            {
                  "distance": 2924,
                  "location": {
                        "address": "5177 Decarie Blvd",
                        "country": "CA",
                        "cross_street": "at Cornation",
                        "formatted_address": "5177 Decarie Blvd (at Cornation), Montr\u00e9al QC H3W 3C2",
                        "locality": "Montreal",
                        "postcode": "H3W 3C2",
                        "region": "QC"
                  },
                  "name": "Souvlaki George",
                  "popularity": 0.9824233535200606,
                  "price": 3,
                  "rating": 6.2
            },
            {
                  "distance": 293,
                  "location": {
                        "address": "5180 Decarie Blvd",
                        "country": "CA",
                        "cross_street": "",
                        "formatted_address": "5180 Decarie Blvd, Montr\u00e9al QC H3X 2H9",
                        "locality": "Montreal",
                        "postcode": "H3X 2H9",
                        "region": "QC"
                  },
                  "name": "Wendy's",
                  "popularity": 0.9889170136260409,
                  "price": 1,
                  "rating": 6.1,
                  "store_id": "6630"
            },
            {
                  "distance": 276,
                  "location": {
                        "address": "5322 Queen Mary Ch",
                        "country": "CA",
                        "cross_street": "Boulevard Decarie",
                        "formatted_address": "5322 Queen Mary Ch (Boulevard Decarie), Montr\u00e9al QC H3X 1T7",
                        "locality": "Montreal",
                        "postcode": "H3X 1T7",
                        "region": "QC"
                  },
                  "name": "Resto Bar Chops",
                  "popularity": 0.8295916919000756,
                  "price": 2,
                  "rating": 6.1
            },
            {
                  "distance": 22,
                  "location": {
                        "address": "5155 Queen-Mary Ch",
                        "country": "CA",
                        "cross_street": "Station Snowdon",
                        "formatted_address": "5155 Queen-Mary Ch (Station Snowdon), Montr\u00e9al QC H3W 1X6",
                        "locality": "Montreal",
                        "postcode": "H3W 1X6",
                        "region": "QC"
                  },
                  "name": "McDonald's",
                  "popularity": 0.9941214042392127,
                  "price": 1,
                  "rating": 6.0,
                  "store_id": "13766"
            },
            {
                  "distance": 67,
                  "location": {
                        "address": "4986B Queen Mary Ch",
                        "country": "CA",
                        "cross_street": "",
                        "formatted_address": "4986B Queen Mary Ch, Montr\u00e9al QC H3W 1X2",
                        "locality": "Montreal",
                        "postcode": "H3W 1X2",
                        "region": "QC"
                  },
                  "name": "One More Th\u00e9",
                  "popularity": 0.7747090272520818,
                  "price": 1
            },
            {
                  "distance": 85,
                  "location": {
                        "address": "5202 Queen-Mary Ch",
                        "country": "CA",
                        "cross_street": "Trans Island",
                        "formatted_address": "5202 Queen-Mary Ch (Trans Island), Montr\u00e9al QC H3W 1X5",
                        "locality": "Montreal",
                        "postcode": "H3W 1X5",
                        "region": "QC"
                  },
                  "name": "Finegan's Irish Pub",
                  "popularity": 0.8670278198334594,
                  "price": 2
            },
            {
                  "distance": 94,
                  "location": {
                        "address": "5001 Queen Mary Ch",
                        "country": "CA",
                        "cross_street": "",
                        "formatted_address": "5001 Queen Mary Ch, Montreal QC H3W 1X4",
                        "locality": "Montreal",
                        "postcode": "H3W 1X4",
                        "region": "QC"
                  },
                  "name": "Restaurant Ermitage",
                  "popularity": 0.6130653860711582
            },
            {
                  "distance": 248,
                  "location": {
                        "address": "5018 Decarie Blvd",
                        "country": "CA",
                        "cross_street": "Queen Mary",
                        "formatted_address": "5018 Decarie Blvd (Queen Mary), Montr\u00e9al QC H3X 2H8",
                        "locality": "Montreal",
                        "postcode": "H3X 2H8",
                        "region": "QC"
                  },
                  "name": "Bar le Bi\u00e8vre",
                  "popularity": 0.8705171271763815,
                  "price": 2
            },
            {
                  "distance": 294,
                  "location": {
                        "address": "5332 Queen Mary Ch",
                        "country": "CA",
                        "cross_street": "Boulevard D\u00e9carie",
                        "formatted_address": "5332 Queen Mary Ch (Boulevard D\u00e9carie), Montr\u00e9al QC H3X 1T7",
                        "locality": "Montreal",
                        "postcode": "H3X 1T7",
                        "region": "QC"
                  },
                  "name": "Karin",
                  "popularity": 0.8407456472369417,
                  "price": 2
            },
            {
                  "distance": 317,
                  "location": {
                        "address": "5453 Queen Mary Ch",
                        "country": "CA",
                        "cross_street": "",
                        "formatted_address": "5453 Queen Mary Ch, Montr\u00e9al QC H3X 1V4",
                        "locality": "Montreal",
                        "postcode": "H3X 1V4",
                        "region": "QC"
                  },
                  "name": "Solomos",
                  "popularity": 0.9015660484481454,
                  "price": 2
            },
            {
                  "distance": 377,
                  "location": {
                        "address": "5385 Queen Mary Ch",
                        "country": "CA",
                        "cross_street": "",
                        "formatted_address": "5385 Queen Mary Ch, Montr\u00e9al QC H3X 1V1",
                        "locality": "Montreal",
                        "postcode": "H3X 1V1",
                        "region": "QC"
                  },
                  "name": "Sopoong",
                  "popularity": 0.9527346707040121,
                  "price": 2
            },
            {
                  "distance": 385,
                  "location": {
                        "address": "5463 Queen Mary Ch",
                        "country": "CA",
                        "cross_street": "",
                        "formatted_address": "5463 Queen Mary Ch, Montr\u00e9al QC",
                        "locality": "Montreal",
                        "region": "QC"
                  },
                  "name": "Pellegrinos Cafe",
                  "popularity": 0.7257049583648751,
                  "price": 1
            },
            {
                  "distance": 637,
                  "location": {
                        "address": "5505 Decarie Blvd",
                        "country": "CA",
                        "cross_street": "",
                        "formatted_address": "5505 Decarie Blvd, Montreal QC H3W 3C7",
                        "locality": "Montreal",
                        "postcode": "H3W 3C7",
                        "region": "QC"
                  },
                  "name": "Vodka Bar Inc",
                  "popularity": 0.7083648750946253,
                  "price": 2
            },
            {
                  "distance": 692,
                  "location": {
                        "address": "5487 Victoria Ave",
                        "country": "CA",
                        "cross_street": "",
                        "formatted_address": "5487 Victoria Ave, Montr\u00e9al QC H3W 2P9",
                        "locality": "Montreal",
                        "postcode": "H3W 2P9",
                        "region": "QC"
                  },
                  "name": "Pizza Gourmetti",
                  "popularity": 0.9082962717638153,
                  "price": 3
            },
            {
                  "distance": 756,
                  "location": {
                        "address": "5488 Ch de la C\u00f4te-Saint-Luc",
                        "country": "CA",
                        "cross_street": "",
                        "formatted_address": "5488 Ch de la C\u00f4te-Saint-Luc, Montr\u00e9al QC H3X 2C7",
                        "locality": "Montreal",
                        "postcode": "H3X 2C7",
                        "region": "QC"
                  },
                  "name": "Domino's Pizza",
                  "popularity": 0.8963498296744891,
                  "price": 1,
                  "store_id": "10657"
            },
            {
                  "distance": 56,
                  "location": {
                        "address": "5039 Queen Mary Ch",
                        "country": "CA",
                        "formatted_address": "5039 Queen Mary Ch, Montreal QC",
                        "locality": "Montreal",
                        "region": "QC"
                  },
                  "name": "Exception Bistro-Resto"
            },
            {
                  "distance": 92,
                  "location": {
                        "address": "5202 Queen Mary Ch",
                        "country": "CA",
                        "formatted_address": "5202 Queen Mary Ch, Montreal QC H3W 1X5",
                        "locality": "Montreal",
                        "postcode": "H3W 1X5",
                        "region": "QC"
                  },
                  "name": "Bar Saska"
            },
            {
                  "distance": 120,
                  "location": {
                        "address": "4972 Queen-Mary Ch",
                        "country": "CA",
                        "formatted_address": "4972 Queen-Mary Ch, Montreal QC H3W 1X2",
                        "locality": "Montreal",
                        "postcode": "H3W 1X2",
                        "region": "QC"
                  },
                  "name": "Hyderabadi Adda- Mandi & Biryani Co"
            },
            {
                  "distance": 167,
                  "location": {
                        "address": "5131 Decarie Blvd",
                        "country": "CA",
                        "formatted_address": "5131 Decarie Blvd, Montreal QC H3W 3C2",
                        "locality": "Montreal",
                        "postcode": "H3W 3C2",
                        "region": "QC"
                  },
                  "name": "Razgulyaevo"
            },
            {
                  "distance": 247,
                  "location": {
                        "address": "5317 Queen-Mary Ch",
                        "country": "CA",
                        "formatted_address": "5317 Queen-Mary Ch, Montreal QC H3X 1T9",
                        "locality": "Montreal",
                        "postcode": "H3X 1T9",
                        "region": "QC"
                  },
                  "name": "Maison O the Queen-Mary"
            },
            {
                  "distance": 281,
                  "location": {
                        "address": "5339 Queen-Mary Ch",
                        "country": "CA",
                        "formatted_address": "5339 Queen-Mary Ch, Montreal QC H3X 1T9",
                        "locality": "Montreal",
                        "postcode": "H3X 1T9",
                        "region": "QC"
                  },
                  "name": "Peking Garden"
            },
            {
                  "distance": 284,
                  "location": {
                        "address": "7340A Decarie Blvd",
                        "country": "CA",
                        "formatted_address": "7340A Decarie Blvd, Montreal QC H4P 2N1",
                        "locality": "Montreal",
                        "postcode": "H4P 2N1",
                        "region": "QC"
                  },
                  "name": "Wendy's",
                  "store_id": "6663"
            },
            {
                  "distance": 325,
                  "location": {
                        "address": "5220 Decarie Blvd",
                        "country": "CA",
                        "formatted_address": "5220 Decarie Blvd, Montreal QC H3X 2H9",
                        "locality": "Montreal",
                        "postcode": "H3X 2H9",
                        "region": "QC"
                  },
                  "name": "Ristorante Riventino Decarie"
            }
      ],
      "context": {
            "geo_bounds": {
                  "circle": {
                        "center": {
                              "latitude": 45.48542415,
                              "longitude": -73.62816196
                        },
                        "radius": 1000
                  }
            }
      }
}