{
      "results": [
            {
                  "distance": 323,
                  "location": {
                        "address": "5884 Jean-Talon Rue E",
                        "country": "CA",
                        "cross_street": "",
                        "formatted_address": "5884 Jean-Talon Rue E, Montr\u00e9al QC H1S 1M2",
                        "locality": "Montreal",
                        "postcode": "H1S 1M2",
                        "region": "QC"
                  },
                  "name": "La Bella Italiana",
                  "popularity": 0.9815480696442089,
                  "price": 4,
                  "rating": 8.5
            },
            {
                  "distance": 987,
                  "location": {
                        "address": "6400 Jean-Talon Rue E",
                        "country": "CA",
                        "cross_street": "Boul. Langelier",
                        "formatted_address": "6400 Jean-Talon Rue E (Boul. Langelier), Montr\u00e9al QC H1S 1M8",
                        "locality": "Montreal",
                        "postcode": "H1S 1M8",
                        "region": "QC"
                  },
                  "name": "Dejeuner Eggcetera",
                  "popularity": 0.906545704012112,
                  "price": 1,
                  "rating": 7.2
            },
            {
                  "distance": 725,
                  "location": {
                        "address": "6675 Jean-Talon Rue E",
                        "country": "CA",
                        "cross_street": "",
                        "formatted_address": "6675 Jean-Talon Rue E, Montr\u00e9al QC H1S 1N2",
                        "locality": "Montreal",
                        "postcode": "H1S 1N2",
                        "region": "QC"
                  },
                  "name": "R\u00f4tisserie Scores",
                  "popularity": 0.9697199091597275,
                  "price": 2,
                  "rating": 7.2,
                  "store_id": "SC_14"
            },
            {
                  "distance": 703,
                  "location": {
                        "address": "6313 Jarry Rue E",
                        "country": "CA",
                        "cross_street": "Langelier",
                        "formatted_address": "6313 Jarry Rue E (Langelier), Saint-Leonard QC H1P 1W1",
                        "locality": "Saint-L\u00e9onard",
                        "postcode": "H1P 1W1",
                        "region": "QC"
                  },
                  "name": "Restaurant Di Menna",
                  "popularity": 0.9867642884178652,
                  "price": 3,
                  "rating": 7.1
            },
            {
                  "distance": 741,
                  "location": {
                        "address": "7265 Langelier Blvd",
                        "country": "CA",
                        "cross_street": "B\u00e9langer",
                        "formatted_address": "7265 Langelier Blvd (B\u00e9langer), Montr\u00e9al QC H1S 1V6",
                        "locality": "Montreal",
                        "postcode": "H1S 1V6",
                        "region": "QC"
                  },
                  "name": "L'Oeuf Dor\u00e9",
                  "popularity": 0.9489141748675246,
                  "price": 1,
                  "rating": 7.1
            },
            {
                  "distance": 973,
                  "location": {
                        "address": "6836A7 Jean Talon Rue E",
                        "country": "CA",
                        "formatted_address": "6836A7 Jean Talon Rue E, Montr\u00e9al QC H1S 1N1",
                        "locality": "Montreal",
                        "postcode": "H1S 1N1",
                        "region": "QC"
                  },
                  "name": "Ottavio",
                  "popularity": 0.9963924110522332,
                  "price": 2,
                  "rating": 6.8
            },
            {
                  "distance": 831,
                  "location": {
                        "address": "6715 Metropolitain Blvd E",
                        "country": "CA",
                        "cross_street": "langelier",
                        "formatted_address": "6715 Metropolitain Blvd E (langelier), Montr\u00e9al QC H1P 1X8",
                        "locality": "Montreal",
                        "postcode": "H1P 1X8",
                        "region": "QC"
                  },
                  "name": "Restaurant la Vieille Cheminee",
                  "popularity": 0.9239330999242997,
                  "price": 2,
                  "rating": 6.2
            },
            {
                  "distance": 729,
                  "location": {
                        "address": "7090 Langelier Blvd",
                        "address_extended": "Marche Langelier",
                        "country": "CA",
                        "cross_street": "",
                        "formatted_address": "7090 Langelier Blvd, Montr\u00e9al QC H1S 2X6",
                        "locality": "Montreal",
                        "postcode": "H1S 2X6",
                        "region": "QC"
                  },
                  "name": "Starbucks",
                  "popularity": 0.993908497350492,
                  "price": 1,
                  "rating": 6.2,
                  "store_id": "18198-174465"
            },
            {
                  "distance": 663,
                  "location": {
                        "address": "7373 Langelier Blvd",
                        "address_extended": "Suite C-1",
                        "country": "CA",
                        "cross_street": "Jean-Talon",
                        "formatted_address": "7373 Langelier Blvd (Jean-Talon), Saint-Leonard QC H1S 1V7",
                        "locality": "Saint-L\u00e9onard",
                        "postcode": "H1S 1V7",
                        "region": "QC"
                  },
                  "name": "Subway",
                  "popularity": 0.9621853709311128,
                  "price": 1,
                  "rating": 6.1,
                  "store_id": "#16293"
            },
            {
                  "distance": 505,
                  "location": {
                        "address": "6245 Metropolitain Blvd E",
                        "country": "CA",
                        "cross_street": "",
                        "formatted_address": "6245 Metropolitain Blvd E, Saint-Leonard QC H1P 1X7",
                        "locality": "Saint-L\u00e9onard",
                        "postcode": "H1P 1X7",
                        "region": "QC"
                  },
                  "name": "Tim Hortons",
                  "popularity": 0.986634178652536,
                  "price": 1,
                  "rating": 5.8
            },
            {
                  "distance": 257,
                  "location": {
                        "address": "5957 Jean-Talon Rue E",
                        "country": "CA",
                        "cross_street": "",
                        "formatted_address": "5957 Jean-Talon Rue E, Montr\u00e9al QC H1S 1M5",
                        "locality": "Montreal",
                        "postcode": "H1S 1M5",
                        "region": "QC"
                  },
                  "name": "Vincent S Variete Limitee",
                  "popularity": 0.34977053368660105
            },
            {
                  "distance": 328,
                  "location": {
                        "address": "6350 Jean-Talon Rue E",
                        "country": "CA",
                        "cross_street": "",
                        "formatted_address": "6350 Jean-Talon Rue E, Saint-Leonard QC H1S 1M8",
                        "locality": "Saint-Leonard",
                        "postcode": "H1S 1M8",
                        "region": "QC"
                  },
                  "name": "Cafe Modena",
                  "popularity": 0.09326504542013626,
                  "price": 3
            },
            {
                  "distance": 478,
                  "location": {
                        "address": "5761 Jean Talon Rue E",
                        "country": "CA",
                        "cross_street": "",
                        "formatted_address": "5761 Jean Talon Rue E, Montr\u00e9al QC H1S 1M3",
                        "locality": "Montreal",
                        "postcode": "H1S 1M3",
                        "region": "QC"
                  },
                  "name": "Restaurant Espadon",
                  "popularity": 0.9847416729750189
            },
            {
                  "distance": 492,
                  "location": {
                        "address": "6245 Metropolitain Blvd E",
                        "country": "CA",
                        "cross_street": "",
                        "formatted_address": "6245 Metropolitain Blvd E, Montr\u00e9al QC H1P 1X7",
                        "locality": "Montreal",
                        "postcode": "H1P 1X7",
                        "region": "QC"
                  },
                  "name": "Impac Taco",
                  "popularity": 0.05136970098410295,
                  "price": 1
            },
            {
                  "distance": 638,
                  "location": {
                        "address": "6045 Belanger Rue",
                        "country": "CA",
                        "formatted_address": "6045 Belanger Rue, Saint-Leonard QC H1T 3T4",
                        "locality": "Saint-Leonard",
                        "postcode": "H1T 3T4",
                        "region": "QC"
                  },
                  "name": "Bar Billard le Losange",
                  "popularity": 0.9740253595760787,
                  "price": 2
            },
            {
                  "distance": 696,
                  "location": {
                        "address": "6669 Jean-Talon Rue E",
                        "country": "CA",
                        "cross_street": "",
                        "formatted_address": "6669 Jean-Talon Rue E, Saint-Leonard QC H1S 1N2",
                        "locality": "Saint-L\u00e9onard",
                        "postcode": "H1S 1N2",
                        "region": "QC"
                  },
                  "name": "Pizza Pizza",
                  "popularity": 0.22695874337623012,
                  "price": 1,
                  "store_id": "336"
            },
            {
                  "distance": 720,
                  "location": {
                        "address": "6683 Jean-Talon Rue E",
                        "country": "CA",
                        "cross_street": "",
                        "formatted_address": "6683 Jean-Talon Rue E, Montr\u00e9al QC H1S 0A5",
                        "locality": "Montreal",
                        "postcode": "H1S 0A5",
                        "region": "QC"
                  },
                  "name": "Sushi Shop",
                  "popularity": 0.11552564345193035,
                  "price": 2
            },
            {
                  "distance": 757,
                  "location": {
                        "address": "5830 Belanger Rue",
                        "country": "CA",
                        "cross_street": "angle Lacordaire",
                        "formatted_address": "5830 Belanger Rue (angle Lacordaire), Montr\u00e9al QC H1T 1G6",
                        "locality": "Montreal",
                        "postcode": "H1T 1G6",
                        "region": "QC"
                  },
                  "name": "Corona Caf\u00e9",
                  "popularity": 0.9481690007570023,
                  "price": 2
            },
            {
                  "distance": 771,
                  "location": {
                        "address": "5840 Belanger Rue",
                        "country": "CA",
                        "cross_street": "Lacordaire",
                        "formatted_address": "5840 Belanger Rue (Lacordaire), Montr\u00e9al QC H1T 1G6",
                        "locality": "Montreal",
                        "postcode": "H1T 1G6",
                        "region": "QC"
                  },
                  "name": "Luso",
                  "popularity": 0.5323855034065103,
                  "price": 2
            },
            {
                  "distance": 858,
                  "location": {
                        "address": "6683 Jean-Talon Rue E",
                        "country": "CA",
                        "cross_street": "",
                        "formatted_address": "6683 Jean-Talon Rue E, Saint-Leonard QC H1S 0A5",
                        "locality": "Saint-L\u00e9onard",
                        "postcode": "H1S 0A5",
                        "region": "QC"
                  },
                  "name": "Bacaro Pizzeria",
                  "popularity": 0.7629518357305072,
                  "price": 2
            },
            {
                  "distance": 866,
                  "location": {
                        "address": "5670 Jarry Rue E",
                        "country": "CA",
                        "cross_street": "",
                        "formatted_address": "5670 Jarry Rue E, Montr\u00e9al QC H1P 1V4",
                        "locality": "Montreal",
                        "postcode": "H1P 1V4",
                        "region": "QC"
                  },
                  "name": "Bretzel & Compagnie",
                  "popularity": 0.8600018925056775,
                  "price": 1
            },
            {
                  "distance": 7043,
                  "location": {
                        "address": "8090 Langelier Blvd",
                        "country": "CA",
                        "cross_street": "",
                        "formatted_address": "8090 Langelier Blvd, Saint-Leonard QC H1P 2B9",
                        "locality": "Saint-L\u00e9onard",
                        "postcode": "H1P 2B9",
                        "region": "QC"
                  },
                  "name": "Poissonnerie Rayan",
                  "popularity": 0.7082892948814736,
                  "price": 3
            },
            {
                  "distance": 356,
                  "location": {
                        "address": "6020 Metropolitain Blvd E",
                        "country": "CA",
                        "formatted_address": "6020 Metropolitain Blvd E, Saint-Leonard QC H1S 1A9",
                        "locality": "Saint-Leonard",
                        "postcode": "H1S 1A9",
                        "region": "QC"
                  },
                  "name": "Resto Bar District 40"
            },
            {
                  "distance": 367,
                  "location": {
                        "address": "5833 Jean Talon Rue E",
                        "country": "CA",
                        "formatted_address": "5833 Jean Talon Rue E, Saint-Leonard QC H1S 1M4",
                        "locality": "Saint-Leonard",
                        "postcode": "H1S 1M4",
                        "region": "QC"
                  },
                  "name": "Caf\u00e9 Buongiorno"
            },
            {
                  "distance": 400,
                  "location": {
                        "address": "6400 Jean Talon Rue E",
                        "country": "CA",
                        "formatted_address": "6400 Jean Talon Rue E, Saint-Leonard QC H1S 1M8",
                        "locality": "Saint-Leonard",
                        "postcode": "H1S 1M8",
                        "region": "QC"
                  },
                  "name": "Restaurant Basha"
            },
            {
                  "distance": 430,
                  "location": {
                        "address": "6245 Metropolitain Blvd E",
                        "country": "CA",
                        "formatted_address": "6245 Metropolitain Blvd E, Saint-Leonard QC H1P 1X7",
                        "locality": "Saint-Leonard",
                        "postcode": "H1P 1X7",
                        "region": "QC"
                  },
                  "name": "La Vape Shop"
            },
            {
                  "distance": 509,
                  "location": {
                        "address": "6245 Metropolitain Blvd E",
                        "country": "CA",
                        "formatted_address": "6245 Metropolitain Blvd E, Saint-Leonard QC H1P 1X7",
                        "locality": "Saint-Leonard",
                        "postcode": "H1P 1X7",
                        "region": "QC"
                  },
                  "name": "Confetti Home Made Ice Cream"
            },
            {
                  "distance": 510,
                  "location": {
                        "address": "5759 Jean-Talon Rue E",
                        "country": "CA",
                        "formatted_address": "5759 Jean-Talon Rue E, Saint-Leonard QC H1S 1M3",
                        "locality": "Saint-Leonard",
                        "postcode": "H1S 1M3",
                        "region": "QC"
                  },
                  "name": "Pizza Manou"
            },
            {
                  "distance": 514,
                  "location": {
                        "address": "7373 Langelier Blvd",
                        "country": "CA",
                        "formatted_address": "7373 Langelier Blvd, Saint-Leonard QC H1S 1V7",
                        "locality": "Saint-Leonard",
                        "postcode": "H1S 1V7",
                        "region": "QC"
                  },
                  "name": "Caf\u00e9 Langelier"
            },
            {
                  "distance": 567,
                  "location": {
                        "address": "7373 Langelier Blvd",
                        "country": "CA",
                        "formatted_address": "7373 Langelier Blvd, Saint-Leonard QC H1S 1V7",
                        "locality": "Saint-Leonard",
                        "postcode": "H1S 1V7",
                        "region": "QC"
                  },
                  "name": "Cafe 2 M"
            },
            {
                  "distance": 676,
                  "location": {
                        "address": "6183 Belanger Rue",
                        "country": "CA",
                        "formatted_address": "6183 Belanger Rue, Saint-Leonard QC H1T 3T4",
                        "locality": "Saint-Leonard",
                        "postcode": "H1T 3T4",
                        "region": "QC"
                  },
                  "name": "Pizza Oasis"
            },
            {
                  "distance": 700,
                  "location": {
                        "address": "7373 Langelier Blvd",
                        "country": "CA",
                        "formatted_address": "7373 Langelier Blvd, Saint-Leonard QC H1S 1V7",
                        "locality": "Saint-Leonard",
                        "postcode": "H1S 1V7",
                        "region": "QC"
                  },
                  "name": "Sultan Istanbul Kebab"
            },
            {
                  "distance": 708,
                  "location": {
                        "address": "6299 Jarry Rue E",
                        "country": "CA",
                        "formatted_address": "6299 Jarry Rue E, Saint-Leonard QC H1P 1W1",
                        "locality": "Saint-Leonard",
                        "postcode": "H1P 1W1",
                        "region": "QC"
                  },
                  "name": "Patisserie Antep Baklava"
            },
            {
                  "distance": 709,
                  "location": {
                        "address": "5961 Belanger Rue",
                        "country": "CA",
                        "formatted_address": "5961 Belanger Rue, Saint-Leonard QC H1T 1G8",
                        "locality": "Saint-Leonard",
                        "postcode": "H1T 1G8",
                        "region": "QC"
                  },
                  "name": "Boulangerie P\u00e2tisserie et Charcuterie Firenze Inc"
            },
            {
                  "distance": 724,
                  "location": {
                        "address": "6711 Jean-Talon Rue E",
                        "country": "CA",
                        "formatted_address": "6711 Jean-Talon Rue E, Saint-Leonard QC H1S 1N2",
                        "locality": "Saint-Leonard",
                        "postcode": "H1S 1N2",
                        "region": "QC"
                  },
                  "name": "Basha"
            }
      ],
      "context": {
            "geo_bounds": {
                  "circle": {
                        "center": {
                              "latitude": 45.58830297,
                              "longitude": -73.57783721
                        },
                        "radius": 1000
                  }
            }
      }
}