{
      "results": [
            {
                  "distance": 379,
                  "location": {
                        "address": "1602 Fleury Rue E",
                        "country": "CA",
                        "cross_street": "rue Francis",
                        "formatted_address": "1602 Fleury Rue E (rue Francis), Montr\u00e9al QC H2C 1S8",
                        "locality": "Montreal",
                        "postcode": "H2C 1S8",
                        "region": "QC"
                  },
                  "name": "Mamie Clafoutis",
                  "popularity": 0.9672478236184708,
                  "price": 1,
                  "rating": 9.2
            },
            {
                  "distance": 278,
                  "location": {
                        "address": "1652A Fleury Rue E",
                        "country": "CA",
                        "cross_street": "Garnier",
                        "formatted_address": "1652A Fleury Rue E (Garnier), Montr\u00e9al QC H2C 1S8",
                        "locality": "Montreal",
                        "postcode": "H2C 1S8",
                        "region": "QC"
                  },
                  "name": "Sweet Isabelle",
                  "popularity": 0.9126845193035579,
                  "price": 1,
                  "rating": 8.1
            },
            {
                  "distance": 119,
                  "location": {
                        "address": "1825 Fleury Rue E",
                        "country": "CA",
                        "cross_street": "",
                        "formatted_address": "1825 Fleury Rue E, Montr\u00e9al QC H2B 1H7",
                        "locality": "Montreal",
                        "postcode": "H2B 1H7",
                        "region": "QC"
                  },
                  "name": "Zagrum",
                  "popularity": 0.8681278387585163,
                  "price": 2,
                  "rating": 8.0
            },
            {
                  "distance": 107,
                  "location": {
                        "address": "10295 Papineau Ave",
                        "country": "CA",
                        "cross_street": "Rue Fleury Est",
                        "formatted_address": "10295 Papineau Ave (Rue Fleury Est), Montr\u00e9al QC H2B 2A1",
                        "locality": "Montreal",
                        "postcode": "H2B 2A1",
                        "region": "QC"
                  },
                  "name": "Broue Pub Brouhaha Papineau",
                  "popularity": 0.9967235995457986,
                  "rating": 7.2
            },
            {
                  "distance": 600,
                  "location": {
                        "address": "1499A Fleury Rue E",
                        "country": "CA",
                        "cross_street": "Avenue Hamel",
                        "formatted_address": "1499A Fleury Rue E (Avenue Hamel), Montr\u00e9al QC H2C 1S3",
                        "locality": "Montreal",
                        "postcode": "H2C 1S3",
                        "region": "QC"
                  },
                  "name": "Importations Cafe-Creme Inc",
                  "popularity": 0.8226249053747161,
                  "price": 1,
                  "rating": 7.0
            },
            {
                  "distance": 552,
                  "location": {
                        "address": "9797 Papineau Ave",
                        "country": "CA",
                        "cross_street": "coin Sauv\u00e9",
                        "formatted_address": "9797 Papineau Ave (coin Sauv\u00e9), Montr\u00e9al QC H2B 1Z5",
                        "locality": "Montreal",
                        "postcode": "H2B 1Z5",
                        "region": "QC"
                  },
                  "name": "McDonald's",
                  "popularity": 0.9969128501135504,
                  "price": 1,
                  "rating": 5.1,
                  "store_id": "40167"
            },
            {
                  "distance": 25,
                  "location": {
                        "address": "1751 Fleury Rue E",
                        "country": "CA",
                        "cross_street": "Marquette",
                        "formatted_address": "1751 Fleury Rue E (Marquette), Montr\u00e9al QC H2C 1T3",
                        "locality": "Montreal",
                        "postcode": "H2C 1T3",
                        "region": "QC"
                  },
                  "name": "Sushi Shop",
                  "popularity": 0.8945046366389099,
                  "price": 2
            },
            {
                  "distance": 411,
                  "location": {
                        "address": "2050 Fleury Rue E",
                        "country": "CA",
                        "cross_street": "",
                        "formatted_address": "2050 Fleury Rue E, Montr\u00e9al QC H2B 1J3",
                        "locality": "Montreal",
                        "postcode": "H2B 1J3",
                        "region": "QC"
                  },
                  "name": "Restaurant la Piccola",
                  "popularity": 0.9443485049205148,
                  "price": 2
            },
            {
                  "distance": 413,
                  "location": {
                        "address": "2070 Fleury E",
                        "country": "CA",
                        "cross_street": "",
                        "formatted_address": "2070 Fleury E, Montr\u00e9al QC",
                        "locality": "Montreal",
                        "region": "QC"
                  },
                  "name": "Bar Laitier",
                  "popularity": 0.02467354277062831,
                  "price": 1
            },
            {
                  "distance": 443,
                  "location": {
                        "address": "2070A Fleury Rue E",
                        "country": "CA",
                        "cross_street": "",
                        "formatted_address": "2070A Fleury Rue E, Montr\u00e9al QC H2B 1J3",
                        "locality": "Montreal",
                        "postcode": "H2B 1J3",
                        "region": "QC"
                  },
                  "name": "Bar Brewskis",
                  "popularity": 0.8230980317940954,
                  "price": 1
            },
            {
                  "distance": 476,
                  "location": {
                        "address": "1575 Fleury Rue E",
                        "address_extended": "Suite 100",
                        "country": "CA",
                        "cross_street": "",
                        "formatted_address": "1575 Fleury Rue E, Montr\u00e9al QC H2C 1S7",
                        "locality": "Montreal",
                        "postcode": "H2C 1S7",
                        "region": "QC"
                  },
                  "name": "Walter Bistro",
                  "popularity": 0.9233653482210447
            },
            {
                  "distance": 552,
                  "location": {
                        "address": "1905 Henri-Bourassa Blvd E",
                        "country": "CA",
                        "cross_street": "",
                        "formatted_address": "1905 Henri-Bourassa Blvd E, Montr\u00e9al QC H2B 1R9",
                        "locality": "Montreal",
                        "postcode": "H2B 1R9",
                        "region": "QC"
                  },
                  "name": "Atlass",
                  "popularity": 0.9204674489023467,
                  "price": 2
            },
            {
                  "distance": 651,
                  "location": {
                        "address": "2201 Fleury Rue E",
                        "country": "CA",
                        "cross_street": "",
                        "formatted_address": "2201 Fleury Rue E, Montr\u00e9al QC H2B 1K5",
                        "locality": "Montreal",
                        "postcode": "H2B 1K5",
                        "region": "QC"
                  },
                  "name": "Les Deux Copains",
                  "popularity": 0.9913654428463285,
                  "price": 1
            },
            {
                  "distance": 692,
                  "location": {
                        "address": "1432 Fleury Rue E",
                        "country": "CA",
                        "cross_street": "",
                        "formatted_address": "1432 Fleury Rue E, Montr\u00e9al QC H2C 1R8",
                        "locality": "Montreal",
                        "postcode": "H2C 1R8",
                        "region": "QC"
                  },
                  "name": "Le Pourvoyeur",
                  "popularity": 0.9212954201362604,
                  "price": 3
            },
            {
                  "distance": 769,
                  "location": {
                        "address": "2237 Fleury Rue E",
                        "country": "CA",
                        "cross_street": "Rue de Martigny",
                        "formatted_address": "2237 Fleury Rue E (Rue de Martigny), Montr\u00e9al QC H2B 1K5",
                        "locality": "Montreal",
                        "postcode": "H2B 1K5",
                        "region": "QC"
                  },
                  "name": "Le Jardin des Puits",
                  "popularity": 0.8476414647993944,
                  "price": 2
            },
            {
                  "distance": 817,
                  "location": {
                        "address": "1345 Fleury Rue E",
                        "country": "CA",
                        "cross_street": "",
                        "formatted_address": "1345 Fleury Rue E, Montr\u00e9al QC H2C 1R4",
                        "locality": "Montreal",
                        "postcode": "H2C 1R4",
                        "region": "QC"
                  },
                  "name": "Au Vieux Farfadet",
                  "popularity": 0.0667108251324754
            },
            {
                  "distance": 842,
                  "location": {
                        "address": "1348 Fleury Rue E",
                        "country": "CA",
                        "cross_street": "Avenue du Sacr\u00e9-Coeur",
                        "formatted_address": "1348 Fleury Rue E (Avenue du Sacr\u00e9-Coeur), Montr\u00e9al QC H2C 1R3",
                        "locality": "Montreal",
                        "postcode": "H2C 1R3",
                        "region": "QC"
                  },
                  "name": "Le Rendez Vous du Th\u00e9",
                  "popularity": 0.8480672785768357,
                  "price": 2
            },
            {
                  "distance": 897,
                  "location": {
                        "address": "1314 Fleury Rue E",
                        "country": "CA",
                        "cross_street": "",
                        "formatted_address": "1314 Fleury Rue E, Montr\u00e9al QC H2C 1R3",
                        "locality": "Montreal",
                        "postcode": "H2C 1R3",
                        "region": "QC"
                  },
                  "name": "William J Walter Fleury",
                  "popularity": 0.9026187547312642
            },
            {
                  "distance": 898,
                  "location": {
                        "address": "2103 Gouin Blvd E",
                        "country": "CA",
                        "cross_street": "",
                        "formatted_address": "2103 Gouin Blvd E, Montr\u00e9al QC H2B 1X1",
                        "locality": "Montreal",
                        "postcode": "H2B 1X1",
                        "region": "QC"
                  },
                  "name": "Racer Caf\u00e9",
                  "popularity": 0.9679693414080243,
                  "price": 1
            },
            {
                  "distance": 947,
                  "location": {
                        "address": "2145 Gouin Blvd E",
                        "country": "CA",
                        "cross_street": "",
                        "formatted_address": "2145 Gouin Blvd E, Montr\u00e9al QC H2B 1X1",
                        "locality": "Montreal",
                        "postcode": "H2B 1X1",
                        "region": "QC"
                  },
                  "name": "Le Pressoir du Sault",
                  "popularity": 0.12643120741862227,
                  "price": 1
            },
            {
                  "distance": 984,
                  "location": {
                        "address": "2481 Fleury Rue E",
                        "country": "CA",
                        "cross_street": "Iberville",
                        "formatted_address": "2481 Fleury Rue E (Iberville), Montr\u00e9al QC H2B 1L4",
                        "locality": "Montreal",
                        "postcode": "H2B 1L4",
                        "region": "QC"
                  },
                  "name": "Gourmet d'Asie",
                  "popularity": 0.8302067562452687,
                  "price": 2
            },
            {
                  "distance": 288,
                  "location": {
                        "address": "1652A Fleury Rue E",
                        "country": "CA",
                        "formatted_address": "1652A Fleury Rue E, Montreal QC H2C 1S8",
                        "locality": "Montreal",
                        "postcode": "H2C 1S8",
                        "region": "QC"
                  },
                  "name": "Creation et Atelier Sweet Isabelle Inc"
            },
            {
                  "distance": 439,
                  "location": {
                        "address": "1584 Fleury Rue E",
                        "country": "CA",
                        "formatted_address": "1584 Fleury Rue E, Montreal QC H2C 1S6",
                        "locality": "Montreal",
                        "postcode": "H2C 1S6",
                        "region": "QC"
                  },
                  "name": "Sweet Isabelle"
            },
            {
                  "distance": 497,
                  "location": {
                        "address": "1799 Sauve Rue E",
                        "country": "CA",
                        "formatted_address": "1799 Sauve Rue E, Montreal QC H2C 3H2",
                        "locality": "Montreal",
                        "postcode": "H2C 3H2",
                        "region": "QC"
                  },
                  "name": "Restaurant Dag"
            },
            {
                  "distance": 557,
                  "location": {
                        "address": "1905 Henri-Bourassa Blvd E",
                        "country": "CA",
                        "formatted_address": "1905 Henri-Bourassa Blvd E, Montreal QC H2B 1R9",
                        "locality": "Montreal",
                        "postcode": "H2B 1R9",
                        "region": "QC"
                  },
                  "name": "Boucherie et Grillades Atlas"
            },
            {
                  "distance": 593,
                  "location": {
                        "address": "2179 Fleury Rue E",
                        "country": "CA",
                        "formatted_address": "2179 Fleury Rue E, Montreal QC H2B 1J9",
                        "locality": "Montreal",
                        "postcode": "H2B 1J9",
                        "region": "QC"
                  },
                  "name": "Resto-Bar Gelbison"
            },
            {
                  "distance": 706,
                  "location": {
                        "address": "1418 Fleury Rue E",
                        "country": "CA",
                        "formatted_address": "1418 Fleury Rue E, Montreal QC H2C 1R8",
                        "locality": "Montreal",
                        "postcode": "H2C 1R8",
                        "region": "QC"
                  },
                  "name": "Baguettes d'Or"
            },
            {
                  "distance": 740,
                  "location": {
                        "address": "2260 Fleury Rue E",
                        "country": "CA",
                        "formatted_address": "2260 Fleury Rue E, Montreal QC H2B 1K6",
                        "locality": "Montreal",
                        "postcode": "H2B 1K6",
                        "region": "QC"
                  },
                  "name": "Resto Bistro l'Antidote"
            },
            {
                  "distance": 751,
                  "location": {
                        "address": "2260 Fleury Rue E",
                        "country": "CA",
                        "formatted_address": "2260 Fleury Rue E, Montreal QC H2B 1K6",
                        "locality": "Montreal",
                        "postcode": "H2B 1K6",
                        "region": "QC"
                  },
                  "name": "Resto-Pizzeria DZ Taouk"
            },
            {
                  "distance": 850,
                  "location": {
                        "address": "1345 Fleury Rue E",
                        "country": "CA",
                        "formatted_address": "1345 Fleury Rue E, Montreal QC H2C 1R4",
                        "locality": "Montreal",
                        "postcode": "H2C 1R4",
                        "region": "QC"
                  },
                  "name": "Sacr\u00e9 F\u00fbt"
            },
            {
                  "distance": 894,
                  "location": {
                        "address": "1308 Fleury Rue E",
                        "country": "CA",
                        "formatted_address": "1308 Fleury Rue E, Montreal QC H2C 1R3",
                        "locality": "Montreal",
                        "postcode": "H2C 1R3",
                        "region": "QC"
                  },
                  "name": "Fabrique Caramel"
            },
            {
                  "distance": 979,
                  "location": {
                        "address": "1216 Fleury Rue E",
                        "country": "CA",
                        "formatted_address": "1216 Fleury Rue E, Montreal QC H2C 1R1",
                        "locality": "Montreal",
                        "postcode": "H2C 1R1",
                        "region": "QC"
                  },
                  "name": "Le Pok\u00e9 Station"
            },
            {
                  "distance": 979,
                  "location": {
                        "address": "1210 Fleury Rue E",
                        "country": "CA",
                        "formatted_address": "1210 Fleury Rue E, Montreal QC H2C 1R1",
                        "locality": "Montreal",
                        "postcode": "H2C 1R1",
                        "region": "QC"
                  },
                  "name": "Glace Pile"
            },
            {
                  "distance": 987,
                  "location": {
                        "address": "2476 Fleury Rue E",
                        "country": "CA",
                        "formatted_address": "2476 Fleury Rue E, Montreal QC H2B 1L3",
                        "locality": "Montreal",
                        "postcode": "H2B 1L3",
                        "region": "QC"
                  },
                  "name": "Pizza Resto Charito"
            }
      ],
      "context": {
            "geo_bounds": {
                  "circle": {
                        "center": {
                              "latitude": 45.56735206,
                              "longitude": -73.65378745
                        },
                        "radius": 1000
                  }
            }
      }
}