{
      "results": [
            {
                  "distance": 279,
                  "location": {
                        "address": "7999 des Galeries d'Anjou Blvd",
                        "address_extended": "Galeries D'Anjou",
                        "country": "CA",
                        "cross_street": "",
                        "formatted_address": "7999 des Galeries d'Anjou Blvd, Anjou QC H1M 1W9",
                        "locality": "Anjou",
                        "postcode": "H1M 1W9",
                        "region": "QC"
                  },
                  "name": "La Belle & la Boeuf",
                  "popularity": 0.9904073618470856,
                  "price": 1,
                  "rating": 7.4
            },
            {
                  "distance": 923,
                  "location": {
                        "address": "6675 Jean-Talon Rue E",
                        "country": "CA",
                        "cross_street": "",
                        "formatted_address": "6675 Jean-Talon Rue E, Montr\u00e9al QC H1S 1N2",
                        "locality": "Montreal",
                        "postcode": "H1S 1N2",
                        "region": "QC"
                  },
                  "name": "R\u00f4tisserie Scores",
                  "popularity": 0.9697199091597275,
                  "price": 2,
                  "rating": 7.2,
                  "store_id": "SC_14"
            },
            {
                  "distance": 178,
                  "location": {
                        "address": "7225 des Galeries d'Anjou Blvd",
                        "country": "CA",
                        "cross_street": "rue Saint-Zotique",
                        "formatted_address": "7225 des Galeries d'Anjou Blvd (rue Saint-Zotique), Anjou QC H1M 2W2",
                        "locality": "Anjou",
                        "postcode": "H1M 2W2",
                        "region": "QC"
                  },
                  "name": "Les 3 Brasseurs",
                  "popularity": 0.9852502838758517,
                  "price": 2,
                  "rating": 7.1
            },
            {
                  "distance": 834,
                  "location": {
                        "address": "7265 Langelier Blvd",
                        "country": "CA",
                        "cross_street": "B\u00e9langer",
                        "formatted_address": "7265 Langelier Blvd (B\u00e9langer), Montr\u00e9al QC H1S 1V6",
                        "locality": "Montreal",
                        "postcode": "H1S 1V6",
                        "region": "QC"
                  },
                  "name": "L'Oeuf Dor\u00e9",
                  "popularity": 0.9489141748675246,
                  "price": 1,
                  "rating": 7.1
            },
            {
                  "distance": 666,
                  "location": {
                        "address": "6836A7 Jean Talon Rue E",
                        "country": "CA",
                        "formatted_address": "6836A7 Jean Talon Rue E, Montr\u00e9al QC H1S 1N1",
                        "locality": "Montreal",
                        "postcode": "H1S 1N1",
                        "region": "QC"
                  },
                  "name": "Ottavio",
                  "popularity": 0.9963924110522332,
                  "price": 2,
                  "rating": 6.8
            },
            {
                  "distance": 42,
                  "location": {
                        "address": "7295 des Galeries-Danjou Blvd",
                        "country": "CA",
                        "formatted_address": "7295 des Galeries-Danjou Blvd, Anjou QC H1M 2W2",
                        "locality": "Anjou",
                        "postcode": "H1M 2W2",
                        "region": "QC"
                  },
                  "name": "Tim Hortons",
                  "popularity": 0.968773656320969,
                  "price": 1,
                  "rating": 6.6
            },
            {
                  "distance": 376,
                  "location": {
                        "address": "7999 des Galeries d'Anjou Blvd",
                        "address_extended": "Galeries D'Anjou",
                        "country": "CA",
                        "cross_street": "",
                        "formatted_address": "7999 des Galeries d'Anjou Blvd, Anjou QC H1M 1W9",
                        "locality": "Anjou",
                        "postcode": "H1M 1W9",
                        "region": "QC"
                  },
                  "name": "A&W Restaurant",
                  "popularity": 0.88138720666162,
                  "price": 1,
                  "rating": 6.5,
                  "store_id": "5144"
            },
            {
                  "distance": 402,
                  "location": {
                        "address": "7999 des Galeries d'Anjou Blvd",
                        "address_extended": "CF Galeries D'Anjou",
                        "country": "CA",
                        "cross_street": "",
                        "formatted_address": "7999 des Galeries d'Anjou Blvd, Anjou QC H1M 1W9",
                        "locality": "Anjou",
                        "postcode": "H1M 1W9",
                        "region": "QC"
                  },
                  "name": "Thai Express",
                  "popularity": 0.946465745647237,
                  "price": 2,
                  "rating": 6.5,
                  "store_id": "59"
            },
            {
                  "distance": 757,
                  "location": {
                        "address": "6270 Louis-H. Lafontaine Blvd",
                        "country": "CA",
                        "formatted_address": "6270 Louis-H. Lafontaine Blvd, Montr\u00e9al QC H1M 1S8",
                        "locality": "Montreal",
                        "postcode": "H1M 1S8",
                        "region": "QC"
                  },
                  "name": "Tim Hortons",
                  "popularity": 0.9908095193035579,
                  "price": 1,
                  "rating": 6.5
            },
            {
                  "distance": 936,
                  "location": {
                        "address": "6110 Louis-H.-La Fontaine Blvd",
                        "country": "CA",
                        "cross_street": "entre Des Roseraies & Beaubien",
                        "formatted_address": "6110 Louis-H.-La Fontaine Blvd (entre Des Roseraies & Beaubien), Montr\u00e9al QC H1M 1S8",
                        "locality": "Montreal",
                        "postcode": "H1M 1S8",
                        "region": "QC"
                  },
                  "name": "Dic Ann's Hamburgers",
                  "popularity": 0.9404097274791824,
                  "price": 1,
                  "rating": 6.4
            },
            {
                  "distance": 406,
                  "location": {
                        "address": "7300 des Roseraies Blvd",
                        "country": "CA",
                        "cross_street": "Place des Roseraies",
                        "formatted_address": "7300 des Roseraies Blvd (Place des Roseraies), Anjou QC H1M 2T5",
                        "locality": "Anjou",
                        "postcode": "H1M 2T5",
                        "region": "QC"
                  },
                  "name": "Boston Pizza",
                  "popularity": 0.9678392316426949,
                  "price": 1,
                  "rating": 6.3,
                  "store_id": "BP_238"
            },
            {
                  "distance": 1003,
                  "location": {
                        "address": "7090 Langelier Blvd",
                        "address_extended": "Marche Langelier",
                        "country": "CA",
                        "cross_street": "",
                        "formatted_address": "7090 Langelier Blvd, Montr\u00e9al QC H1S 2X6",
                        "locality": "Montreal",
                        "postcode": "H1S 2X6",
                        "region": "QC"
                  },
                  "name": "Starbucks",
                  "popularity": 0.993908497350492,
                  "price": 1,
                  "rating": 6.2,
                  "store_id": "18198-174465"
            },
            {
                  "distance": 869,
                  "location": {
                        "address": "7373 Langelier Blvd",
                        "address_extended": "Suite C-1",
                        "country": "CA",
                        "cross_street": "Jean-Talon",
                        "formatted_address": "7373 Langelier Blvd (Jean-Talon), Saint-Leonard QC H1S 1V7",
                        "locality": "Saint-L\u00e9onard",
                        "postcode": "H1S 1V7",
                        "region": "QC"
                  },
                  "name": "Subway",
                  "popularity": 0.9621853709311128,
                  "price": 1,
                  "rating": 6.1,
                  "store_id": "#16293"
            },
            {
                  "distance": 43,
                  "location": {
                        "address": "7275 des Galeries d'Anjou Blvd",
                        "country": "CA",
                        "cross_street": "",
                        "formatted_address": "7275 des Galeries d'Anjou Blvd, Anjou QC H1M 2W2",
                        "locality": "Anjou",
                        "postcode": "H1M 2W2",
                        "region": "QC"
                  },
                  "name": "Restaurant l'Acad\u00e9mie",
                  "popularity": 0.9766630393641181,
                  "price": 3,
                  "rating": 5.8
            },
            {
                  "distance": 781,
                  "location": {
                        "address": "8100 Ave de Neuville",
                        "country": "CA",
                        "cross_street": "",
                        "formatted_address": "8100 Ave de Neuville, Anjou QC H1J 2T2",
                        "locality": "Anjou",
                        "postcode": "H1J 2T2",
                        "region": "QC"
                  },
                  "name": "Quality Hotel Parc Olympique",
                  "popularity": 0.929563304314913,
                  "price": 3,
                  "rating": 5.3
            },
            {
                  "distance": 852,
                  "location": {
                        "address": "7373 Langelier Blvd",
                        "address_extended": "C8",
                        "country": "CA",
                        "cross_street": "",
                        "formatted_address": "7373 Langelier Blvd, Montr\u00e9al QC H1S 1V7",
                        "locality": "Montreal",
                        "postcode": "H1S 1V7",
                        "region": "QC"
                  },
                  "name": "Mandarin Buffet Chinois Langelier Inc le",
                  "popularity": 0.9664080242240727,
                  "price": 1,
                  "rating": 5.2
            },
            {
                  "distance": 230,
                  "location": {
                        "address": "7101 des Galeries d'Anjou Blvd",
                        "country": "CA",
                        "cross_street": "",
                        "formatted_address": "7101 des Galeries d'Anjou Blvd, Anjou QC H1M 2W2",
                        "locality": "Anjou",
                        "postcode": "H1M 2W2",
                        "region": "QC"
                  },
                  "name": "McDonald's",
                  "popularity": 0.9848717827403483,
                  "price": 1,
                  "rating": 5.2
            },
            {
                  "distance": 309,
                  "location": {
                        "address": "7270 Saint Zotique Rue E",
                        "country": "CA",
                        "cross_street": "",
                        "formatted_address": "7270 Saint Zotique Rue E, Anjou QC H1M 3A5",
                        "locality": "Anjou",
                        "postcode": "H1M 3A5",
                        "region": "QC"
                  },
                  "name": "Gringos",
                  "popularity": 0.06006339894019682,
                  "price": 2
            },
            {
                  "distance": 313,
                  "location": {
                        "address": "7999 des Galeries d'Anjou Blvd",
                        "address_extended": "Galeries D'Anjou",
                        "country": "CA",
                        "cross_street": "Galeries D'anjou",
                        "formatted_address": "7999 des Galeries d'Anjou Blvd (Galeries D'anjou), Anjou QC H1M 1W9",
                        "locality": "Anjou",
                        "postcode": "H1M 1W9",
                        "region": "QC"
                  },
                  "name": "Kojax Souflaki",
                  "popularity": 0.9227384557153672,
                  "price": 2
            },
            {
                  "distance": 349,
                  "location": {
                        "address": "7999 des Galeries d'Anjou Blvd",
                        "address_extended": "Suite F001",
                        "country": "CA",
                        "cross_street": "",
                        "formatted_address": "7999 des Galeries d'Anjou Blvd, Anjou QC H1M 1W9",
                        "locality": "Anjou",
                        "postcode": "H1M 1W9",
                        "region": "QC"
                  },
                  "name": "Subway",
                  "popularity": 0.8240915972747919,
                  "price": 1,
                  "store_id": "18378"
            },
            {
                  "distance": 381,
                  "location": {
                        "address": "7500 des Galeries-Danjou Blvd",
                        "country": "CA",
                        "cross_street": "",
                        "formatted_address": "7500 des Galeries-Danjou Blvd, Anjou QC H1M 3M4",
                        "locality": "Anjou",
                        "postcode": "H1M 3M4",
                        "region": "QC"
                  },
                  "name": "Tim Hortons",
                  "popularity": 0.929172975018925,
                  "price": 2
            },
            {
                  "distance": 381,
                  "location": {
                        "address": "7999 des Galeries d'Anjou Blvd",
                        "country": "CA",
                        "cross_street": "",
                        "formatted_address": "7999 des Galeries d'Anjou Blvd, Montr\u00e9al QC H1M 1W9",
                        "locality": "Montreal",
                        "postcode": "H1M 1W9",
                        "region": "QC"
                  },
                  "name": "Burrito Revoluci\u00f3n",
                  "popularity": 0.9370150454201362,
                  "price": 1
            },
            {
                  "distance": 402,
                  "location": {
                        "address": "7999 des Galeries d'Anjou Blvd",
                        "address_extended": "Galeries D'Anjou",
                        "country": "CA",
                        "cross_street": "",
                        "formatted_address": "7999 des Galeries d'Anjou Blvd, Montr\u00e9al QC H1M 1W9",
                        "locality": "Montreal",
                        "postcode": "H1M 1W9",
                        "region": "QC"
                  },
                  "name": "Manchu Wok",
                  "popularity": 0.9799985806207419,
                  "price": 1
            },
            {
                  "distance": 402,
                  "location": {
                        "address": "7999 des Galeries d'Anjou Blvd",
                        "address_extended": "Les Galeries d'Anjou",
                        "country": "CA",
                        "cross_street": "",
                        "formatted_address": "7999 des Galeries d'Anjou Blvd, Anjou QC H1M 1W9",
                        "locality": "Anjou",
                        "postcode": "H1M 1W9",
                        "region": "QC"
                  },
                  "name": "Muffin Plus",
                  "popularity": 0.9839373580620742,
                  "price": 1
            },
            {
                  "distance": 402,
                  "location": {
                        "address": "7999 des Galeries d'Anjou Blvd",
                        "country": "CA",
                        "cross_street": "",
                        "formatted_address": "7999 des Galeries d'Anjou Blvd, Anjou QC H1M 1W9",
                        "locality": "Anjou",
                        "postcode": "H1M 1W9",
                        "region": "QC"
                  },
                  "name": "Jugo Juice",
                  "popularity": 0.9086511165783497,
                  "price": 1
            },
            {
                  "distance": 402,
                  "location": {
                        "address": "7999 des Galeries d'Anjou Blvd",
                        "address_extended": "Les Galeries d'Anjou",
                        "country": "CA",
                        "cross_street": "",
                        "formatted_address": "7999 des Galeries d'Anjou Blvd, Anjou QC H1M 1W9",
                        "locality": "Anjou",
                        "postcode": "H1M 1W9",
                        "region": "QC"
                  },
                  "name": "Industria Pizzeria and Bar",
                  "popularity": 0.9813706472369417,
                  "price": 2
            },
            {
                  "distance": 424,
                  "location": {
                        "address": "7500 des Galeries d'Anjou Blvd",
                        "address_extended": "Bureau 18",
                        "country": "CA",
                        "cross_street": "",
                        "formatted_address": "7500 des Galeries d'Anjou Blvd, Anjou QC H1M 3M4",
                        "locality": "Anjou",
                        "postcode": "H1M 3M4",
                        "region": "QC"
                  },
                  "name": "Pastafresca",
                  "popularity": 0.7110262112036336
            },
            {
                  "distance": 424,
                  "location": {
                        "address": "7500 des Galeries d'Anjou Blvd",
                        "address_extended": "# 22",
                        "country": "CA",
                        "cross_street": "",
                        "formatted_address": "7500 des Galeries d'Anjou Blvd, Anjou QC H1M 3M4",
                        "locality": "Anjou",
                        "postcode": "H1M 3M4",
                        "region": "QC"
                  },
                  "name": "Mmmuffins",
                  "popularity": 0.5445803368660106,
                  "price": 1
            },
            {
                  "distance": 519,
                  "location": {
                        "address": "7999 Galeries d'Anjou",
                        "country": "CA",
                        "cross_street": "",
                        "formatted_address": "7999 Galeries d'Anjou, Montr\u00e9al QC",
                        "locality": "Montreal",
                        "region": "QC"
                  },
                  "name": "Place Tevere",
                  "popularity": 0.8490608440575321,
                  "price": 1
            },
            {
                  "distance": 535,
                  "location": {
                        "address": "7999 des Galeries d'Anjou Blvd",
                        "country": "CA",
                        "cross_street": "",
                        "formatted_address": "7999 des Galeries d'Anjou Blvd, Anjou QC H1M 1W9",
                        "locality": "Anjou",
                        "postcode": "H1M 1W9",
                        "region": "QC"
                  },
                  "name": "Cultures",
                  "popularity": 0.8506339894019682,
                  "price": 1
            },
            {
                  "distance": 637,
                  "location": {
                        "address": "6878 Jean-Talon Rue E",
                        "country": "CA",
                        "cross_street": "",
                        "formatted_address": "6878 Jean-Talon Rue E, Montr\u00e9al QC H1S 1N1",
                        "locality": "Montreal",
                        "postcode": "H1S 1N1",
                        "region": "QC"
                  },
                  "name": "Maison Istanbul",
                  "popularity": 0.9453538985616957,
                  "price": 2
            },
            {
                  "distance": 762,
                  "location": {
                        "address": "6683 Jean-Talon Rue E",
                        "country": "CA",
                        "cross_street": "",
                        "formatted_address": "6683 Jean-Talon Rue E, Saint-Leonard QC H1S 0A5",
                        "locality": "Saint-L\u00e9onard",
                        "postcode": "H1S 0A5",
                        "region": "QC"
                  },
                  "name": "Bacaro Pizzeria",
                  "popularity": 0.7629518357305072,
                  "price": 2
            },
            {
                  "distance": 769,
                  "location": {
                        "address": "8100 Ave de Neuville",
                        "country": "CA",
                        "cross_street": "",
                        "formatted_address": "8100 Ave de Neuville, Anjou QC H1J 2T2",
                        "locality": "Anjou",
                        "postcode": "H1J 2T2",
                        "region": "QC"
                  },
                  "name": "Graffiti's Restaurant-Bar",
                  "popularity": 0.8457607872823618,
                  "price": 3
            },
            {
                  "distance": 929,
                  "location": {
                        "address": "6683 Jean-Talon Rue E",
                        "country": "CA",
                        "cross_street": "",
                        "formatted_address": "6683 Jean-Talon Rue E, Montr\u00e9al QC H1S 0A5",
                        "locality": "Montreal",
                        "postcode": "H1S 0A5",
                        "region": "QC"
                  },
                  "name": "Sushi Shop",
                  "popularity": 0.11552564345193035,
                  "price": 2
            },
            {
                  "distance": 951,
                  "location": {
                        "address": "6669 Jean-Talon Rue E",
                        "country": "CA",
                        "cross_street": "",
                        "formatted_address": "6669 Jean-Talon Rue E, Saint-Leonard QC H1S 1N2",
                        "locality": "Saint-L\u00e9onard",
                        "postcode": "H1S 1N2",
                        "region": "QC"
                  },
                  "name": "Pizza Pizza",
                  "popularity": 0.22695874337623012,
                  "price": 1,
                  "store_id": "336"
            }
      ],
      "context": {
            "geo_bounds": {
                  "circle": {
                        "center": {
                              "latitude": 45.59722115,
                              "longitude": -73.56279016
                        },
                        "radius": 1000
                  }
            }
      }
}