{
      "results": [
            {
                  "distance": 749,
                  "location": {
                        "address": "2110 Belanger Rue",
                        "country": "CA",
                        "cross_street": "",
                        "formatted_address": "2110 Belanger Rue, Montr\u00e9al QC H2G 1C2",
                        "locality": "Montreal",
                        "postcode": "H2G 1C2",
                        "region": "QC"
                  },
                  "name": "Paquebot",
                  "popularity": 0.9647520817562453,
                  "price": 1,
                  "rating": 9.2
            },
            {
                  "distance": 817,
                  "location": {
                        "address": "2350 Beaubien Rue E",
                        "country": "CA",
                        "cross_street": "Des \u00c9cores",
                        "formatted_address": "2350 Beaubien Rue E (Des \u00c9cores), Montr\u00e9al QC H2G 1N2",
                        "locality": "Montreal",
                        "postcode": "H2G 1N2",
                        "region": "QC"
                  },
                  "name": "L'Affaire est Chocolat",
                  "popularity": 0.8962078917486752,
                  "price": 1,
                  "rating": 8.4
            },
            {
                  "distance": 702,
                  "location": {
                        "address": "2510 Beaubien Rue E",
                        "country": "CA",
                        "cross_street": "d'Iberville",
                        "formatted_address": "2510 Beaubien Rue E (d'Iberville), Montr\u00e9al QC H1Y 1G2",
                        "locality": "Montreal",
                        "postcode": "H1Y 1G2",
                        "region": "QC"
                  },
                  "name": "Pizzeria Geppetto",
                  "popularity": 0.8779570401211204,
                  "price": 2,
                  "rating": 8.4
            },
            {
                  "distance": 813,
                  "location": {
                        "address": "2352 Beaubien Rue E",
                        "country": "CA",
                        "cross_street": "Des \u00c9cores",
                        "formatted_address": "2352 Beaubien Rue E (Des \u00c9cores), Montr\u00e9al QC H2G 1N2",
                        "locality": "Montreal",
                        "postcode": "H2G 1N2",
                        "region": "QC"
                  },
                  "name": "Sushi Royal 5 Inc",
                  "popularity": 0.8272497161241483,
                  "price": 2,
                  "rating": 8.2
            },
            {
                  "distance": 972,
                  "location": {
                        "address": "1950 Jean-Talon Rue E",
                        "country": "CA",
                        "cross_street": "Chabot",
                        "formatted_address": "1950 Jean-Talon Rue E (Chabot), Montr\u00e9al QC H2E 1T8",
                        "locality": "Montreal",
                        "postcode": "H2E 1T8",
                        "region": "QC"
                  },
                  "name": "Boulangerie & Charcuterie San Pietro",
                  "popularity": 0.953763720666162,
                  "price": 1,
                  "rating": 8.2
            },
            {
                  "distance": 808,
                  "location": {
                        "address": "2355 Beaubien Rue E",
                        "country": "CA",
                        "formatted_address": "2355 Beaubien Rue E, Montr\u00e9al QC H2G 1N3",
                        "locality": "Montreal",
                        "postcode": "H2G 1N3",
                        "region": "QC"
                  },
                  "name": "Froment et de S\u00e8ve",
                  "popularity": 0.9245008516275549,
                  "price": 1,
                  "rating": 7.8
            },
            {
                  "distance": 800,
                  "location": {
                        "address": "6505 des Ecores Rue",
                        "country": "CA",
                        "cross_street": "Beaubien Est",
                        "formatted_address": "6505 des Ecores Rue (Beaubien Est), Montr\u00e9al QC H2G 2J8",
                        "locality": "Montreal",
                        "postcode": "H2G 2J8",
                        "region": "QC"
                  },
                  "name": "Randolph Pub Ludique",
                  "popularity": 0.9249148372445117,
                  "price": 1,
                  "rating": 7.8
            },
            {
                  "distance": 908,
                  "location": {
                        "address": "2224 Beaubien Rue E",
                        "country": "CA",
                        "formatted_address": "2224 Beaubien Rue E, Montr\u00e9al QC H2G 1M7",
                        "locality": "Montreal",
                        "postcode": "H2G 1M7",
                        "region": "QC"
                  },
                  "name": "Marconi Pizzeria",
                  "popularity": 0.8903529523088569,
                  "price": 1,
                  "rating": 7.7
            },
            {
                  "distance": 863,
                  "location": {
                        "address": "2316 Beaubien Rue E",
                        "country": "CA",
                        "cross_street": "Louis-H\u00e9mon",
                        "formatted_address": "2316 Beaubien Rue E (Louis-H\u00e9mon), Montr\u00e9al QC H2G 1M9",
                        "locality": "Montreal",
                        "postcode": "H2G 1M9",
                        "region": "QC"
                  },
                  "name": "Bistro Chez Roger",
                  "popularity": 0.9417817940953823,
                  "price": 2,
                  "rating": 7.7
            },
            {
                  "distance": 718,
                  "location": {
                        "address": "2500 Beaubien Rue E",
                        "country": "CA",
                        "cross_street": "coin d'Iberville",
                        "formatted_address": "2500 Beaubien Rue E (coin d'Iberville), Montr\u00e9al QC H1Y 1G2",
                        "locality": "Montreal",
                        "postcode": "H1Y 1G2",
                        "region": "QC"
                  },
                  "name": "Resto la Grand-M\u00e8re Poule",
                  "popularity": 0.9470926381529144,
                  "price": 1,
                  "rating": 7.6
            },
            {
                  "distance": 577,
                  "location": {
                        "address": "3296 Jean-Talon Rue E",
                        "country": "CA",
                        "cross_street": "Boul.St-Michel",
                        "formatted_address": "3296 Jean-Talon Rue E (Boul.St-Michel), Montr\u00e9al QC H2A 1W3",
                        "locality": "Montreal",
                        "postcode": "H2A 1W3",
                        "region": "QC"
                  },
                  "name": "Bar Zoe Karaoke et Cocktails",
                  "popularity": 0.974522142316427,
                  "price": 2,
                  "rating": 7.6
            },
            {
                  "distance": 729,
                  "location": {
                        "address": "2480 Beaubien Rue E",
                        "country": "CA",
                        "cross_street": "btwn Louis-H\u00e9bert & Iberville",
                        "formatted_address": "2480 Beaubien Rue E (btwn Louis-H\u00e9bert & Iberville), Montr\u00e9al QC H2G 1N4",
                        "locality": "Montreal",
                        "postcode": "H2G 1N4",
                        "region": "QC"
                  },
                  "name": "Bistro D\u00e9tour",
                  "popularity": 0.8823926003028009,
                  "price": 3,
                  "rating": 7.3
            },
            {
                  "distance": 939,
                  "location": {
                        "address": "2200 Beaubien Rue E",
                        "country": "CA",
                        "cross_street": "At Des Erables",
                        "formatted_address": "2200 Beaubien Rue E (At Des Erables), Montr\u00e9al QC H2G 1M7",
                        "locality": "Montreal",
                        "postcode": "H2G 1M7",
                        "region": "QC"
                  },
                  "name": "Nouveau Canada",
                  "popularity": 0.9369677327781983,
                  "price": 1,
                  "rating": 7.1
            },
            {
                  "distance": 622,
                  "location": {
                        "address": "3397 Saint-Zotique Rue E",
                        "country": "CA",
                        "cross_street": "",
                        "formatted_address": "3397 Saint-Zotique Rue E, Montr\u00e9al QC H1X 1C7",
                        "locality": "Montreal",
                        "postcode": "H1X 1C7",
                        "region": "QC"
                  },
                  "name": "Au Coq",
                  "popularity": 0.962043433005299,
                  "price": 1,
                  "rating": 6.7
            },
            {
                  "distance": 538,
                  "location": {
                        "address": "3410 Belanger Rue",
                        "country": "CA",
                        "cross_street": "13th Avenue",
                        "formatted_address": "3410 Belanger Rue (13th Avenue), Montr\u00e9al QC H1X 1A6",
                        "locality": "Montreal",
                        "postcode": "H1X 1A6",
                        "region": "QC"
                  },
                  "name": "Merson's Patisserie",
                  "popularity": 0.8872776305828918,
                  "price": 2,
                  "rating": 5.9
            },
            {
                  "distance": 314,
                  "location": {
                        "address": "2613 Jean Talon Rue E",
                        "country": "CA",
                        "cross_street": "",
                        "formatted_address": "2613 Jean Talon Rue E, Montr\u00e9al QC",
                        "locality": "Montreal",
                        "region": "QC"
                  },
                  "name": "Resto Cafe Tamaris",
                  "popularity": 0.09826835730507191,
                  "price": 2
            },
            {
                  "distance": 321,
                  "location": {
                        "address": "2548 Belanger Rue",
                        "country": "CA",
                        "cross_street": "Belanger",
                        "formatted_address": "2548 Belanger Rue (Belanger), Montr\u00e9al QC H1Y 1A1",
                        "locality": "Montreal",
                        "postcode": "H1Y 1A1",
                        "region": "QC"
                  },
                  "name": "Bar Excel",
                  "popularity": 0.9128974261922785,
                  "price": 3
            },
            {
                  "distance": 407,
                  "location": {
                        "address": "2566 Jean Talon Rue E",
                        "country": "CA",
                        "cross_street": "",
                        "formatted_address": "2566 Jean Talon Rue E, Montr\u00e9al QC H2A 1T9",
                        "locality": "Montreal",
                        "postcode": "H2A 1T9",
                        "region": "QC"
                  },
                  "name": "Kokoriko",
                  "popularity": 0.6628737698713096,
                  "price": 2
            },
            {
                  "distance": 441,
                  "location": {
                        "address": "2524 Jean-Talon Rue E",
                        "country": "CA",
                        "cross_street": "D' Iberville",
                        "formatted_address": "2524 Jean-Talon Rue E (D' Iberville), Montr\u00e9al QC H2A 1T7",
                        "locality": "Montreal",
                        "postcode": "H2A 1T7",
                        "region": "QC"
                  },
                  "name": "Mexico Restaurant",
                  "popularity": 0.8773301476154428,
                  "price": 1
            },
            {
                  "distance": 461,
                  "location": {
                        "address": "2517 Jean-Talon Rue E",
                        "country": "CA",
                        "cross_street": "Iberville",
                        "formatted_address": "2517 Jean-Talon Rue E (Iberville), Montr\u00e9al QC H2A 1T6",
                        "locality": "Montreal",
                        "postcode": "H2A 1T6",
                        "region": "QC"
                  },
                  "name": "Casse-Cro\u00fbte Sissi & Paul",
                  "popularity": 0.9293030847842544,
                  "price": 2
            },
            {
                  "distance": 538,
                  "location": {
                        "address": "3391 Belair Rue",
                        "country": "CA",
                        "cross_street": "13e avenue",
                        "formatted_address": "3391 Belair Rue (13e avenue), Montr\u00e9al QC H2A 2A6",
                        "locality": "Montreal",
                        "postcode": "H2A 2A6",
                        "region": "QC"
                  },
                  "name": "Montr\u00e9al Caf\u00e9 Restaurent Carthage",
                  "popularity": 0.8973788796366389,
                  "price": 1
            },
            {
                  "distance": 583,
                  "location": {
                        "address": "3222 Beaubien Rue E",
                        "country": "CA",
                        "cross_street": "St-Michel",
                        "formatted_address": "3222 Beaubien Rue E (St-Michel), Montr\u00e9al QC H1Y 1H7",
                        "locality": "Montreal",
                        "postcode": "H1Y 1H7",
                        "region": "QC"
                  },
                  "name": "Pho Hung Restaurant",
                  "popularity": 0.03770817562452687,
                  "price": 2
            },
            {
                  "distance": 675,
                  "location": {
                        "address": "3124 Beaubien Rue E",
                        "country": "CA",
                        "cross_street": "",
                        "formatted_address": "3124 Beaubien Rue E, Montr\u00e9al QC H1Y 1H3",
                        "locality": "Montreal",
                        "postcode": "H1Y 1H3",
                        "region": "QC"
                  },
                  "name": "Bairrada",
                  "popularity": 0.6641157267221802,
                  "price": 1
            },
            {
                  "distance": 697,
                  "location": {
                        "address": "2522 Beaubien Rue E",
                        "country": "CA",
                        "cross_street": "Rue d'Iberville",
                        "formatted_address": "2522 Beaubien Rue E (Rue d'Iberville), Montr\u00e9al QC H1Y 1G2",
                        "locality": "Montreal",
                        "postcode": "H1Y 1G2",
                        "region": "QC"
                  },
                  "name": "La Brass\u00e9e",
                  "popularity": 0.9355483535200606,
                  "price": 1
            },
            {
                  "distance": 770,
                  "location": {
                        "address": "3251 Beaubien Rue E",
                        "country": "CA",
                        "cross_street": "",
                        "formatted_address": "3251 Beaubien Rue E, Montr\u00e9al QC H1X 1G4",
                        "locality": "Montreal",
                        "postcode": "H1X 1G4",
                        "region": "QC"
                  },
                  "name": "A&W Restaurant",
                  "popularity": 0.9718253217259651,
                  "price": 1,
                  "store_id": "5590"
            },
            {
                  "distance": 777,
                  "location": {
                        "address": "2381 Beaubien Rue E",
                        "country": "CA",
                        "cross_street": "",
                        "formatted_address": "2381 Beaubien Rue E, Montr\u00e9al QC H2G 1N3",
                        "locality": "Montreal",
                        "postcode": "H2G 1N3",
                        "region": "QC"
                  },
                  "name": "Le Elsdale",
                  "popularity": 0.9026778955336866,
                  "price": 1
            },
            {
                  "distance": 779,
                  "location": {
                        "address": "3240 Beaubien Rue E",
                        "country": "CA",
                        "cross_street": "",
                        "formatted_address": "3240 Beaubien Rue E, Montr\u00e9al QC H1Y 1H7",
                        "locality": "Montreal",
                        "postcode": "H1Y 1H7",
                        "region": "QC"
                  },
                  "name": "Caf\u00e9 Hologramme",
                  "popularity": 0.2952663701741105,
                  "price": 1
            },
            {
                  "distance": 832,
                  "location": {
                        "address": "3350 Beaubien Rue E",
                        "country": "CA",
                        "cross_street": "",
                        "formatted_address": "3350 Beaubien Rue E, Montr\u00e9al QC H1X 1G6",
                        "locality": "Montreal",
                        "postcode": "H1X 1G6",
                        "region": "QC"
                  },
                  "name": "Zytynsky's",
                  "popularity": 0.9171555639666918,
                  "price": 2
            },
            {
                  "distance": 977,
                  "location": {
                        "address": "1951 Beaubien Rue E",
                        "country": "CA",
                        "cross_street": "Chabot",
                        "formatted_address": "1951 Beaubien Rue E (Chabot), Montr\u00e9al QC H2G 1M2",
                        "locality": "Montreal",
                        "postcode": "H2G 1M2",
                        "region": "QC"
                  },
                  "name": "Du Pain et des Roses",
                  "popularity": 0.8573050719152158,
                  "price": 1
            },
            {
                  "distance": 980,
                  "location": {
                        "address": "1879 Belanger St",
                        "country": "CA",
                        "cross_street": "",
                        "formatted_address": "1879 Belanger St, Montr\u00e9al QC H2G 1B6",
                        "locality": "Montreal",
                        "postcode": "H2G 1B6",
                        "region": "QC"
                  },
                  "name": "Mastard",
                  "popularity": 0.9528647804693414,
                  "price": 2
            },
            {
                  "distance": 204,
                  "location": {
                        "address": "2555 Belanger Rue",
                        "country": "CA",
                        "formatted_address": "2555 Belanger Rue, Montreal QC H1Y 1A3",
                        "locality": "Montreal",
                        "postcode": "H1Y 1A3",
                        "region": "QC"
                  },
                  "name": "Pura Felicita Caf\u00e9 Traiteur"
            },
            {
                  "distance": 222,
                  "location": {
                        "address": "3181 Belanger Rue",
                        "country": "CA",
                        "formatted_address": "3181 Belanger Rue, Montreal QC H1Y 1B6",
                        "locality": "Montreal",
                        "postcode": "H1Y 1B6",
                        "region": "QC"
                  },
                  "name": "Restaurant Pnt Inc"
            },
            {
                  "distance": 342,
                  "location": {
                        "address": "2490 Belanger Rue",
                        "country": "CA",
                        "formatted_address": "2490 Belanger Rue, Montreal QC H2G 1E5",
                        "locality": "Montreal",
                        "postcode": "H2G 1E5",
                        "region": "QC"
                  },
                  "name": "Restaurant Grill Tasqueria la Sharade"
            },
            {
                  "distance": 383,
                  "location": {
                        "address": "2583 Jean-Talon Rue E",
                        "country": "CA",
                        "formatted_address": "2583 Jean-Talon Rue E, Montreal QC H2A 1V1",
                        "locality": "Montreal",
                        "postcode": "H2A 1V1",
                        "region": "QC"
                  },
                  "name": "Pamela Sue"
            },
            {
                  "distance": 484,
                  "location": {
                        "address": "2464 Jean-Talon Rue E",
                        "country": "CA",
                        "formatted_address": "2464 Jean-Talon Rue E, Montreal QC H2E 1W2",
                        "locality": "Montreal",
                        "postcode": "H2E 1W2",
                        "region": "QC"
                  },
                  "name": "Cafe Depot"
            }
      ],
      "context": {
            "geo_bounds": {
                  "circle": {
                        "center": {
                              "latitude": 45.55456383,
                              "longitude": -73.59615684
                        },
                        "radius": 1000
                  }
            }
      }
}