{
      "results": [
            {
                  "distance": 451,
                  "location": {
                        "address": "278 Elgar Rue",
                        "country": "CA",
                        "cross_street": "boul. Ile-des-Soeurs",
                        "formatted_address": "278 Elgar Rue (boul. Ile-des-Soeurs), Verdun QC H3E 1C9",
                        "locality": "\u00cele-des-Soeurs",
                        "postcode": "H3E 1C9",
                        "region": "QC"
                  },
                  "name": "La Socca",
                  "popularity": 0.9256836676760031,
                  "price": 3,
                  "rating": 7.9
            },
            {
                  "distance": 900,
                  "location": {
                        "address": "7 Pl du Commerce",
                        "address_extended": "Unit 101",
                        "country": "CA",
                        "formatted_address": "7 Pl du Commerce, Montr\u00e9al QC H3E 2B5",
                        "locality": "Montreal",
                        "postcode": "H3E 2B5",
                        "region": "QC"
                  },
                  "name": "Second Cup Coffee Co",
                  "popularity": 0.9619014950794852,
                  "price": 1,
                  "rating": 7.5,
                  "store_id": "3122"
            },
            {
                  "distance": 759,
                  "location": {
                        "address": "3000 Rene-Levesque Blvd",
                        "address_extended": "# 100",
                        "country": "CA",
                        "cross_street": "btwn boul. de l'\u00cele-des-Soeurs & rue Berlioz",
                        "formatted_address": "3000 Rene-Levesque Blvd (btwn boul. de l'\u00cele-des-Soeurs & rue Berlioz), Montr\u00e9al QC H3E 1T9",
                        "locality": "Montreal",
                        "postcode": "H3E 1T9",
                        "region": "QC"
                  },
                  "name": "Chez Carl",
                  "popularity": 0.8644611090083271,
                  "price": 1,
                  "rating": 7.0
            },
            {
                  "distance": 743,
                  "location": {
                        "address": "42 Pl du Commerce",
                        "country": "CA",
                        "cross_street": "",
                        "formatted_address": "42 Pl du Commerce, Verdun QC H3E 1J5",
                        "locality": "Montreal",
                        "postcode": "H3E 1J5",
                        "region": "QC"
                  },
                  "name": "Starbucks",
                  "popularity": 0.9696962528387585,
                  "price": 1,
                  "rating": 6.8,
                  "store_id": "62033-295118"
            },
            {
                  "distance": 853,
                  "location": {
                        "address": "38 Pl du Commercea Ile des",
                        "address_extended": "Le Campanille",
                        "country": "CA",
                        "cross_street": "",
                        "formatted_address": "38 Pl du Commercea Ile des, Verdun QC H3E 1T8",
                        "locality": "Montreal",
                        "postcode": "H3E 1T8",
                        "region": "QC"
                  },
                  "name": "Thai Express",
                  "popularity": 0.9111232021196064,
                  "price": 2,
                  "rating": 6.5,
                  "store_id": "271"
            },
            {
                  "distance": 872,
                  "location": {
                        "address": "38 Pl du Commerce",
                        "address_extended": "# 9",
                        "country": "CA",
                        "cross_street": "",
                        "formatted_address": "38 Pl du Commerce, Verdun QC H3E 1T8",
                        "locality": "Verdun",
                        "postcode": "H3E 1T8",
                        "region": "QC"
                  },
                  "name": "Umi Sushi",
                  "popularity": 0.8838474640423921,
                  "price": 2,
                  "rating": 6.5
            },
            {
                  "distance": 894,
                  "location": {
                        "address": "22 Pl du Commerce",
                        "address_extended": "# 22",
                        "country": "CA",
                        "cross_street": "Boulevard Rene Levesque",
                        "formatted_address": "22 Pl du Commerce (Boulevard Rene Levesque), Verdun QC H3E 1V7",
                        "locality": "Montreal",
                        "postcode": "H3E 1V7",
                        "region": "QC"
                  },
                  "name": "Tim Hortons",
                  "popularity": 0.9482754542013626,
                  "price": 1,
                  "rating": 5.1
            },
            {
                  "distance": 455,
                  "location": {
                        "address": "282 Elgar Rue",
                        "country": "CA",
                        "cross_street": "",
                        "formatted_address": "282 Elgar Rue, Montr\u00e9al QC H3E 1C9",
                        "locality": "Montreal",
                        "postcode": "H3E 1C9",
                        "region": "QC"
                  },
                  "name": "Pizzeria 5 saveurs pizza",
                  "popularity": 0.7874952687358062,
                  "price": 1
            },
            {
                  "distance": 828,
                  "location": {
                        "address": "301 ch du Golf",
                        "country": "CA",
                        "cross_street": "",
                        "formatted_address": "301 ch du Golf, Verdun QC H3E 1B3",
                        "locality": "Montreal",
                        "postcode": "H3E 1B3",
                        "region": "QC"
                  },
                  "name": "Jardin de l'Ile",
                  "popularity": 0.9174157834973505,
                  "price": 2
            },
            {
                  "distance": 853,
                  "location": {
                        "address": "38 Pl du Commerce",
                        "country": "CA",
                        "cross_street": "",
                        "formatted_address": "38 Pl du Commerce, Verdun QC H3E 1T8",
                        "locality": "Montreal",
                        "postcode": "H3E 1T8",
                        "region": "QC"
                  },
                  "name": "Domino's Pizza",
                  "popularity": 0.9027015518546556,
                  "price": 1,
                  "store_id": "10728"
            },
            {
                  "distance": 864,
                  "location": {
                        "address": "38 Pl du Commerce",
                        "country": "CA",
                        "cross_street": "",
                        "formatted_address": "38 Pl du Commerce, Verdun QC H3E 1T8",
                        "locality": "\u00cele-des-Soeurs",
                        "postcode": "H3E 1T8",
                        "region": "QC"
                  },
                  "name": "La Diperie",
                  "popularity": 0.37657314534443603,
                  "price": 1
            },
            {
                  "distance": 953,
                  "location": {
                        "address": "7 Pl du Commerce",
                        "address_extended": "Les Halles de L Iles",
                        "country": "CA",
                        "cross_street": "",
                        "formatted_address": "7 Pl du Commerce, Verdun QC H3E 2B5",
                        "locality": "Montreal",
                        "postcode": "H3E 2B5",
                        "region": "QC"
                  },
                  "name": "Sushi Shop",
                  "popularity": 0.8860356737320212,
                  "price": 2
            },
            {
                  "distance": 531,
                  "location": {
                        "address": "520 Rue de Gasp\u00e9",
                        "address_extended": "# 110",
                        "country": "CA",
                        "formatted_address": "520 Rue de Gasp\u00e9, Verdun QC H3E 1G1",
                        "locality": "Verdun",
                        "postcode": "H3E 1G1",
                        "region": "QC"
                  },
                  "name": "Zoneresto"
            },
            {
                  "distance": 606,
                  "location": {
                        "address": "675 rue de Gasp\u00e9",
                        "country": "CA",
                        "formatted_address": "675 rue de Gasp\u00e9, Verdun QC H3E 1H1",
                        "locality": "Verdun",
                        "postcode": "H3E 1H1",
                        "region": "QC"
                  },
                  "name": "Cybele's Cakes"
            },
            {
                  "distance": 618,
                  "location": {
                        "address": "515 Francois Rue",
                        "country": "CA",
                        "formatted_address": "515 Francois Rue, Verdun QC H3E 1G5",
                        "locality": "Verdun",
                        "postcode": "H3E 1G5",
                        "region": "QC"
                  },
                  "name": "Gateau Original"
            },
            {
                  "distance": 718,
                  "location": {
                        "address": "200 Rue de Gasp\u00e9",
                        "address_extended": "# 1211",
                        "country": "CA",
                        "formatted_address": "200 Rue de Gasp\u00e9, Verdun QC H3E 1E6",
                        "locality": "Verdun",
                        "postcode": "H3E 1E6",
                        "region": "QC"
                  },
                  "name": "Cakestry G&V"
            },
            {
                  "distance": 941,
                  "location": {
                        "address": "7 Pl du Commerce",
                        "country": "CA",
                        "formatted_address": "7 Pl du Commerce, Verdun QC H3E 2B5",
                        "locality": "Verdun",
                        "postcode": "H3E 2B5",
                        "region": "QC"
                  },
                  "name": "Basilico Pizza Pasta"
            }
      ],
      "context": {
            "geo_bounds": {
                  "circle": {
                        "center": {
                              "latitude": 45.45998578,
                              "longitude": -73.54395568
                        },
                        "radius": 1000
                  }
            }
      }
}