{
      "results": [
            {
                  "distance": 374,
                  "location": {
                        "address": "4328 Saint-Laurent Blvd",
                        "country": "CA",
                        "cross_street": "Marie-Anne",
                        "formatted_address": "4328 Saint-Laurent Blvd (Marie-Anne), Montr\u00e9al QC H2W 1Z3",
                        "locality": "Montreal",
                        "postcode": "H2W 1Z3",
                        "region": "QC"
                  },
                  "name": "Darling",
                  "popularity": 0.9573358251324754,
                  "price": 3,
                  "rating": 9.2
            },
            {
                  "distance": 106,
                  "location": {
                        "address": "322 Ave du Mont-Royal Est",
                        "country": "CA",
                        "cross_street": "coin Drolet",
                        "formatted_address": "322 Ave du Mont-Royal Est (coin Drolet), Montr\u00e9al QC H2T 1P7",
                        "locality": "Montreal",
                        "postcode": "H2T 1P7",
                        "region": "QC"
                  },
                  "name": "Au Kouign-Amann",
                  "popularity": 0.9501206472369417,
                  "price": 2,
                  "rating": 9.2
            },
            {
                  "distance": 844,
                  "location": {
                        "address": "9 Fairmount Ave E",
                        "country": "CA",
                        "cross_street": "coin Fairmount",
                        "formatted_address": "9 Fairmount Ave E (coin Fairmount), Montr\u00e9al QC H2T 1C7",
                        "locality": "Montreal",
                        "postcode": "H2T 1C7",
                        "region": "QC"
                  },
                  "name": "Larry's",
                  "popularity": 0.9267955147615443,
                  "price": 2,
                  "rating": 9.2
            },
            {
                  "distance": 788,
                  "location": {
                        "address": "3927 Saint-Denis Rue",
                        "country": "CA",
                        "cross_street": "entre Duluth & Roy",
                        "formatted_address": "3927 Saint-Denis Rue (entre Duluth & Roy), Montr\u00e9al QC H2W 2M4",
                        "locality": "Montreal",
                        "postcode": "H2W 2M4",
                        "region": "QC"
                  },
                  "name": "L'Express",
                  "popularity": 0.9460517600302801,
                  "price": 3,
                  "rating": 9.1
            },
            {
                  "distance": 605,
                  "location": {
                        "address": "77 Rachel Rue O",
                        "country": "CA",
                        "cross_street": "entre Clark & St-Urbain",
                        "formatted_address": "77 Rachel Rue O (entre Clark & St-Urbain), Montr\u00e9al QC H2W 1G2",
                        "locality": "Montreal",
                        "postcode": "H2W 1G2",
                        "region": "QC"
                  },
                  "name": "Noren \u306e\u308c\u3093",
                  "popularity": 0.9153103709311128,
                  "price": 2,
                  "rating": 9.1
            },
            {
                  "distance": 273,
                  "location": {
                        "address": "4627 Saint-Denis Rue",
                        "country": "CA",
                        "cross_street": "",
                        "formatted_address": "4627 Saint-Denis Rue, Montr\u00e9al QC H2J 2L4",
                        "locality": "Montreal",
                        "postcode": "H2J 2L4",
                        "region": "QC"
                  },
                  "name": "Caf\u00e9 Myriade - le Plateau",
                  "popularity": 0.9432603141559425,
                  "price": 1,
                  "rating": 9.1
            },
            {
                  "distance": 804,
                  "location": {
                        "address": "809 Laurier Ave E",
                        "country": "CA",
                        "formatted_address": "809 Laurier Ave E, Montr\u00e9al QC H2J 1G2",
                        "locality": "Montreal",
                        "postcode": "H2J 1G2",
                        "region": "QC"
                  },
                  "name": "Fous Desserts",
                  "popularity": 0.9535389856169568,
                  "rating": 9.0
            },
            {
                  "distance": 968,
                  "location": {
                        "address": "3801 Saint-Denis Rue",
                        "country": "CA",
                        "cross_street": "",
                        "formatted_address": "3801 Saint-Denis Rue, Montr\u00e9al QC H2W 2M4",
                        "locality": "Montreal",
                        "postcode": "H2W 2M4",
                        "region": "QC"
                  },
                  "name": "Le Club Espresso Bar",
                  "popularity": 0.9342945685087055,
                  "price": 1,
                  "rating": 9.0
            },
            {
                  "distance": 432,
                  "location": {
                        "address": "151 Rachel Rue E",
                        "country": "CA",
                        "cross_street": "coin De Bullion",
                        "formatted_address": "151 Rachel Rue E (coin De Bullion), Montr\u00e9al QC H2W 1E1",
                        "locality": "Montreal",
                        "postcode": "H2W 1E1",
                        "region": "QC"
                  },
                  "name": "Caf\u00e9 N\u00e9v\u00e9",
                  "popularity": 0.9299654617713853,
                  "price": 2,
                  "rating": 9.0
            },
            {
                  "distance": 935,
                  "location": {
                        "address": "1266 Ave du Mont-Royal Est",
                        "country": "CA",
                        "cross_street": "entre Br\u00e9beuf & Chambord",
                        "formatted_address": "1266 Ave du Mont-Royal Est (entre Br\u00e9beuf & Chambord), Montr\u00e9al QC H2J 1Y3",
                        "locality": "Montreal",
                        "postcode": "H2J 1Y3",
                        "region": "QC"
                  },
                  "name": "Point G",
                  "popularity": 0.9041800719152158,
                  "price": 1,
                  "rating": 8.9
            },
            {
                  "distance": 799,
                  "location": {
                        "address": "3990 Saint-Urbain Rue",
                        "country": "CA",
                        "cross_street": "coin Duluth",
                        "formatted_address": "3990 Saint-Urbain Rue (coin Duluth), Montr\u00e9al QC H2W 1T7",
                        "locality": "Montreal",
                        "postcode": "H2W 1T7",
                        "region": "QC"
                  },
                  "name": "Caf\u00e9 Santropol",
                  "popularity": 0.9517529333838002,
                  "price": 2,
                  "rating": 8.9
            },
            {
                  "distance": 632,
                  "location": {
                        "address": "173 Duluth Ave E",
                        "country": "CA",
                        "cross_street": "coin H\u00f4tel-De-Ville",
                        "formatted_address": "173 Duluth Ave E (coin H\u00f4tel-De-Ville), Montr\u00e9al QC H2W 1H4",
                        "locality": "Montreal",
                        "postcode": "H2W 1H4",
                        "region": "QC"
                  },
                  "name": "Chez Jose",
                  "popularity": 0.919958838001514,
                  "price": 1,
                  "rating": 8.9
            },
            {
                  "distance": 620,
                  "location": {
                        "address": "4105 Saint-Laurent Blvd",
                        "country": "CA",
                        "cross_street": "",
                        "formatted_address": "4105 Saint-Laurent Blvd, Montr\u00e9al QC H2W 1Y7",
                        "locality": "Montreal",
                        "postcode": "H2W 1Y7",
                        "region": "QC"
                  },
                  "name": "Le Majestique",
                  "popularity": 0.9523443414080243,
                  "price": 2,
                  "rating": 8.9
            },
            {
                  "distance": 446,
                  "location": {
                        "address": "4185 Drolet Rue",
                        "country": "CA",
                        "cross_street": "coin Rachel",
                        "formatted_address": "4185 Drolet Rue (coin Rachel), Montr\u00e9al QC H2W 2L5",
                        "locality": "Montreal",
                        "postcode": "H2W 2L5",
                        "region": "QC"
                  },
                  "name": "Yokato Yokabai",
                  "popularity": 0.9432957986373959,
                  "price": 2,
                  "rating": 8.9
            },
            {
                  "distance": 707,
                  "location": {
                        "address": "4021 Saint-Laurent Blvd",
                        "country": "CA",
                        "cross_street": "coin Duluth",
                        "formatted_address": "4021 Saint-Laurent Blvd (coin Duluth), Montr\u00e9al QC H2W 1Y4",
                        "locality": "Montreal",
                        "postcode": "H2W 1Y4",
                        "region": "QC"
                  },
                  "name": "Dispatch Coffee",
                  "popularity": 0.9505346328538986,
                  "price": 1,
                  "rating": 8.9
            },
            {
                  "distance": 520,
                  "location": {
                        "address": "4177 Saint-Laurent Blvd",
                        "country": "CA",
                        "cross_street": "coin Rachel",
                        "formatted_address": "4177 Saint-Laurent Blvd (coin Rachel), Montr\u00e9al QC H2W 1Y7",
                        "locality": "Montreal",
                        "postcode": "H2W 1Y7",
                        "region": "QC"
                  },
                  "name": "Patati Patata Friterie de Luxe",
                  "popularity": 0.9553960068130204,
                  "price": 2,
                  "rating": 8.8
            },
            {
                  "distance": 311,
                  "location": {
                        "address": "4524 Saint-Laurent Blvd",
                        "country": "CA",
                        "cross_street": "coin Mont-Royal",
                        "formatted_address": "4524 Saint-Laurent Blvd (coin Mont-Royal), Montr\u00e9al QC H2T 1R3",
                        "locality": "Montreal",
                        "postcode": "H2T 1R3",
                        "region": "QC"
                  },
                  "name": "Hof Kelsten",
                  "popularity": 0.9274578917486752,
                  "price": 2,
                  "rating": 8.8
            },
            {
                  "distance": 423,
                  "location": {
                        "address": "252 Rachel Rue E",
                        "country": "CA",
                        "cross_street": "coin Laval",
                        "formatted_address": "252 Rachel Rue E (coin Laval), Montr\u00e9al QC H2W 1E6",
                        "locality": "Montreal",
                        "postcode": "H2W 1E6",
                        "region": "QC"
                  },
                  "name": "Caf\u00e9 Replika",
                  "popularity": 0.8989165404996216,
                  "price": 1,
                  "rating": 8.8
            },
            {
                  "distance": 669,
                  "location": {
                        "address": "865 Rachel Rue E",
                        "country": "CA",
                        "cross_street": "coin St-Andr\u00e9",
                        "formatted_address": "865 Rachel Rue E (coin St-Andr\u00e9), Montr\u00e9al QC H2J 2H9",
                        "locality": "Montreal",
                        "postcode": "H2J 2H9",
                        "region": "QC"
                  },
                  "name": "La Maison des P\u00e2tes Fra\u00eeches",
                  "popularity": 0.938115064345193,
                  "price": 2,
                  "rating": 8.8
            },
            {
                  "distance": 780,
                  "location": {
                        "address": "1127 Ave du Mont-Royal Est",
                        "country": "CA",
                        "cross_street": "coin Christophe-Colomb",
                        "formatted_address": "1127 Ave du Mont-Royal Est (coin Christophe-Colomb), Montr\u00e9al QC H2J 1X9",
                        "locality": "Montreal",
                        "postcode": "H2J 1X9",
                        "region": "QC"
                  },
                  "name": "St-Viateur Bagel & Cafe",
                  "popularity": 0.9727715745647237,
                  "price": 1,
                  "rating": 8.7
            },
            {
                  "distance": 844,
                  "location": {
                        "address": "3901A Saint-Laurent Blvd",
                        "country": "CA",
                        "cross_street": "entre St-Cuthbert & Napol\u00e9on",
                        "formatted_address": "3901A Saint-Laurent Blvd (entre St-Cuthbert & Napol\u00e9on), Montr\u00e9al QC H2W 1X9",
                        "locality": "Montreal",
                        "postcode": "H2W 1X9",
                        "region": "QC"
                  },
                  "name": "Schwartz's Montreal Hebrew Delicatessen (Schwartz's Charcuterie H\u00e9bra\u00efque de Montr\u00e9al)",
                  "popularity": 0.989804125662377,
                  "price": 2,
                  "rating": 8.7
            },
            {
                  "distance": 757,
                  "location": {
                        "address": "536 Duluth Ave E",
                        "country": "CA",
                        "cross_street": "at Ave. Duluth Est & Ave. de Chateaubriand",
                        "formatted_address": "536 Duluth Ave E (at Ave. Duluth Est & Ave. de Chateaubriand), Montr\u00e9al QC H2L 1A9",
                        "locality": "Montreal",
                        "postcode": "H2L 1A9",
                        "region": "QC"
                  },
                  "name": "Au Pied de Cochon",
                  "popularity": 0.9154404806964421,
                  "price": 3,
                  "rating": 8.7
            },
            {
                  "distance": 503,
                  "location": {
                        "address": "123 Ave du Mont-Royal O",
                        "country": "CA",
                        "cross_street": "",
                        "formatted_address": "123 Ave du Mont-Royal O, Montr\u00e9al QC H2T 2S9",
                        "locality": "Montreal",
                        "postcode": "H2T 2S9",
                        "region": "QC"
                  },
                  "name": "Paquebot Mont-Royal",
                  "popularity": 0.9561411809235427,
                  "price": 1,
                  "rating": 8.6
            },
            {
                  "distance": 567,
                  "location": {
                        "address": "4115A Saint-Denis Rue",
                        "country": "CA",
                        "cross_street": "coin Duluth",
                        "formatted_address": "4115A Saint-Denis Rue (coin Duluth), Montr\u00e9al QC H2W 2M7",
                        "locality": "Montreal",
                        "postcode": "H2W 2M7",
                        "region": "QC"
                  },
                  "name": "Diese Onze",
                  "popularity": 0.9298944928084785,
                  "rating": 8.6
            },
            {
                  "distance": 741,
                  "location": {
                        "address": "951 Rachel Rue E",
                        "country": "CA",
                        "cross_street": "",
                        "formatted_address": "951 Rachel Rue E, Montr\u00e9al QC H2J 2J4",
                        "locality": "Montreal",
                        "postcode": "H2J 2J4",
                        "region": "QC"
                  },
                  "name": "Pub Pit Caribou",
                  "popularity": 0.9519658402725208,
                  "rating": 8.6
            },
            {
                  "distance": 691,
                  "location": {
                        "address": "9 Duluth Ave E",
                        "country": "CA",
                        "cross_street": "entre St-Laurent & St-Dominique",
                        "formatted_address": "9 Duluth Ave E (entre St-Laurent & St-Dominique), Montr\u00e9al QC H2W 1G7",
                        "locality": "Montreal",
                        "postcode": "H2W 1G7",
                        "region": "QC"
                  },
                  "name": "R\u00e9servoir",
                  "popularity": 0.9331708932626798,
                  "price": 1,
                  "rating": 8.5
            },
            {
                  "distance": 806,
                  "location": {
                        "address": "1059 Gilford Rue",
                        "country": "CA",
                        "cross_street": "Christophe-Colomb",
                        "formatted_address": "1059 Gilford Rue (Christophe-Colomb), Montr\u00e9al QC H2J 1P7",
                        "locality": "Montreal",
                        "postcode": "H2J 1P7",
                        "region": "QC"
                  },
                  "name": "Restaurant la Raclette",
                  "popularity": 0.9396527252081757,
                  "price": 3,
                  "rating": 8.5
            },
            {
                  "distance": 611,
                  "location": {
                        "address": "4449 Rue de Mentana",
                        "country": "CA",
                        "cross_street": "Avenue du Mont-Royal",
                        "formatted_address": "4449 Rue de Mentana (Avenue du Mont-Royal), Montr\u00e9al QC H2J 3B4",
                        "locality": "Montreal",
                        "postcode": "H2J 3B4",
                        "region": "QC"
                  },
                  "name": "Tampopo",
                  "popularity": 0.8850539364118092,
                  "price": 2,
                  "rating": 8.5
            },
            {
                  "distance": 797,
                  "location": {
                        "address": "994 Rachel Rue E",
                        "country": "CA",
                        "cross_street": "entre de Boyer & du Parc-Lafontaine",
                        "formatted_address": "994 Rachel Rue E (entre de Boyer & du Parc-Lafontaine), Montr\u00e9al QC H2J 2J3",
                        "locality": "Montreal",
                        "postcode": "H2J 2J3",
                        "region": "QC"
                  },
                  "name": "La Banquise",
                  "popularity": 0.9872374148372445,
                  "price": 1,
                  "rating": 8.5
            },
            {
                  "distance": 565,
                  "location": {
                        "address": "922 Ave du Mont-Royal Est",
                        "country": "CA",
                        "cross_street": "entre St-Andr\u00e9 & De Mentana",
                        "formatted_address": "922 Ave du Mont-Royal Est (entre St-Andr\u00e9 & De Mentana), Montr\u00e9al QC H2J 1X2",
                        "locality": "Montreal",
                        "postcode": "H2J 1X2",
                        "region": "QC"
                  },
                  "name": "Restaurant l'Avenue",
                  "popularity": 0.9553132096896291,
                  "price": 2,
                  "rating": 8.4
            },
            {
                  "distance": 952,
                  "location": {
                        "address": "156 Roy Rue E",
                        "country": "CA",
                        "cross_street": "coin De Bullion",
                        "formatted_address": "156 Roy Rue E (coin De Bullion), Montr\u00e9al QC H2W 1M2",
                        "locality": "Montreal",
                        "postcode": "H2W 1M2",
                        "region": "QC"
                  },
                  "name": "Else's",
                  "popularity": 0.9207868092354277,
                  "price": 2,
                  "rating": 8.4
            },
            {
                  "distance": 136,
                  "location": {
                        "address": "351 Ave du Mont-Royal E",
                        "country": "CA",
                        "cross_street": "",
                        "formatted_address": "351 Ave du Mont-Royal E, Montr\u00e9al QC H2T 1R1",
                        "locality": "Montreal",
                        "postcode": "H2T 1R1",
                        "region": "QC"
                  },
                  "name": "Le Toledo",
                  "popularity": 0.9615111657834974,
                  "price": 1,
                  "rating": 8.4
            },
            {
                  "distance": 649,
                  "location": {
                        "address": "351 Laurier Ave E",
                        "country": "CA",
                        "cross_street": "coin Drolet",
                        "formatted_address": "351 Laurier Ave E (coin Drolet), Montr\u00e9al QC H2T 1G7",
                        "locality": "Montreal",
                        "postcode": "H2T 1G7",
                        "region": "QC"
                  },
                  "name": "Restaurant Chez Claudette",
                  "popularity": 0.9536454390613172,
                  "price": 1,
                  "rating": 8.3
            },
            {
                  "distance": 767,
                  "location": {
                        "address": "5150 St-Laurent Blvd",
                        "country": "CA",
                        "cross_street": "",
                        "formatted_address": "5150 St-Laurent Blvd, Montr\u00e9al QC H2T 1R8",
                        "locality": "Montreal",
                        "postcode": "H2T 1R8",
                        "region": "QC"
                  },
                  "name": "Cin\u00e9ma Moderne",
                  "popularity": 0.9271267032551098,
                  "price": 1,
                  "rating": 8.3
            },
            {
                  "distance": 142,
                  "location": {
                        "address": "354 Ave du Mont-Royal Est",
                        "country": "CA",
                        "cross_street": "entre Drolet & St-Denis",
                        "formatted_address": "354 Ave du Mont-Royal Est (entre Drolet & St-Denis), Montr\u00e9al QC H2T 1P9",
                        "locality": "Montreal",
                        "postcode": "H2T 1P9",
                        "region": "QC"
                  },
                  "name": "Bily Kun",
                  "popularity": 0.927327781983346,
                  "price": 2,
                  "rating": 8.2
            }
      ],
      "context": {
            "geo_bounds": {
                  "circle": {
                        "center": {
                              "latitude": 45.52236458,
                              "longitude": -73.5841459
                        },
                        "radius": 1000
                  }
            }
      }
}