{
      "results": [
            {
                  "distance": 445,
                  "location": {
                        "address": "1201 Van Horne Ave",
                        "country": "CA",
                        "cross_street": "",
                        "formatted_address": "1201 Van Horne Ave, Montr\u00e9al QC H2V 1K4",
                        "locality": "Montreal",
                        "postcode": "H2V 1K4",
                        "region": "QC"
                  },
                  "name": "Damas",
                  "popularity": 0.9677446063588191,
                  "price": 4,
                  "rating": 9.4
            },
            {
                  "distance": 722,
                  "location": {
                        "address": "124 Saint- Viateur Rue O",
                        "country": "CA",
                        "cross_street": "coin Waverly",
                        "formatted_address": "124 Saint- Viateur Rue O (coin Waverly), Montr\u00e9al QC H2T 2L1",
                        "locality": "Montreal",
                        "postcode": "H2T 2L1",
                        "region": "QC"
                  },
                  "name": "Caf\u00e9 Olimpico",
                  "popularity": 0.9736468584405753,
                  "price": 1,
                  "rating": 9.2
            },
            {
                  "distance": 541,
                  "location": {
                        "address": "263 Saint- Viateur Rue O",
                        "country": "CA",
                        "cross_street": "entre Jeanne-Mance & du Parc",
                        "formatted_address": "263 Saint- Viateur Rue O (entre Jeanne-Mance & du Parc), Montr\u00e9al QC H2V 1Y1",
                        "locality": "Montreal",
                        "postcode": "H2V 1Y1",
                        "region": "QC"
                  },
                  "name": "St-Viateur Bagel",
                  "popularity": 0.9821986184708554,
                  "price": 1,
                  "rating": 9.1
            },
            {
                  "distance": 599,
                  "location": {
                        "address": "5357 Ave du Parc",
                        "country": "CA",
                        "cross_street": "entre St-Viateur & Fairmount",
                        "formatted_address": "5357 Ave du Parc (entre St-Viateur & Fairmount), Montr\u00e9al QC H2V 4G9",
                        "locality": "Montreal",
                        "postcode": "H2V 4G9",
                        "region": "QC"
                  },
                  "name": "Milos Restaurant",
                  "popularity": 0.9470098410295231,
                  "price": 4,
                  "rating": 9.1
            },
            {
                  "distance": 209,
                  "location": {
                        "address": "1311 Bernard Ave",
                        "country": "CA",
                        "cross_street": "coin Outremont",
                        "formatted_address": "1311 Bernard Ave (coin Outremont), Montr\u00e9al QC H2V 1W1",
                        "locality": "Montreal",
                        "postcode": "H2V 1W1",
                        "region": "QC"
                  },
                  "name": "Le Glacier Bilboquet",
                  "popularity": 0.9378075321725965,
                  "price": 2,
                  "rating": 9.0
            },
            {
                  "distance": 900,
                  "location": {
                        "address": "5761 Saint-Laurent Blvd",
                        "country": "CA",
                        "cross_street": "coin Bernard",
                        "formatted_address": "5761 Saint-Laurent Blvd (coin Bernard), Montr\u00e9al QC H2T 1S9",
                        "locality": "Montreal",
                        "postcode": "H2T 1S9",
                        "region": "QC"
                  },
                  "name": "Pastel Rita",
                  "popularity": 0.9478141559424679,
                  "price": 1,
                  "rating": 8.9
            },
            {
                  "distance": 886,
                  "location": {
                        "address": "5836 Saint-Laurent Blvd",
                        "country": "CA",
                        "cross_street": "",
                        "formatted_address": "5836 Saint-Laurent Blvd, Montr\u00e9al QC H2T 1T3",
                        "locality": "Montreal",
                        "postcode": "H2T 1T3",
                        "region": "QC"
                  },
                  "name": "Le Butterblume",
                  "popularity": 0.9501443035579107,
                  "price": 1,
                  "rating": 8.6
            },
            {
                  "distance": 844,
                  "location": {
                        "address": "54 Saint-Viateur Rue O",
                        "country": "CA",
                        "cross_street": "",
                        "formatted_address": "54 Saint-Viateur Rue O, Montr\u00e9al QC H2T 2K8",
                        "locality": "Montreal",
                        "postcode": "H2T 2K8",
                        "region": "QC"
                  },
                  "name": "Falafel Yoni",
                  "popularity": 0.9097038228614686,
                  "price": 1,
                  "rating": 8.6
            },
            {
                  "distance": 850,
                  "location": {
                        "address": "52 Saint-Viateur Rue O",
                        "country": "CA",
                        "cross_street": "",
                        "formatted_address": "52 Saint-Viateur Rue O, Montr\u00e9al QC H2T 2K8",
                        "locality": "Montreal",
                        "postcode": "H2T 2K8",
                        "region": "QC"
                  },
                  "name": "Bishop & Bagg",
                  "popularity": 0.9365064345193036,
                  "price": 2,
                  "rating": 8.6
            },
            {
                  "distance": 765,
                  "location": {
                        "address": "5200 Hutchison Rue",
                        "country": "CA",
                        "cross_street": "coin Fairmount",
                        "formatted_address": "5200 Hutchison Rue (coin Fairmount), Montr\u00e9al QC H2V 4B3",
                        "locality": "Montreal",
                        "postcode": "H2V 4B3",
                        "region": "QC"
                  },
                  "name": "La Croissanterie Figaro",
                  "popularity": 0.9416398561695685,
                  "price": 1,
                  "rating": 8.6
            },
            {
                  "distance": 749,
                  "location": {
                        "address": "5240 Ave du Parc",
                        "country": "CA",
                        "cross_street": "Fairmount",
                        "formatted_address": "5240 Ave du Parc (Fairmount), Montr\u00e9al QC H2V 4G7",
                        "locality": "Montreal",
                        "postcode": "H2V 4G7",
                        "region": "QC"
                  },
                  "name": "Th\u00e9\u00e2tre Fairmount",
                  "popularity": 0.9877696820590461,
                  "rating": 8.6
            },
            {
                  "distance": 684,
                  "location": {
                        "address": "176 Saint Viateur Rue O",
                        "address_extended": "# 174",
                        "country": "CA",
                        "cross_street": "",
                        "formatted_address": "176 Saint Viateur Rue O, Montr\u00e9al QC H2T 2L3",
                        "locality": "Montreal",
                        "postcode": "H2T 2L3",
                        "region": "QC"
                  },
                  "name": "\u00cele Flottante",
                  "popularity": 0.891583080999243,
                  "price": 3,
                  "rating": 8.5
            },
            {
                  "distance": 870,
                  "location": {
                        "address": "5788 Saint-Laurent Blvd",
                        "country": "CA",
                        "cross_street": "Bernard",
                        "formatted_address": "5788 Saint-Laurent Blvd (Bernard), Montr\u00e9al QC H2T 1S8",
                        "locality": "Montreal",
                        "postcode": "H2T 1S8",
                        "region": "QC"
                  },
                  "name": "Ping Pong Club",
                  "popularity": 0.9317869984859954,
                  "price": 2,
                  "rating": 8.4
            },
            {
                  "distance": 201,
                  "location": {
                        "address": "1057 Bernard Ave",
                        "country": "CA",
                        "cross_street": "entre Durocher & Querbes",
                        "formatted_address": "1057 Bernard Ave (entre Durocher & Querbes), Outremont QC H2V 1V1",
                        "locality": "Outremont",
                        "postcode": "H2V 1V1",
                        "region": "QC"
                  },
                  "name": "Lester's Aaa Delicatessen",
                  "popularity": 0.9608606169568509,
                  "price": 2,
                  "rating": 8.3
            },
            {
                  "distance": 651,
                  "location": {
                        "address": "180 Saint- Viateur Rue O",
                        "country": "CA",
                        "cross_street": "angle Esplanade",
                        "formatted_address": "180 Saint- Viateur Rue O (angle Esplanade), Montr\u00e9al QC H2T 2L3",
                        "locality": "Montreal",
                        "postcode": "H2T 2L3",
                        "region": "QC"
                  },
                  "name": "Club Social",
                  "popularity": 0.9385408781226343,
                  "price": 1,
                  "rating": 8.2
            },
            {
                  "distance": 453,
                  "location": {
                        "address": "5611 Ave du Parc",
                        "country": "CA",
                        "cross_street": "St-Viateur",
                        "formatted_address": "5611 Ave du Parc (St-Viateur), Montr\u00e9al QC H2V 4H2",
                        "locality": "Montreal",
                        "postcode": "H2V 4H2",
                        "region": "QC"
                  },
                  "name": "Ta Chido",
                  "popularity": 0.9069360333080999,
                  "price": 1,
                  "rating": 8.1
            },
            {
                  "distance": 120,
                  "location": {
                        "address": "11265 Bernard Ave",
                        "country": "CA",
                        "cross_street": "btwn Ave. Champagneur & Ave. Outremont",
                        "formatted_address": "11265 Bernard Ave (btwn Ave. Champagneur & Ave. Outremont), Montr\u00e9al QC H2V 1V8",
                        "locality": "Montreal",
                        "postcode": "H2V 1V8",
                        "region": "QC"
                  },
                  "name": "Restaurant le Petit Italien",
                  "popularity": 0.9217094057532172,
                  "price": 3,
                  "rating": 8.1
            },
            {
                  "distance": 957,
                  "location": {
                        "address": "142 Fairmount Ave O",
                        "country": "CA",
                        "cross_street": "",
                        "formatted_address": "142 Fairmount Ave O, Montr\u00e9al QC H2T 2M5",
                        "locality": "Montreal",
                        "postcode": "H2T 2M5",
                        "region": "QC"
                  },
                  "name": "La Khaima",
                  "popularity": 0.9312310749432249,
                  "price": 2,
                  "rating": 8.0
            },
            {
                  "distance": 589,
                  "location": {
                        "address": "1464 Van Horne Ave",
                        "country": "CA",
                        "cross_street": "entre Stuart & Dollard",
                        "formatted_address": "1464 Van Horne Ave (entre Stuart & Dollard), Outremont QC H2V 1L2",
                        "locality": "Outremont",
                        "postcode": "H2V 1L2",
                        "region": "QC"
                  },
                  "name": "Paltoquet",
                  "popularity": 0.9282503785011355,
                  "price": 1,
                  "rating": 8.0
            },
            {
                  "distance": 954,
                  "location": {
                        "address": "365 Laurier Ave O",
                        "country": "CA",
                        "cross_street": "Parc",
                        "formatted_address": "365 Laurier Ave O (Parc), Montr\u00e9al QC H2V 2K5",
                        "locality": "Montreal",
                        "postcode": "H2V 2K5",
                        "region": "QC"
                  },
                  "name": "Il Pagliaccio",
                  "popularity": 0.9195566805450416,
                  "price": 2,
                  "rating": 7.9
            },
            {
                  "distance": 386,
                  "location": {
                        "address": "359 Bernard Rue O",
                        "country": "CA",
                        "cross_street": "coin Du Parc",
                        "formatted_address": "359 Bernard Rue O (coin Du Parc), Montr\u00e9al QC H2V 1T6",
                        "locality": "Montreal",
                        "postcode": "H2V 1T6",
                        "region": "QC"
                  },
                  "name": "Boulangerie Cheskie Inc",
                  "popularity": 0.9672005109765329,
                  "price": 1,
                  "rating": 7.8
            },
            {
                  "distance": 412,
                  "location": {
                        "address": "5733 Ave du Parc",
                        "country": "CA",
                        "cross_street": "coin Bernard",
                        "formatted_address": "5733 Ave du Parc (coin Bernard), Montr\u00e9al QC H2V 4H2",
                        "locality": "Montreal",
                        "postcode": "H2V 4H2",
                        "region": "QC"
                  },
                  "name": "Phyllo Bar Melina's",
                  "popularity": 0.9046886828160484,
                  "price": 2,
                  "rating": 7.7
            },
            {
                  "distance": 689,
                  "location": {
                        "address": "158 Saint Viateur Rue O",
                        "country": "CA",
                        "cross_street": "Rue Waverly",
                        "formatted_address": "158 Saint Viateur Rue O (Rue Waverly), Montr\u00e9al QC H2T 2L3",
                        "locality": "Montreal",
                        "postcode": "H2T 2L3",
                        "region": "QC"
                  },
                  "name": "St-Viateur Bagel",
                  "popularity": 0.9433194549583649,
                  "price": 1,
                  "rating": 7.4
            },
            {
                  "distance": 920,
                  "location": {
                        "address": "5550 Saint-Laurent Blvd",
                        "country": "CA",
                        "cross_street": "coin St-Viateur",
                        "formatted_address": "5550 Saint-Laurent Blvd (coin St-Viateur), Montr\u00e9al QC H2T 1S8",
                        "locality": "Montreal",
                        "postcode": "H2T 1S8",
                        "region": "QC"
                  },
                  "name": "Bar Waverly",
                  "popularity": 0.9304149318697956,
                  "price": 1,
                  "rating": 7.3
            },
            {
                  "distance": 915,
                  "location": {
                        "address": "1014 Laurier Ave O",
                        "country": "CA",
                        "formatted_address": "1014 Laurier Ave O, Montr\u00e9al QC H2V 2K8",
                        "locality": "Montreal",
                        "postcode": "H2V 2K8",
                        "region": "QC"
                  },
                  "name": "Steak Frites St-Paul",
                  "popularity": 0.12759036714610145,
                  "price": 4,
                  "rating": 7.3
            },
            {
                  "distance": 443,
                  "location": {
                        "address": "273 Bernard Rue O",
                        "country": "CA",
                        "cross_street": "entre Du Parc & Jeanne-Mance",
                        "formatted_address": "273 Bernard Rue O (entre Du Parc & Jeanne-Mance), Montr\u00e9al QC H2V 1T5",
                        "locality": "Montreal",
                        "postcode": "H2V 1T5",
                        "region": "QC"
                  },
                  "name": "Helm Brasseur Gourmand",
                  "popularity": 0.9408237130961393,
                  "price": 2,
                  "rating": 7.3
            },
            {
                  "distance": 657,
                  "location": {
                        "address": "5318 Ave du Parc",
                        "country": "CA",
                        "cross_street": "",
                        "formatted_address": "5318 Ave du Parc, Montr\u00e9al QC H2V 4G7",
                        "locality": "Montreal",
                        "postcode": "H2V 4G7",
                        "region": "QC"
                  },
                  "name": "Restaurant Mythos Ouzeri Estiatorio",
                  "popularity": 0.9447033497350492,
                  "price": 2,
                  "rating": 7.0
            },
            {
                  "distance": 510,
                  "location": {
                        "address": "1041 Van Horne Ave",
                        "country": "CA",
                        "cross_street": "Durocher",
                        "formatted_address": "1041 Van Horne Ave (Durocher), Montr\u00e9al QC H2V 1J4",
                        "locality": "Montreal",
                        "postcode": "H2V 1J4",
                        "region": "QC"
                  },
                  "name": "Boxermans",
                  "popularity": 0.9236728803936411,
                  "price": 2,
                  "rating": 6.9
            },
            {
                  "distance": 977,
                  "location": {
                        "address": "129 Beaubien Rue O",
                        "country": "CA",
                        "cross_street": "",
                        "formatted_address": "129 Beaubien Rue O, Montr\u00e9al QC H2V 1C3",
                        "locality": "Montreal",
                        "postcode": "H2V 1C3",
                        "region": "QC"
                  },
                  "name": "Le Diplomate",
                  "popularity": 0.9195211960635882,
                  "price": 3,
                  "rating": 6.9
            },
            {
                  "distance": 895,
                  "location": {
                        "address": "5145 Ave du Parc",
                        "country": "CA",
                        "cross_street": "",
                        "formatted_address": "5145 Ave du Parc, Montr\u00e9al QC H2V 4G3",
                        "locality": "Montreal",
                        "postcode": "H2V 4G3",
                        "region": "QC"
                  },
                  "name": "Poutineville",
                  "popularity": 0.9438280658591975,
                  "rating": 6.2
            },
            {
                  "distance": 572,
                  "location": {
                        "address": "1452 Van Horne Ave",
                        "country": "CA",
                        "cross_street": "coin av. Stuart",
                        "formatted_address": "1452 Van Horne Ave (coin av. Stuart), Outremont QC H2V 1L2",
                        "locality": "Outremont",
                        "postcode": "H2V 1L2",
                        "region": "QC"
                  },
                  "name": "Subway",
                  "popularity": 0.32512064723694173,
                  "price": 1,
                  "rating": 6.2,
                  "store_id": "41805"
            },
            {
                  "distance": 142,
                  "location": {
                        "address": "1275 Bernard Ave",
                        "country": "CA",
                        "cross_street": "",
                        "formatted_address": "1275 Bernard Ave, Outremont QC H2V 1V8",
                        "locality": "Outremont",
                        "postcode": "H2V 1V8",
                        "region": "QC"
                  },
                  "name": "Second Cup Coffee Co",
                  "popularity": 0.8932863361090083,
                  "price": 1,
                  "rating": 5.8,
                  "store_id": "3211"
            },
            {
                  "distance": 394,
                  "location": {
                        "address": "5687 Ave du Parc",
                        "country": "CA",
                        "cross_street": "",
                        "formatted_address": "5687 Ave du Parc, Montr\u00e9al QC H2V 4H2",
                        "locality": "Montreal",
                        "postcode": "H2V 4H2",
                        "region": "QC"
                  },
                  "name": "Nita Tout Garni",
                  "popularity": 0.9420420136260409,
                  "price": 1
            },
            {
                  "distance": 437,
                  "location": {
                        "address": "1142 Van Horne Ave",
                        "country": "CA",
                        "cross_street": "",
                        "formatted_address": "1142 Van Horne Ave, Montr\u00e9al QC H2V 1J8",
                        "locality": "Montreal",
                        "postcode": "H2V 1J8",
                        "region": "QC"
                  },
                  "name": "Boucherie Bar \u00e0 vin Provisions",
                  "popularity": 0.9643026116578349
            },
            {
                  "distance": 476,
                  "location": {
                        "address": "1317 Van Horne Ave",
                        "country": "CA",
                        "cross_street": "",
                        "formatted_address": "1317 Van Horne Ave, Montr\u00e9al QC H2V 1K7",
                        "locality": "Montreal",
                        "postcode": "H2V 1K7",
                        "region": "QC"
                  },
                  "name": "Caf\u00e9 Dante",
                  "popularity": 0.9554314912944739,
                  "price": 1
            }
      ],
      "context": {
            "geo_bounds": {
                  "circle": {
                        "center": {
                              "latitude": 45.52054518,
                              "longitude": -73.60820215
                        },
                        "radius": 1000
                  }
            }
      }
}