{
      "results": [
            {
                  "distance": 100,
                  "location": {
                        "address": "1940 rue du Ctr",
                        "country": "CA",
                        "cross_street": "rue Jardin",
                        "formatted_address": "1940 rue du Ctr (rue Jardin), Montr\u00e9al QC H3K 1J2",
                        "locality": "Montreal",
                        "postcode": "H3K 1J2",
                        "region": "QC"
                  },
                  "name": "Le Caf\u00e9 Bloom",
                  "popularity": 0.9499195685087055,
                  "price": 2,
                  "rating": 9.0
            },
            {
                  "distance": 750,
                  "location": {
                        "address": "1886 Notre-Dame Rue O",
                        "country": "CA",
                        "cross_street": "coin Des Seigneurs",
                        "formatted_address": "1886 Notre-Dame Rue O (coin Des Seigneurs), Montr\u00e9al QC H3J 1M6",
                        "locality": "Montreal",
                        "postcode": "H3J 1M6",
                        "region": "QC"
                  },
                  "name": "Le Boucan",
                  "popularity": 0.9390494890234671,
                  "price": 3,
                  "rating": 8.8
            },
            {
                  "distance": 821,
                  "location": {
                        "address": "1708 Notre-Dame Rue O",
                        "country": "CA",
                        "cross_street": "entre Richmond & St-Martin",
                        "formatted_address": "1708 Notre-Dame Rue O (entre Richmond & St-Martin), Montr\u00e9al QC H3J 1M3",
                        "locality": "Montreal",
                        "postcode": "H3J 1M3",
                        "region": "QC"
                  },
                  "name": "Grinder",
                  "popularity": 0.9388838947766843,
                  "price": 3,
                  "rating": 8.7
            },
            {
                  "distance": 706,
                  "location": {
                        "address": "403 des Seigneurs Rue",
                        "country": "CA",
                        "cross_street": "Notre Dame",
                        "formatted_address": "403 des Seigneurs Rue (Notre Dame), Montr\u00e9al QC H3J 1X7",
                        "locality": "Montreal",
                        "postcode": "H3J 1X7",
                        "region": "QC"
                  },
                  "name": "Perles et Paddock",
                  "popularity": 0.9152394019682059,
                  "price": 4,
                  "rating": 8.6
            },
            {
                  "distance": 724,
                  "location": {
                        "address": "1974 Notre-Dame Rue O",
                        "country": "CA",
                        "cross_street": "entre Canning & Chatham",
                        "formatted_address": "1974 Notre-Dame Rue O (entre Canning & Chatham), Montr\u00e9al QC H3J 1M8",
                        "locality": "Montreal",
                        "postcode": "H3J 1M8",
                        "region": "QC"
                  },
                  "name": "Chez Sophie",
                  "popularity": 0.927304125662377,
                  "price": 3,
                  "rating": 8.6
            },
            {
                  "distance": 858,
                  "location": {
                        "address": "1638 Notre-Dame Rue O",
                        "country": "CA",
                        "cross_street": "entre Guy & Richmond",
                        "formatted_address": "1638 Notre-Dame Rue O (entre Guy & Richmond), Montr\u00e9al QC H3J 1M1",
                        "locality": "Montreal",
                        "postcode": "H3J 1M1",
                        "region": "QC"
                  },
                  "name": "Foxy",
                  "popularity": 0.9481216881150644,
                  "price": 2,
                  "rating": 8.6
            },
            {
                  "distance": 781,
                  "location": {
                        "address": "1485 Ottawa Rue",
                        "country": "CA",
                        "cross_street": "coin Guy",
                        "formatted_address": "1485 Ottawa Rue (coin Guy), Montr\u00e9al QC H3C 1S9",
                        "locality": "Montreal",
                        "postcode": "H3C 1S9",
                        "region": "QC"
                  },
                  "name": "Brasseur de Montr\u00e9al",
                  "popularity": 0.9854750189250567,
                  "price": 2,
                  "rating": 8.5
            },
            {
                  "distance": 23,
                  "location": {
                        "address": "1871 Rue du Ctr",
                        "country": "CA",
                        "cross_street": "Shearer",
                        "formatted_address": "1871 Rue du Ctr (Shearer), Montr\u00e9al QC H3K 1J1",
                        "locality": "Montreal",
                        "postcode": "H3K 1J1",
                        "region": "QC"
                  },
                  "name": "Knox Taverne",
                  "popularity": 0.9547572861468584,
                  "price": 2,
                  "rating": 8.3
            },
            {
                  "distance": 838,
                  "location": {
                        "address": "760 Charlevoix Rue",
                        "country": "CA",
                        "cross_street": "at Rue de Coleraine",
                        "formatted_address": "760 Charlevoix Rue (at Rue de Coleraine), Montr\u00e9al QC H3K 2Y2",
                        "locality": "Montreal",
                        "postcode": "H3K 2Y2",
                        "region": "QC"
                  },
                  "name": "Paul Patates Frites",
                  "popularity": 0.9733866389099167,
                  "price": 1,
                  "rating": 8.3
            },
            {
                  "distance": 876,
                  "location": {
                        "address": "1642 Notre-Dame Rue O",
                        "country": "CA",
                        "cross_street": "entre Richmond & Guy",
                        "formatted_address": "1642 Notre-Dame Rue O (entre Richmond & Guy), Montr\u00e9al QC H3J 1M1",
                        "locality": "Montreal",
                        "postcode": "H3J 1M1",
                        "region": "QC"
                  },
                  "name": "Le Bureau Bar a Tapas",
                  "popularity": 0.9004305450416351,
                  "price": 3,
                  "rating": 8.3
            },
            {
                  "distance": 764,
                  "location": {
                        "address": "1850 Notre-Dame Rue O",
                        "country": "CA",
                        "cross_street": "Rue des Seigneurs",
                        "formatted_address": "1850 Notre-Dame Rue O (Rue des Seigneurs), Montr\u00e9al QC H3J 1M5",
                        "locality": "Montreal",
                        "postcode": "H3J 1M5",
                        "region": "QC"
                  },
                  "name": "Caf\u00e9 Lali",
                  "popularity": 0.9049134178652536,
                  "price": 1,
                  "rating": 8.1
            },
            {
                  "distance": 778,
                  "location": {
                        "address": "1900 le Ber Rue",
                        "country": "CA",
                        "cross_street": "",
                        "formatted_address": "1900 le Ber Rue, Montr\u00e9al QC H3K 2A4",
                        "locality": "Montreal",
                        "postcode": "H3K 2A4",
                        "region": "QC"
                  },
                  "name": "Les Sans-Taverne",
                  "popularity": 0.9684779523088569,
                  "price": 2,
                  "rating": 8.0
            },
            {
                  "distance": 3,
                  "location": {
                        "address": "1870 rue du Ctr",
                        "country": "CA",
                        "cross_street": "",
                        "formatted_address": "1870 rue du Ctr, Montr\u00e9al QC H3K 1H9",
                        "locality": "Montreal",
                        "postcode": "H3K 1H9",
                        "region": "QC"
                  },
                  "name": "Le Petit Sao",
                  "popularity": 0.8894894965934897,
                  "price": 2,
                  "rating": 8.0
            },
            {
                  "distance": 621,
                  "location": {
                        "address": "2483 rue du Ctr",
                        "country": "CA",
                        "cross_street": "",
                        "formatted_address": "2483 rue du Ctr, Montr\u00e9al QC H3K 1J9",
                        "locality": "Montreal",
                        "postcode": "H3K 1J9",
                        "region": "QC"
                  },
                  "name": "Clarke Caf\u00e9",
                  "popularity": 0.9593111279333838,
                  "price": 1,
                  "rating": 7.6
            },
            {
                  "distance": 936,
                  "location": {
                        "address": "1524 Notre-Dame Rue O",
                        "country": "CA",
                        "cross_street": "",
                        "formatted_address": "1524 Notre-Dame Rue O, Montr\u00e9al QC H3C 1L1",
                        "locality": "Montreal",
                        "postcode": "H3C 1L1",
                        "region": "QC"
                  },
                  "name": "Maman",
                  "popularity": 0.9602692089326268,
                  "price": 3,
                  "rating": 7.6
            },
            {
                  "distance": 609,
                  "location": {
                        "address": "265 des Seigneurs Rue",
                        "country": "CA",
                        "cross_street": "entre William & Basin",
                        "formatted_address": "265 des Seigneurs Rue (entre William & Basin), Montr\u00e9al QC H3J 0B3",
                        "locality": "Montreal",
                        "postcode": "H3J 0B3",
                        "region": "QC"
                  },
                  "name": "Lord William Pub",
                  "popularity": 0.9671058856926571,
                  "price": 1,
                  "rating": 7.1
            },
            {
                  "distance": 738,
                  "location": {
                        "address": "377 Richmond Rue",
                        "country": "CA",
                        "cross_street": "",
                        "formatted_address": "377 Richmond Rue, Montr\u00e9al QC H3J 1T9",
                        "locality": "Montreal",
                        "postcode": "H3J 1T9",
                        "region": "QC"
                  },
                  "name": "Le Richmond",
                  "popularity": 0.906865064345193,
                  "price": 3,
                  "rating": 7.1
            },
            {
                  "distance": 28,
                  "location": {
                        "address": "1883 Rue du Ctr",
                        "country": "CA",
                        "cross_street": "Shearer",
                        "formatted_address": "1883 Rue du Ctr (Shearer), Montr\u00e9al QC H3K 1J1",
                        "locality": "Montreal",
                        "postcode": "H3K 1J1",
                        "region": "QC"
                  },
                  "name": "Caf\u00e9 Ton Quartier",
                  "popularity": 0.849522142316427,
                  "price": 1
            },
            {
                  "distance": 42,
                  "location": {
                        "address": "1886 Rue Ctr",
                        "country": "CA",
                        "cross_street": "",
                        "formatted_address": "1886 Rue Ctr, Montr\u00e9al QC H3K 1H9",
                        "locality": "Montreal",
                        "postcode": "H3K 1H9",
                        "region": "QC"
                  },
                  "name": "Fugazzi Pizza",
                  "popularity": 0.9187168811506434,
                  "price": 1
            },
            {
                  "distance": 555,
                  "location": {
                        "address": "2069 Wellington Rue",
                        "country": "CA",
                        "cross_street": "Fortune",
                        "formatted_address": "2069 Wellington Rue (Fortune), Montr\u00e9al QC H3K 1W7",
                        "locality": "Montreal",
                        "postcode": "H3K 1W7",
                        "region": "QC"
                  },
                  "name": "Mollo",
                  "popularity": 0.9784609197577593,
                  "price": 1
            },
            {
                  "distance": 628,
                  "location": {
                        "address": "1845 William Rue",
                        "country": "CA",
                        "cross_street": "",
                        "formatted_address": "1845 William Rue, Montr\u00e9al QC H3J 0A5",
                        "locality": "Montreal",
                        "postcode": "H3J 0A5",
                        "region": "QC"
                  },
                  "name": "Le Trou - Fabrique de Bagels Griffintown",
                  "popularity": 0.9281794095382286,
                  "price": 1
            },
            {
                  "distance": 717,
                  "location": {
                        "address": "1986 Notre-Dame Rue O",
                        "country": "CA",
                        "cross_street": "William",
                        "formatted_address": "1986 Notre-Dame Rue O (William), Montreal QC H3J 1M8",
                        "locality": "Montreal",
                        "postcode": "H3J 1M8",
                        "region": "QC"
                  },
                  "name": "La Diperie",
                  "popularity": 0.9300719152157456,
                  "price": 1
            },
            {
                  "distance": 722,
                  "location": {
                        "address": "1970 Notre Dame Rue O",
                        "country": "CA",
                        "cross_street": "",
                        "formatted_address": "1970 Notre Dame Rue O, Montr\u00e9al QC H3J 1M8",
                        "locality": "Montreal",
                        "postcode": "H3J 1M8",
                        "region": "QC"
                  },
                  "name": "Cafe Got Soul",
                  "popularity": 0.8577190575321726,
                  "price": 1
            },
            {
                  "distance": 731,
                  "location": {
                        "address": "1613 William Rue",
                        "country": "CA",
                        "cross_street": "",
                        "formatted_address": "1613 William Rue, Montr\u00e9al QC H3J 1R1",
                        "locality": "Montreal",
                        "postcode": "H3J 1R1",
                        "region": "QC"
                  },
                  "name": "Petros Griffintown",
                  "popularity": 0.9564132286146858,
                  "price": 2
            },
            {
                  "distance": 746,
                  "location": {
                        "address": "2567 Centre St",
                        "country": "CA",
                        "cross_street": "",
                        "formatted_address": "2567 Centre St, Montr\u00e9al QC H3K 1J9",
                        "locality": "Montreal",
                        "postcode": "H3K 1J9",
                        "region": "QC"
                  },
                  "name": "LaChicR\u00e9gal",
                  "popularity": 0.8318272142316427,
                  "price": 2
            },
            {
                  "distance": 757,
                  "location": {
                        "address": "2601 Rue Ctr",
                        "country": "CA",
                        "cross_street": "",
                        "formatted_address": "2601 Rue Ctr, Montr\u00e9al QC H3K 1K2",
                        "locality": "Montreal",
                        "postcode": "H3K 1K2",
                        "region": "QC"
                  },
                  "name": "Sep Lai",
                  "popularity": 0.945484008327025,
                  "price": 2
            },
            {
                  "distance": 804,
                  "location": {
                        "address": "801 Charlevoix Rue",
                        "country": "CA",
                        "cross_street": "",
                        "formatted_address": "801 Charlevoix Rue, Montr\u00e9al QC H3K 2Y5",
                        "locality": "Montreal",
                        "postcode": "H3K 2Y5",
                        "region": "QC"
                  },
                  "name": "Connie Pizza",
                  "popularity": 0.8321702308856926,
                  "price": 1
            },
            {
                  "distance": 828,
                  "location": {
                        "address": "1726 Notre-Dame Rue O",
                        "country": "CA",
                        "cross_street": "",
                        "formatted_address": "1726 Notre-Dame Rue O, Montr\u00e9al QC H3J 1M3",
                        "locality": "Montreal",
                        "postcode": "H3J 1M3",
                        "region": "QC"
                  },
                  "name": "Le Mackro",
                  "popularity": 0.023538039364118093,
                  "price": 3
            },
            {
                  "distance": 853,
                  "location": {
                        "address": "2606 Saint-Patrick Rue",
                        "country": "CA",
                        "cross_street": "",
                        "formatted_address": "2606 Saint-Patrick Rue, Montr\u00e9al QC H3K 1B8",
                        "locality": "Montreal",
                        "postcode": "H3K 1B8",
                        "region": "QC"
                  },
                  "name": "Restaurant Krood",
                  "popularity": 0.8481973883421651
            },
            {
                  "distance": 854,
                  "location": {
                        "address": "2604 Saint-Patrick Rue",
                        "country": "CA",
                        "cross_street": "",
                        "formatted_address": "2604 Saint-Patrick Rue, Montr\u00e9al QC H3K 1B8",
                        "locality": "Montreal",
                        "postcode": "H3K 1B8",
                        "region": "QC"
                  },
                  "name": "Caf\u00e9 Redwood",
                  "popularity": 0.9289127554882665,
                  "price": 1
            },
            {
                  "distance": 902,
                  "location": {
                        "address": "455 Guy Rue",
                        "country": "CA",
                        "cross_street": "",
                        "formatted_address": "455 Guy Rue, Montr\u00e9al QC H3J 1S9",
                        "locality": "Montreal",
                        "postcode": "H3J 1S9",
                        "region": "QC"
                  },
                  "name": "A&W Restaurant",
                  "popularity": 0.9665499621498864,
                  "price": 1,
                  "store_id": "5851"
            },
            {
                  "distance": 940,
                  "location": {
                        "address": "1510 Notre-Dame Rue O",
                        "country": "CA",
                        "cross_street": "",
                        "formatted_address": "1510 Notre-Dame Rue O, Montr\u00e9al QC H3C 1L1",
                        "locality": "Montreal",
                        "postcode": "H3C 1L1",
                        "region": "QC"
                  },
                  "name": "Lime Griffintown",
                  "popularity": 0.9447743186979561,
                  "price": 2
            },
            {
                  "distance": 981,
                  "location": {
                        "address": "1420 Notre-Dame Rue O",
                        "country": "CA",
                        "cross_street": "Versailles",
                        "formatted_address": "1420 Notre-Dame Rue O (Versailles), Montr\u00e9al QC H3C 1K9",
                        "locality": "Montreal",
                        "postcode": "H3C 1K9",
                        "region": "QC"
                  },
                  "name": "Escape Lab",
                  "popularity": 0.9060725775927327,
                  "price": 1
            },
            {
                  "distance": 999,
                  "location": {
                        "address": "1414 Notre-Dame Rue O",
                        "country": "CA",
                        "cross_street": "",
                        "formatted_address": "1414 Notre-Dame Rue O, Montr\u00e9al QC H3C 1K8",
                        "locality": "Montreal",
                        "postcode": "H3C 1K8",
                        "region": "QC"
                  },
                  "name": "Shay",
                  "popularity": 0.9483227668433005,
                  "price": 2
            },
            {
                  "distance": 47,
                  "location": {
                        "address": "1871 Center Rue",
                        "country": "CA",
                        "formatted_address": "1871 Center Rue, Montreal QC H3K 1J1",
                        "locality": "Montreal",
                        "postcode": "H3K 1J1",
                        "region": "QC"
                  },
                  "name": "Bar du Diable a 4 Inc"
            }
      ],
      "context": {
            "geo_bounds": {
                  "circle": {
                        "center": {
                              "latitude": 45.4828251,
                              "longitude": -73.56206325
                        },
                        "radius": 1000
                  }
            }
      }
}