{
      "results": [
            {
                  "distance": 955,
                  "location": {
                        "address": "4095 Molson Rue",
                        "country": "CA",
                        "cross_street": "",
                        "formatted_address": "4095 Molson Rue, Montr\u00e9al QC H1Y 3L1",
                        "locality": "Montreal",
                        "postcode": "H1Y 3L1",
                        "region": "QC"
                  },
                  "name": "Hoogan et Beaufort",
                  "popularity": 0.9060844057532172,
                  "rating": 8.5
            },
            {
                  "distance": 564,
                  "location": {
                        "address": "3974 Pierre de Coubertin Ave",
                        "country": "CA",
                        "cross_street": "",
                        "formatted_address": "3974 Pierre de Coubertin Ave, Montr\u00e9al QC H1W 1E7",
                        "locality": "Montreal",
                        "postcode": "H1W 1E7",
                        "region": "QC"
                  },
                  "name": "Fusion Express",
                  "popularity": 0.9321300151400455,
                  "price": 2,
                  "rating": 8.0
            },
            {
                  "distance": 727,
                  "location": {
                        "address": "3971 Hochelaga Rue",
                        "country": "CA",
                        "cross_street": "",
                        "formatted_address": "3971 Hochelaga Rue, Montr\u00e9al QC H1W 1K2",
                        "locality": "Montreal",
                        "postcode": "H1W 1K2",
                        "region": "QC"
                  },
                  "name": "Poutine Centrale",
                  "popularity": 0.9448807721423165,
                  "price": 2,
                  "rating": 7.9
            },
            {
                  "distance": 971,
                  "location": {
                        "address": "4093 Molson Rue",
                        "country": "CA",
                        "cross_street": "Rue William-Tremblay",
                        "formatted_address": "4093 Molson Rue (Rue William-Tremblay), Montr\u00e9al QC H1Y 3L1",
                        "locality": "Montreal",
                        "postcode": "H1Y 3L1",
                        "region": "QC"
                  },
                  "name": "Mamie Clafoutis",
                  "popularity": 0.9076693792581377,
                  "price": 1,
                  "rating": 7.9
            },
            {
                  "distance": 689,
                  "location": {
                        "address": "4101 Sherbrooke Rue E",
                        "country": "CA",
                        "cross_street": "",
                        "formatted_address": "4101 Sherbrooke Rue E, Montr\u00e9al QC H1X 2B2",
                        "locality": "Montreal",
                        "postcode": "H1X 2B2",
                        "region": "QC"
                  },
                  "name": "Restaurant du Jardin Botanique",
                  "popularity": 0.9286880204390613,
                  "price": 2,
                  "rating": 7.4
            },
            {
                  "distance": 919,
                  "location": {
                        "address": "3121 Hochelaga Rue",
                        "country": "CA",
                        "cross_street": "",
                        "formatted_address": "3121 Hochelaga Rue, Montr\u00e9al QC H1W 1G3",
                        "locality": "Montreal",
                        "postcode": "H1W 1G3",
                        "region": "QC"
                  },
                  "name": "Maneki Comptoir Asiat'",
                  "popularity": 0.8695235616956851,
                  "price": 2,
                  "rating": 7.2
            },
            {
                  "distance": 864,
                  "location": {
                        "address": "3090 Sherbrooke Rue E",
                        "country": "CA",
                        "cross_street": "coin Moreau",
                        "formatted_address": "3090 Sherbrooke Rue E (coin Moreau), Montr\u00e9al QC H1W 1B5",
                        "locality": "Montreal",
                        "postcode": "H1W 1B5",
                        "region": "QC"
                  },
                  "name": "Deli Miami",
                  "popularity": 0.9861492240726722,
                  "price": 1,
                  "rating": 6.9
            },
            {
                  "distance": 600,
                  "location": {
                        "address": "3165 Rachel Rue E",
                        "country": "CA",
                        "cross_street": "Avenue du Midway",
                        "formatted_address": "3165 Rachel Rue E (Avenue du Midway), Montr\u00e9al QC H1W 1A3",
                        "locality": "Montreal",
                        "postcode": "H1W 1A3",
                        "region": "QC"
                  },
                  "name": "Labarake",
                  "popularity": 0.9237320211960636,
                  "price": 3,
                  "rating": 6.6
            },
            {
                  "distance": 440,
                  "location": {
                        "address": "3929 Sherbrooke Rue E",
                        "country": "CA",
                        "cross_street": "Orleans",
                        "formatted_address": "3929 Sherbrooke Rue E (Orleans), Montr\u00e9al QC H1X 3E3",
                        "locality": "Montreal",
                        "postcode": "H1X 3E3",
                        "region": "QC"
                  },
                  "name": "Restaurant la Belle Province",
                  "popularity": 0.9721091975775927,
                  "price": 1,
                  "rating": 6.3
            },
            {
                  "distance": 341,
                  "location": {
                        "address": "3881 Sherbrooke Rue E",
                        "country": "CA",
                        "cross_street": "coin Av. Bourbonni\u00e8re",
                        "formatted_address": "3881 Sherbrooke Rue E (coin Av. Bourbonni\u00e8re), Montr\u00e9al QC H1X 2A5",
                        "locality": "Montreal",
                        "postcode": "H1X 2A5",
                        "region": "QC"
                  },
                  "name": "Tim Hortons",
                  "popularity": 0.9890116389099167,
                  "price": 1,
                  "rating": 6.2
            },
            {
                  "distance": 732,
                  "location": {
                        "address": "3924 Hochelaga Rue",
                        "country": "CA",
                        "cross_street": "coin Orleans",
                        "formatted_address": "3924 Hochelaga Rue (coin Orleans), Montr\u00e9al QC H1W 1J9",
                        "locality": "Montreal",
                        "postcode": "H1W 1J9",
                        "region": "QC"
                  },
                  "name": "Jimmy Restaurant",
                  "popularity": 0.9504518357305072,
                  "price": 2,
                  "rating": 5.9
            },
            {
                  "distance": 965,
                  "location": {
                        "address": "4240 Hochelaga Rue",
                        "country": "CA",
                        "formatted_address": "4240 Hochelaga Rue, Montr\u00e9al QC H1V 1B7",
                        "locality": "Montreal",
                        "postcode": "H1V 1B7",
                        "region": "QC"
                  },
                  "name": "Brasserie 99",
                  "popularity": 0.9025596139288418,
                  "price": 1,
                  "rating": 5.6
            },
            {
                  "distance": 984,
                  "location": {
                        "address": "4091 Molson Rue",
                        "country": "CA",
                        "cross_street": "",
                        "formatted_address": "4091 Molson Rue, Montr\u00e9al QC H1Y 3L1",
                        "locality": "Montreal",
                        "postcode": "H1Y 3L1",
                        "region": "QC"
                  },
                  "name": "Pizzeria Caldo",
                  "popularity": 0.17878264572293717,
                  "price": 1,
                  "rating": 5.3
            },
            {
                  "distance": 1000,
                  "location": {
                        "address": "3090 Hochelaga Rue",
                        "country": "CA",
                        "cross_street": "",
                        "formatted_address": "3090 Hochelaga Rue, Montr\u00e9al QC H1W 1G2",
                        "locality": "Montreal",
                        "postcode": "H1W 1G2",
                        "region": "QC"
                  },
                  "name": "KFC",
                  "popularity": 0.9641961582134746,
                  "price": 1,
                  "rating": 4.9,
                  "store_id": "1256"
            },
            {
                  "distance": 98,
                  "location": {
                        "address": "3537 Rachel Rue E",
                        "country": "CA",
                        "cross_street": "",
                        "formatted_address": "3537 Rachel Rue E, Montr\u00e9al QC H1W 1A8",
                        "locality": "Montreal",
                        "postcode": "H1W 1A8",
                        "region": "QC"
                  },
                  "name": "Jardin des Delices",
                  "popularity": 0.9223599545798638,
                  "price": 2
            },
            {
                  "distance": 321,
                  "location": {
                        "address": "3881 Rachel Rue E",
                        "country": "CA",
                        "cross_street": "Bourbonni\u00e8re",
                        "formatted_address": "3881 Rachel Rue E (Bourbonni\u00e8re), Montr\u00e9al QC H1X 1Z2",
                        "locality": "Montreal",
                        "postcode": "H1X 1Z2",
                        "region": "QC"
                  },
                  "name": "Le Botocoin",
                  "popularity": 0.9011757191521574,
                  "price": 1
            },
            {
                  "distance": 369,
                  "location": {
                        "address": "3800 Sherbrooke Rue E",
                        "country": "CA",
                        "cross_street": "",
                        "formatted_address": "3800 Sherbrooke Rue E, Montr\u00e9al QC H1X 2A2",
                        "locality": "Montreal",
                        "postcode": "H1X 2A2",
                        "region": "QC"
                  },
                  "name": "Caf\u00e9 l'Escale",
                  "popularity": 0.9066403292959879,
                  "price": 1
            },
            {
                  "distance": 512,
                  "location": {
                        "address": "3240 Rachel Rue E",
                        "country": "CA",
                        "cross_street": "Saint-Germain",
                        "formatted_address": "3240 Rachel Rue E (Saint-Germain), Montr\u00e9al QC H1W 1A4",
                        "locality": "Montreal",
                        "postcode": "H1W 1A4",
                        "region": "QC"
                  },
                  "name": "Caf\u00e9 Imp\u00e9rial Microtorr\u00e9facteur",
                  "popularity": 0.8643309992429977,
                  "price": 1
            },
            {
                  "distance": 618,
                  "location": {
                        "address": "3497 Hochelaga Rue",
                        "country": "CA",
                        "cross_street": "Aylwin",
                        "formatted_address": "3497 Hochelaga Rue (Aylwin), Montr\u00e9al QC H1W 1C4",
                        "locality": "Montreal",
                        "postcode": "H1W 1C4",
                        "region": "QC"
                  },
                  "name": "Morelli",
                  "popularity": 0.0682366578349735,
                  "price": 2
            },
            {
                  "distance": 618,
                  "location": {
                        "address": "3667 Hochelaga Rue",
                        "country": "CA",
                        "cross_street": "Chambly",
                        "formatted_address": "3667 Hochelaga Rue (Chambly), Montr\u00e9al QC H1W 1J2",
                        "locality": "Montreal",
                        "postcode": "H1W 1J2",
                        "region": "QC"
                  },
                  "name": "Bistro King Creole",
                  "popularity": 0.007901211203633612,
                  "price": 2
            },
            {
                  "distance": 844,
                  "location": {
                        "address": "4090 Andre-Laurendeau Rue",
                        "country": "CA",
                        "cross_street": "",
                        "formatted_address": "4090 Andre-Laurendeau Rue, Montreal QC H1Y 3N6",
                        "locality": "Montreal",
                        "postcode": "H1Y 3N6",
                        "region": "QC"
                  },
                  "name": "La Caf\u00e9shop",
                  "popularity": 0.8607470666161998,
                  "price": 1
            },
            {
                  "distance": 884,
                  "location": {
                        "address": "2600 William-Tremblay Rue",
                        "country": "CA",
                        "cross_street": "",
                        "formatted_address": "2600 William-Tremblay Rue, Montr\u00e9al QC H1Y 3J2",
                        "locality": "Montreal",
                        "postcode": "H1Y 3J2",
                        "region": "QC"
                  },
                  "name": "Station W",
                  "popularity": 0.9345902725208176,
                  "price": 1
            },
            {
                  "distance": 981,
                  "location": {
                        "address": "4091 Molson Rue",
                        "country": "CA",
                        "cross_street": "",
                        "formatted_address": "4091 Molson Rue, Montr\u00e9al QC H1Y 3L1",
                        "locality": "Montreal",
                        "postcode": "H1Y 3L1",
                        "region": "QC"
                  },
                  "name": "Pizzeria No.900",
                  "popularity": 0.9202427138531416,
                  "price": 1
            },
            {
                  "distance": 243,
                  "location": {
                        "address": "3645 Sherbrooke Rue E",
                        "country": "CA",
                        "formatted_address": "3645 Sherbrooke Rue E, Montreal QC H1W 1E5",
                        "locality": "Montreal",
                        "postcode": "H1W 1E5",
                        "region": "QC"
                  },
                  "name": "Sandwich Par-Ici"
            },
            {
                  "distance": 512,
                  "location": {
                        "address": "3240 Rachel Rue E",
                        "country": "CA",
                        "formatted_address": "3240 Rachel Rue E, Montreal QC H1W 1A4",
                        "locality": "Montreal",
                        "postcode": "H1W 1A4",
                        "region": "QC"
                  },
                  "name": "Pub Angus"
            },
            {
                  "distance": 631,
                  "location": {
                        "address": "3529 Hochelaga Rue",
                        "country": "CA",
                        "formatted_address": "3529 Hochelaga Rue, Montreal QC H1W 1H8",
                        "locality": "Montreal",
                        "postcode": "H1W 1H8",
                        "region": "QC"
                  },
                  "name": "Taverne Morelli"
            },
            {
                  "distance": 649,
                  "location": {
                        "address": "2925 Rachel Rue E",
                        "country": "CA",
                        "formatted_address": "2925 Rachel Rue E, Montreal QC H1W 3Z8",
                        "locality": "Montreal",
                        "postcode": "H1W 3Z8",
                        "region": "QC"
                  },
                  "name": "Starbucks",
                  "store_id": "65587-300003"
            },
            {
                  "distance": 693,
                  "location": {
                        "address": "4115 Pierre de Coubertin",
                        "country": "CA",
                        "formatted_address": "4115 Pierre de Coubertin, Montreal QC",
                        "locality": "Montreal",
                        "region": "QC"
                  },
                  "name": "Hivernale"
            },
            {
                  "distance": 714,
                  "location": {
                        "address": "3400 Hochelaga Rue",
                        "country": "CA",
                        "formatted_address": "3400 Hochelaga Rue, Montreal QC H1W 1H3",
                        "locality": "Montreal",
                        "postcode": "H1W 1H3",
                        "region": "QC"
                  },
                  "name": "Restaurant Yammi Yammi Pizza"
            },
            {
                  "distance": 714,
                  "location": {
                        "address": "3400 Hochelaga Rue",
                        "country": "CA",
                        "formatted_address": "3400 Hochelaga Rue, Montreal QC H1W 1H3",
                        "locality": "Montreal",
                        "postcode": "H1W 1H3",
                        "region": "QC"
                  },
                  "name": "Restaurant Rami"
            },
            {
                  "distance": 800,
                  "location": {
                        "address": "4141 Pierre-De Coubertin Ave",
                        "country": "CA",
                        "formatted_address": "4141 Pierre-De Coubertin Ave, Montreal QC H1V 3N7",
                        "locality": "Montreal",
                        "postcode": "H1V 3N7",
                        "region": "QC"
                  },
                  "name": "Les Dimanches Salsa Folie"
            },
            {
                  "distance": 936,
                  "location": {
                        "address": "2600 William-Tremblay Rue",
                        "country": "CA",
                        "formatted_address": "2600 William-Tremblay Rue, Montreal QC H1Y 3J2",
                        "locality": "Montreal",
                        "postcode": "H1Y 3J2",
                        "region": "QC"
                  },
                  "name": "Magnolia Restaurant"
            },
            {
                  "distance": 968,
                  "location": {
                        "address": "4240 Hochelaga Rue",
                        "country": "CA",
                        "formatted_address": "4240 Hochelaga Rue, Montreal QC H1V 1B7",
                        "locality": "Montreal",
                        "postcode": "H1V 1B7",
                        "region": "QC"
                  },
                  "name": "Brasserie Ninety Nine"
            }
      ],
      "context": {
            "geo_bounds": {
                  "circle": {
                        "center": {
                              "latitude": 45.54991069,
                              "longitude": -73.55826259
                        },
                        "radius": 1000
                  }
            }
      }
}