{
      "results": [
            {
                  "distance": 993,
                  "location": {
                        "address": "4101 Sherbrooke Rue E",
                        "country": "CA",
                        "cross_street": "",
                        "formatted_address": "4101 Sherbrooke Rue E, Montr\u00e9al QC H1X 2B2",
                        "locality": "Montreal",
                        "postcode": "H1X 2B2",
                        "region": "QC"
                  },
                  "name": "Restaurant du Jardin Botanique",
                  "popularity": 0.9286880204390613,
                  "price": 2,
                  "rating": 7.4
            },
            {
                  "distance": 1000,
                  "location": {
                        "address": "5670 Sherbrooke Rue E",
                        "country": "CA",
                        "cross_street": "",
                        "formatted_address": "5670 Sherbrooke Rue E, Montr\u00e9al QC H1N 1A1",
                        "locality": "Montreal",
                        "postcode": "H1N 1A1",
                        "region": "QC"
                  },
                  "name": "Chez Cora",
                  "popularity": 0.9456732588947767,
                  "price": 1,
                  "rating": 7.2
            },
            {
                  "distance": 982,
                  "location": {
                        "address": "5666 Sherbrooke Rue E",
                        "country": "CA",
                        "cross_street": "",
                        "formatted_address": "5666 Sherbrooke Rue E, Montr\u00e9al QC H1N 1A1",
                        "locality": "Montreal",
                        "postcode": "H1N 1A1",
                        "region": "QC"
                  },
                  "name": "Beni Hana Cuisine Japonaise",
                  "popularity": 0.9583885314155942,
                  "price": 2,
                  "rating": 6.5
            },
            {
                  "distance": 833,
                  "location": {
                        "address": "4825 Pierre de Coubertin Ave",
                        "country": "CA",
                        "cross_street": "Viau",
                        "formatted_address": "4825 Pierre de Coubertin Ave (Viau), Montr\u00e9al QC",
                        "locality": "Montreal",
                        "region": "QC"
                  },
                  "name": "Pizza Pizza",
                  "popularity": 0.611610522331567,
                  "price": 1,
                  "rating": 6.2
            },
            {
                  "distance": 727,
                  "location": {
                        "address": "5460 Sherbrooke Rue O",
                        "country": "CA",
                        "cross_street": "L'Assomption",
                        "formatted_address": "5460 Sherbrooke Rue O (L'Assomption), Montr\u00e9al QC H4A 1V9",
                        "locality": "Montreal",
                        "postcode": "H4A 1V9",
                        "region": "QC"
                  },
                  "name": "Au Vieux Duluth",
                  "popularity": 0.8967519871309614,
                  "price": 2,
                  "rating": 5.9
            },
            {
                  "distance": 159,
                  "location": {
                        "address": "5000 Sherbrooke Rue E",
                        "country": "CA",
                        "cross_street": "",
                        "formatted_address": "5000 Sherbrooke Rue E, Montr\u00e9al QC H1V 1A1",
                        "locality": "Montreal",
                        "postcode": "H1V 1A1",
                        "region": "QC"
                  },
                  "name": "Au Toit Rouge",
                  "popularity": 0.8107967448902347,
                  "price": 2,
                  "rating": 5.9
            },
            {
                  "distance": 431,
                  "location": {
                        "address": "5222 Sherbrooke Rue E",
                        "country": "CA",
                        "formatted_address": "5222 Sherbrooke Rue E, Montr\u00e9al QC H1V 1A1",
                        "locality": "Montreal",
                        "postcode": "H1V 1A1",
                        "region": "QC"
                  },
                  "name": "Madisons Restaurant & Bar",
                  "popularity": 0.966171461014383,
                  "price": 2,
                  "rating": 5.8
            },
            {
                  "distance": 442,
                  "location": {
                        "address": "3055 Viau Rue",
                        "country": "CA",
                        "formatted_address": "3055 Viau Rue, Montr\u00e9al QC H1V 3J5",
                        "locality": "Montreal",
                        "postcode": "H1V 3J5",
                        "region": "QC"
                  },
                  "name": "Mondelez Internationale",
                  "popularity": 0.9218395155185466
            },
            {
                  "distance": 204,
                  "location": {
                        "address": "5000 Sherbrooke Rue E",
                        "country": "CA",
                        "formatted_address": "5000 Sherbrooke Rue E, Montreal QC H1V 1A1",
                        "locality": "Montreal",
                        "postcode": "H1V 1A1",
                        "region": "QC"
                  },
                  "name": "Resto Bar le Toit Rouge"
            },
            {
                  "distance": 251,
                  "location": {
                        "address": "5100 Sherbrooke Rue E",
                        "country": "CA",
                        "formatted_address": "5100 Sherbrooke Rue E, Montreal QC H1V 3R9",
                        "locality": "Montreal",
                        "postcode": "H1V 3R9",
                        "region": "QC"
                  },
                  "name": "Corporation financi\u00e8re HSBC Centre de Service Canadien"
            },
            {
                  "distance": 308,
                  "location": {
                        "address": "5100 Sherbrooke Rue E",
                        "country": "CA",
                        "formatted_address": "5100 Sherbrooke Rue E, Montreal QC H1V 3R9",
                        "locality": "Montreal",
                        "postcode": "H1V 3R9",
                        "region": "QC"
                  },
                  "name": "Montcaf\u00e9"
            },
            {
                  "distance": 317,
                  "location": {
                        "address": "5100 Sherbrooke Rue E",
                        "country": "CA",
                        "formatted_address": "5100 Sherbrooke Rue E, Montreal QC H1V 3R9",
                        "locality": "Montreal",
                        "postcode": "H1V 3R9",
                        "region": "QC"
                  },
                  "name": "Restaurant Au Vieux Duluth"
            },
            {
                  "distance": 421,
                  "location": {
                        "address": "5222 Sherbrooke Rue E",
                        "country": "CA",
                        "formatted_address": "5222 Sherbrooke Rue E, Montreal QC H1V 1A1",
                        "locality": "Montreal",
                        "postcode": "H1V 1A1",
                        "region": "QC"
                  },
                  "name": "Madisons N Y Bar & Grill"
            },
            {
                  "distance": 431,
                  "location": {
                        "address": "5222 Sherbrooke Rue E",
                        "country": "CA",
                        "formatted_address": "5222 Sherbrooke Rue E, Montreal QC H1V 1A1",
                        "locality": "Montreal",
                        "postcode": "H1V 1A1",
                        "region": "QC"
                  },
                  "name": "BRGR&MAC Village-Olympique"
            },
            {
                  "distance": 492,
                  "location": {
                        "address": "3055 Viau Rue",
                        "country": "CA",
                        "formatted_address": "3055 Viau Rue, Montreal QC H1V 3J5",
                        "locality": "Montreal",
                        "postcode": "H1V 3J5",
                        "region": "QC"
                  },
                  "name": "Compagnie Christie Brown"
            },
            {
                  "distance": 603,
                  "location": {
                        "address": "4141 Pierre-De Coubertin Ave",
                        "country": "CA",
                        "formatted_address": "4141 Pierre-De Coubertin Ave, Montreal QC H1V 3N7",
                        "locality": "Montreal",
                        "postcode": "H1V 3N7",
                        "region": "QC"
                  },
                  "name": "Restaurant de la Tour Olympique"
            },
            {
                  "distance": 770,
                  "location": {
                        "address": "5460 Sherbrooke Rue O",
                        "country": "CA",
                        "formatted_address": "5460 Sherbrooke Rue O, Montreal QC H4A 1V9",
                        "locality": "Montreal",
                        "postcode": "H4A 1V9",
                        "region": "QC"
                  },
                  "name": "Nickels Restaurant"
            },
            {
                  "distance": 987,
                  "location": {
                        "address": "4943 Rosemont Blvd",
                        "country": "CA",
                        "formatted_address": "4943 Rosemont Blvd, Montreal QC H1T 2E6",
                        "locality": "Montreal",
                        "postcode": "H1T 2E6",
                        "region": "QC"
                  },
                  "name": "Ryo Sushi"
            },
            {
                  "distance": 988,
                  "location": {
                        "address": "4933 Rosemont Blvd",
                        "country": "CA",
                        "formatted_address": "4933 Rosemont Blvd, Montreal QC H1T 2E6",
                        "locality": "Montreal",
                        "postcode": "H1T 2E6",
                        "region": "QC"
                  },
                  "name": "Dido Restaurant"
            }
      ],
      "context": {
            "geo_bounds": {
                  "circle": {
                        "center": {
                              "latitude": 45.56493679,
                              "longitude": -73.55559111
                        },
                        "radius": 1000
                  }
            }
      }
}