{
      "results": [
            {
                  "distance": 957,
                  "location": {
                        "address": "330 Rue de la Normandie",
                        "country": "CA",
                        "cross_street": "at de la Concorde",
                        "formatted_address": "330 Rue de la Normandie (at de la Concorde), Laval QC H7G 2A8",
                        "locality": "Laval",
                        "postcode": "H7G 2A8",
                        "region": "QC"
                  },
                  "name": "Dejeuner Au P'tit Dore",
                  "popularity": 0.828171025618138,
                  "price": 1,
                  "rating": 7.5
            },
            {
                  "distance": 868,
                  "location": {
                        "address": "155B des Laurentides Blvd",
                        "country": "CA",
                        "cross_street": "",
                        "formatted_address": "155B des Laurentides Blvd, Laval QC H7G 2T4",
                        "locality": "Laval",
                        "postcode": "H7G 2T4",
                        "region": "QC"
                  },
                  "name": "Subway",
                  "popularity": 0.9418905650272249,
                  "price": 1,
                  "rating": 6.6,
                  "store_id": "13551"
            },
            {
                  "distance": 895,
                  "location": {
                        "address": "117 des Laurentides Blvd",
                        "country": "CA",
                        "formatted_address": "117 des Laurentides Blvd, Laval QC H7G 2T2",
                        "locality": "Laval",
                        "postcode": "H7G 2T2",
                        "region": "QC"
                  },
                  "name": "Pink Paradise",
                  "popularity": 0.7672944746942784,
                  "price": 3
            },
            {
                  "distance": 906,
                  "location": {
                        "address": "87 des Laurentides Blvd",
                        "country": "CA",
                        "cross_street": "Cartier",
                        "formatted_address": "87 des Laurentides Blvd (Cartier), Laval QC H7G 2T2",
                        "locality": "Laval",
                        "postcode": "H7G 2T2",
                        "region": "QC"
                  },
                  "name": "Buffalo Bill Wings",
                  "popularity": 0.1620101758457556,
                  "price": 1
            },
            {
                  "distance": 967,
                  "location": {
                        "address": "223 des Laurentides Blvd",
                        "country": "CA",
                        "cross_street": "",
                        "formatted_address": "223 des Laurentides Blvd, Laval QC H7G 2T7",
                        "locality": "Laval",
                        "postcode": "H7G 2T7",
                        "region": "QC"
                  },
                  "name": "Crazy Moon Laval",
                  "popularity": 0.9260019637597072,
                  "price": 3
            },
            {
                  "distance": 1024,
                  "location": {
                        "address": "199 Blvd de la Concorde Est",
                        "country": "CA",
                        "cross_street": "",
                        "formatted_address": "199 Blvd de la Concorde Est, Laval QC H7G 2C7",
                        "locality": "Laval",
                        "postcode": "H7G 2C7",
                        "region": "QC"
                  },
                  "name": "Soleil d'Asie",
                  "popularity": 0.02865303936445595,
                  "price": 2
            },
            {
                  "distance": 243,
                  "location": {
                        "address": "333 Levesque Blvd E",
                        "country": "CA",
                        "formatted_address": "333 Levesque Blvd E, Laval QC H7G 1C5",
                        "locality": "Laval",
                        "postcode": "H7G 1C5",
                        "region": "QC"
                  },
                  "name": "Restaurant Commodore"
            },
            {
                  "distance": 552,
                  "location": {
                        "address": "300 Juge-Desnoyers Pl",
                        "country": "CA",
                        "formatted_address": "300 Juge-Desnoyers Pl, Laval QC H7G 4R1",
                        "locality": "Laval",
                        "postcode": "H7G 4R1",
                        "region": "QC"
                  },
                  "name": "Le Maria Chapdelaine"
            },
            {
                  "distance": 938,
                  "location": {
                        "address": "209 des Laurentides Blvd",
                        "country": "CA",
                        "formatted_address": "209 des Laurentides Blvd, Laval QC H7G 2T7",
                        "locality": "Laval",
                        "postcode": "H7G 2T7",
                        "region": "QC"
                  },
                  "name": "Bistro la Coquille"
            },
            {
                  "distance": 941,
                  "location": {
                        "address": "159 Blvd de la Concorde E",
                        "country": "CA",
                        "formatted_address": "159 Blvd de la Concorde E, Laval QC H7G 2C6",
                        "locality": "Laval",
                        "postcode": "H7G 2C6",
                        "region": "QC"
                  },
                  "name": "D\u00e9jeuner au P Tit Dor\u00e9"
            },
            {
                  "distance": 980,
                  "location": {
                        "address": "237 des Laurentides Blvd",
                        "country": "CA",
                        "formatted_address": "237 des Laurentides Blvd, Laval QC H7G 2T7",
                        "locality": "Laval",
                        "postcode": "H7G 2T7",
                        "region": "QC"
                  },
                  "name": "Restaurant Pupusa Al Paso"
            },
            {
                  "distance": 991,
                  "location": {
                        "address": "48 des Laurentides Blvd",
                        "country": "CA",
                        "formatted_address": "48 des Laurentides Blvd, Laval QC H7G 2S7",
                        "locality": "Laval",
                        "postcode": "H7G 2S7",
                        "region": "QC"
                  },
                  "name": "Bingo la Java Inc"
            }
      ],
      "context": {
            "geo_bounds": {
                  "circle": {
                        "center": {
                              "latitude": 45.56843962,
                              "longitude": -73.67520209
                        },
                        "radius": 1000
                  }
            }
      }
}