{
      "results": [
            {
                  "distance": 297,
                  "location": {
                        "address": "1360 Rosemont Blvd",
                        "country": "CA",
                        "cross_street": "",
                        "formatted_address": "1360 Rosemont Blvd, Montr\u00e9al QC H2G 1V4",
                        "locality": "Montreal",
                        "postcode": "H2G 1V4",
                        "region": "QC"
                  },
                  "name": "Caf\u00e9 Dei Campi",
                  "popularity": 0.9428108440575321,
                  "price": 1,
                  "rating": 9.1
            },
            {
                  "distance": 533,
                  "location": {
                        "address": "1039 Beaubien Rue E",
                        "country": "CA",
                        "cross_street": "Christophe-Colomb",
                        "formatted_address": "1039 Beaubien Rue E (Christophe-Colomb), Montr\u00e9al QC H2S 1T3",
                        "locality": "Montreal",
                        "postcode": "H2S 1T3",
                        "region": "QC"
                  },
                  "name": "Isle de Garde",
                  "popularity": 0.9462055261165784,
                  "price": 3,
                  "rating": 9.1
            },
            {
                  "distance": 856,
                  "location": {
                        "address": "500 Beaubien Rue E",
                        "country": "CA",
                        "cross_street": "",
                        "formatted_address": "500 Beaubien Rue E, Montr\u00e9al QC H2S 1S5",
                        "locality": "Montreal",
                        "postcode": "H2S 1S5",
                        "region": "QC"
                  },
                  "name": "Caf\u00e9 Pista",
                  "popularity": 0.9594294095382286,
                  "price": 1,
                  "rating": 8.9
            },
            {
                  "distance": 852,
                  "location": {
                        "address": "901 Saint-Zotique Rue E",
                        "country": "CA",
                        "cross_street": "Saint-Andr\u00e9",
                        "formatted_address": "901 Saint-Zotique Rue E (Saint-Andr\u00e9), Montr\u00e9al QC H2S 1M9",
                        "locality": "Montreal",
                        "postcode": "H2S 1M9",
                        "region": "QC"
                  },
                  "name": "Y\u00efsst",
                  "popularity": 0.9474829674489024,
                  "price": 2,
                  "rating": 8.8
            },
            {
                  "distance": 628,
                  "location": {
                        "address": "6230 Saint-Hubert Rue",
                        "country": "CA",
                        "cross_street": "",
                        "formatted_address": "6230 Saint-Hubert Rue, Montr\u00e9al QC H2S 2M2",
                        "locality": "Montreal",
                        "postcode": "H2S 2M2",
                        "region": "QC"
                  },
                  "name": "Montreal Plaza",
                  "popularity": 0.9133350681302044,
                  "price": 2,
                  "rating": 8.8
            },
            {
                  "distance": 697,
                  "location": {
                        "address": "1212 Saint-Zotique Rue E",
                        "country": "CA",
                        "cross_street": "",
                        "formatted_address": "1212 Saint-Zotique Rue E, Montr\u00e9al QC H2S 1N5",
                        "locality": "Montreal",
                        "postcode": "H2S 1N5",
                        "region": "QC"
                  },
                  "name": "Luciano Trattoria",
                  "popularity": 0.9558099924299773,
                  "price": 2,
                  "rating": 8.7
            },
            {
                  "distance": 518,
                  "location": {
                        "address": "6500 Christophe-Colomb Ave",
                        "country": "CA",
                        "cross_street": "Beaubien",
                        "formatted_address": "6500 Christophe-Colomb Ave (Beaubien), Montr\u00e9al QC H2S 2G8",
                        "locality": "Montreal",
                        "postcode": "H2S 2G8",
                        "region": "QC"
                  },
                  "name": "Automne Boulangerie",
                  "popularity": 0.9466431680545042,
                  "price": 1,
                  "rating": 8.7
            },
            {
                  "distance": 1008,
                  "location": {
                        "address": "1995 Masson Rue",
                        "country": "CA",
                        "cross_street": "coin Bordeaux",
                        "formatted_address": "1995 Masson Rue (coin Bordeaux), Montr\u00e9al QC H2H 1A5",
                        "locality": "Montreal",
                        "postcode": "H2H 1A5",
                        "region": "QC"
                  },
                  "name": "L'Entre-Pots",
                  "popularity": 0.955679882664648,
                  "price": 1,
                  "rating": 8.5
            },
            {
                  "distance": 949,
                  "location": {
                        "address": "6414 Saint-Denis Rue",
                        "country": "CA",
                        "cross_street": "Rue Beaubien",
                        "formatted_address": "6414 Saint-Denis Rue (Rue Beaubien), Montr\u00e9al QC H2S 2R7",
                        "locality": "Montreal",
                        "postcode": "H2S 2R7",
                        "region": "QC"
                  },
                  "name": "Restaurant Pho Tay Ho",
                  "popularity": 0.944525927327782,
                  "price": 1,
                  "rating": 8.5
            },
            {
                  "distance": 327,
                  "location": {
                        "address": "1290 Beaubien Rue E",
                        "country": "CA",
                        "cross_street": "",
                        "formatted_address": "1290 Beaubien Rue E, Montr\u00e9al QC H2S 1T9",
                        "locality": "Montreal",
                        "postcode": "H2S 1T9",
                        "region": "QC"
                  },
                  "name": "Vinvinvin",
                  "popularity": 0.9328751892505678,
                  "price": 2,
                  "rating": 8.4
            },
            {
                  "distance": 824,
                  "location": {
                        "address": "520 Beaubien Rue E",
                        "country": "CA",
                        "cross_street": "De Chateaubriand",
                        "formatted_address": "520 Beaubien Rue E (De Chateaubriand), Montr\u00e9al QC H2S 1S5",
                        "locality": "Montreal",
                        "postcode": "H2S 1S5",
                        "region": "QC"
                  },
                  "name": "Restaurant El Chalateco",
                  "popularity": 0.9479679220287661,
                  "rating": 8.2
            },
            {
                  "distance": 984,
                  "location": {
                        "address": "2440 Rosemont Blvd",
                        "country": "CA",
                        "cross_street": "",
                        "formatted_address": "2440 Rosemont Blvd, Montr\u00e9al QC H2G 1V2",
                        "locality": "Montreal",
                        "postcode": "H2G 1V2",
                        "region": "QC"
                  },
                  "name": "Pub Rosemont",
                  "popularity": 0.9464539174867524,
                  "price": 3,
                  "rating": 8.2
            },
            {
                  "distance": 645,
                  "location": {
                        "address": "1309 Saint-Zotique Rue E",
                        "country": "CA",
                        "cross_street": "coin Chambord",
                        "formatted_address": "1309 Saint-Zotique Rue E (coin Chambord), Montr\u00e9al QC H2G 1G6",
                        "locality": "Montreal",
                        "postcode": "H2G 1G6",
                        "region": "QC"
                  },
                  "name": "Bar le Jockey",
                  "popularity": 0.9420538417865254,
                  "price": 2,
                  "rating": 8.2
            },
            {
                  "distance": 553,
                  "location": {
                        "address": "1898 Beaubien Rue E",
                        "country": "CA",
                        "cross_street": "Chabot",
                        "formatted_address": "1898 Beaubien Rue E (Chabot), Montr\u00e9al QC H2G 1L9",
                        "locality": "Montreal",
                        "postcode": "H2G 1L9",
                        "region": "QC"
                  },
                  "name": "Sushi Itamea",
                  "popularity": 0.9421366389099167,
                  "price": 2,
                  "rating": 8.0
            },
            {
                  "distance": 649,
                  "location": {
                        "address": "5938 Saint-Hubert Rue",
                        "country": "CA",
                        "cross_street": "",
                        "formatted_address": "5938 Saint-Hubert Rue, Montr\u00e9al QC H2S 2L7",
                        "locality": "Montreal",
                        "postcode": "H2S 2L7",
                        "region": "QC"
                  },
                  "name": "Restaurant Casa Alentejo",
                  "popularity": 0.9143522899318698,
                  "price": 2,
                  "rating": 7.9
            },
            {
                  "distance": 985,
                  "location": {
                        "address": "351 Rue de Bellechasse",
                        "country": "CA",
                        "cross_street": "btwn Drolet & St-Denis",
                        "formatted_address": "351 Rue de Bellechasse (btwn Drolet & St-Denis), Montr\u00e9al QC H2S 1X1",
                        "locality": "Montreal",
                        "postcode": "H2S 1X1",
                        "region": "QC"
                  },
                  "name": "Elio Pizzeria",
                  "popularity": 0.9754683951551855,
                  "price": 1,
                  "rating": 7.9
            },
            {
                  "distance": 632,
                  "location": {
                        "address": "913 Beaubien Rue E",
                        "country": "CA",
                        "cross_street": "coin Saint-Andr\u00e9",
                        "formatted_address": "913 Beaubien Rue E (coin Saint-Andr\u00e9), Montr\u00e9al QC H2S 1T2",
                        "locality": "Montreal",
                        "postcode": "H2S 1T2",
                        "region": "QC"
                  },
                  "name": "Nacho Libre",
                  "popularity": 0.9517765897047691,
                  "price": 2,
                  "rating": 7.9
            },
            {
                  "distance": 952,
                  "location": {
                        "address": "2355 Beaubien Rue E",
                        "country": "CA",
                        "formatted_address": "2355 Beaubien Rue E, Montr\u00e9al QC H2G 1N3",
                        "locality": "Montreal",
                        "postcode": "H2G 1N3",
                        "region": "QC"
                  },
                  "name": "Froment et de S\u00e8ve",
                  "popularity": 0.9245008516275549,
                  "price": 1,
                  "rating": 7.8
            },
            {
                  "distance": 958,
                  "location": {
                        "address": "6505 des Ecores Rue",
                        "country": "CA",
                        "cross_street": "Beaubien Est",
                        "formatted_address": "6505 des Ecores Rue (Beaubien Est), Montr\u00e9al QC H2G 2J8",
                        "locality": "Montreal",
                        "postcode": "H2G 2J8",
                        "region": "QC"
                  },
                  "name": "Randolph Pub Ludique",
                  "popularity": 0.9249148372445117,
                  "price": 1,
                  "rating": 7.8
            },
            {
                  "distance": 632,
                  "location": {
                        "address": "6289 Saint-Hubert Rue",
                        "country": "CA",
                        "cross_street": "",
                        "formatted_address": "6289 Saint-Hubert Rue, Montr\u00e9al QC H2S 2L9",
                        "locality": "Montreal",
                        "postcode": "H2S 2L9",
                        "region": "QC"
                  },
                  "name": "Nestor",
                  "popularity": 0.931160105980318,
                  "price": 2,
                  "rating": 7.8
            },
            {
                  "distance": 874,
                  "location": {
                        "address": "2316 Beaubien Rue E",
                        "country": "CA",
                        "cross_street": "Louis-H\u00e9mon",
                        "formatted_address": "2316 Beaubien Rue E (Louis-H\u00e9mon), Montr\u00e9al QC H2G 1M9",
                        "locality": "Montreal",
                        "postcode": "H2G 1M9",
                        "region": "QC"
                  },
                  "name": "Bistro Chez Roger",
                  "popularity": 0.9417817940953823,
                  "price": 2,
                  "rating": 7.7
            },
            {
                  "distance": 865,
                  "location": {
                        "address": "5368 Papineau Ave",
                        "country": "CA",
                        "cross_street": "",
                        "formatted_address": "5368 Papineau Ave, Montr\u00e9al QC H2H 1W2",
                        "locality": "Montreal",
                        "postcode": "H2H 1W2",
                        "region": "QC"
                  },
                  "name": "Caf\u00e9 Orr",
                  "popularity": 0.9599853330809992,
                  "price": 1,
                  "rating": 7.6
            },
            {
                  "distance": 897,
                  "location": {
                        "address": "6705 Saint-Hubert Rue",
                        "country": "CA",
                        "cross_street": "",
                        "formatted_address": "6705 Saint-Hubert Rue, Montr\u00e9al QC H2S 2M7",
                        "locality": "Montreal",
                        "postcode": "H2S 2M7",
                        "region": "QC"
                  },
                  "name": "Le Roi du Smoked Meat",
                  "popularity": 0.9673069644208933,
                  "price": 1,
                  "rating": 7.6
            },
            {
                  "distance": 289,
                  "location": {
                        "address": "1404 Beaubien Rue E",
                        "country": "CA",
                        "cross_street": "",
                        "formatted_address": "1404 Beaubien Rue E, Montr\u00e9al QC H2G 1K9",
                        "locality": "Montreal",
                        "postcode": "H2G 1K9",
                        "region": "QC"
                  },
                  "name": "Caf\u00e9 Chiado28",
                  "popularity": 0.9532551097653293,
                  "price": 1,
                  "rating": 7.5
            },
            {
                  "distance": 729,
                  "location": {
                        "address": "780 Rosemont Blvd",
                        "country": "CA",
                        "cross_street": "coin St-Hubert",
                        "formatted_address": "780 Rosemont Blvd (coin St-Hubert), Montr\u00e9al QC H2S 0B7",
                        "locality": "Montreal",
                        "postcode": "H2S 0B7",
                        "region": "QC"
                  },
                  "name": "\u00d4 deux soeurs",
                  "popularity": 0.8103709311127933,
                  "price": 1,
                  "rating": 7.4
            },
            {
                  "distance": 415,
                  "location": {
                        "address": "5800 rue de la Roche",
                        "country": "CA",
                        "cross_street": "coin Rosemont",
                        "formatted_address": "5800 rue de la Roche (coin Rosemont), Montr\u00e9al QC H2S 2C7",
                        "locality": "Montreal",
                        "postcode": "H2S 2C7",
                        "region": "QC"
                  },
                  "name": "Le North End",
                  "popularity": 0.8863077214231643,
                  "price": 3,
                  "rating": 7.2
            },
            {
                  "distance": 774,
                  "location": {
                        "address": "2200 Beaubien Rue E",
                        "country": "CA",
                        "cross_street": "At Des Erables",
                        "formatted_address": "2200 Beaubien Rue E (At Des Erables), Montr\u00e9al QC H2G 1M7",
                        "locality": "Montreal",
                        "postcode": "H2G 1M7",
                        "region": "QC"
                  },
                  "name": "Nouveau Canada",
                  "popularity": 0.9369677327781983,
                  "price": 1,
                  "rating": 7.1
            },
            {
                  "distance": 611,
                  "location": {
                        "address": "1991 Beaubien Rue E",
                        "country": "CA",
                        "cross_street": "Bordeaux",
                        "formatted_address": "1991 Beaubien Rue E (Bordeaux), Montr\u00e9al QC H2G 1M2",
                        "locality": "Montreal",
                        "postcode": "H2G 1M2",
                        "region": "QC"
                  },
                  "name": "Caf\u00e9 l'\u00c9tincelle",
                  "popularity": 0.9640660484481454,
                  "price": 1,
                  "rating": 6.9
            },
            {
                  "distance": 925,
                  "location": {
                        "address": "5363 St Zotique E",
                        "country": "CA",
                        "cross_street": "",
                        "formatted_address": "5363 St Zotique E, Montr\u00e9al QC",
                        "locality": "Montreal",
                        "region": "QC"
                  },
                  "name": "Amir",
                  "popularity": 0.9322482967448902,
                  "price": 2,
                  "rating": 6.5
            },
            {
                  "distance": 498,
                  "location": {
                        "address": "5800 Christophe-Colomb Ave",
                        "country": "CA",
                        "cross_street": "Boulevard Rosemont",
                        "formatted_address": "5800 Christophe-Colomb Ave (Boulevard Rosemont), Montr\u00e9al QC H2S 2G2",
                        "locality": "Montreal",
                        "postcode": "H2S 2G2",
                        "region": "QC"
                  },
                  "name": "Tim Hortons",
                  "popularity": 0.8799559992429977,
                  "price": 1,
                  "rating": 6.3
            },
            {
                  "distance": 318,
                  "location": {
                        "address": "1275 Rosemont Blvd",
                        "country": "CA",
                        "formatted_address": "1275 Rosemont Blvd, Montr\u00e9al QC H2S 3L9",
                        "locality": "Montreal",
                        "postcode": "H2S 3L9",
                        "region": "QC"
                  },
                  "name": "McDonald's",
                  "popularity": 0.9897449848599545,
                  "price": 1,
                  "rating": 5.4,
                  "store_id": "2964"
            },
            {
                  "distance": 331,
                  "location": {
                        "address": "1335 Beaubien Rue E",
                        "country": "CA",
                        "cross_street": "",
                        "formatted_address": "1335 Beaubien Rue E, Montr\u00e9al QC H2G 1K7",
                        "locality": "Montreal",
                        "postcode": "H2G 1K7",
                        "region": "QC"
                  },
                  "name": "La Belle Tonki",
                  "popularity": 0.9382806585919757,
                  "price": 2
            },
            {
                  "distance": 369,
                  "location": {
                        "address": "1253 Beaubien Rue E",
                        "country": "CA",
                        "cross_street": "Rue De Normandville",
                        "formatted_address": "1253 Beaubien Rue E (Rue De Normandville), Montr\u00e9al QC H2S 1V1",
                        "locality": "Montreal",
                        "postcode": "H2S 1V1",
                        "region": "QC"
                  },
                  "name": "Poissonnerie Fou des Iles",
                  "popularity": 0.8730128690386071
            },
            {
                  "distance": 417,
                  "location": {
                        "address": "6442 Papineau Ave",
                        "country": "CA",
                        "cross_street": "Beaubien",
                        "formatted_address": "6442 Papineau Ave (Beaubien), Montr\u00e9al QC H2G 2W9",
                        "locality": "Montreal",
                        "postcode": "H2G 2W9",
                        "region": "QC"
                  },
                  "name": "Bar Paspebiac",
                  "popularity": 0.8786549015897047,
                  "price": 2
            },
            {
                  "distance": 614,
                  "location": {
                        "address": "5985 Saint-Hubert Rue",
                        "country": "CA",
                        "cross_street": "",
                        "formatted_address": "5985 Saint-Hubert Rue, Montr\u00e9al QC H2S 2L8",
                        "locality": "Montreal",
                        "postcode": "H2S 2L8",
                        "region": "QC"
                  },
                  "name": "Pichai",
                  "popularity": 0.9629660295230885,
                  "price": 2
            }
      ],
      "context": {
            "geo_bounds": {
                  "circle": {
                        "center": {
                              "latitude": 45.53935356,
                              "longitude": -73.59537363
                        },
                        "radius": 1000
                  }
            }
      }
}