{
      "results": [
            {
                  "distance": 778,
                  "location": {
                        "address": "953 Decarie Blvd",
                        "country": "CA",
                        "cross_street": "cote-vertu",
                        "formatted_address": "953 Decarie Blvd (cote-vertu), Montr\u00e9al QC H4L 3M3",
                        "locality": "Montreal",
                        "postcode": "H4L 3M3",
                        "region": "QC"
                  },
                  "name": "Decarie Hot Dog",
                  "popularity": 0.9809921461014383,
                  "price": 1,
                  "rating": 7.7
            },
            {
                  "distance": 783,
                  "location": {
                        "address": "1494 Blvd de la Cote-Vertu",
                        "country": "CA",
                        "cross_street": "",
                        "formatted_address": "1494 Blvd de la Cote-Vertu, Montr\u00e9al QC H4L 1Z8",
                        "locality": "Montreal",
                        "postcode": "H4L 1Z8",
                        "region": "QC"
                  },
                  "name": "A&W Restaurant",
                  "popularity": 0.9899815480696442,
                  "price": 1,
                  "rating": 7.5,
                  "store_id": "5555"
            },
            {
                  "distance": 850,
                  "location": {
                        "address": "861 Decarie Blvd",
                        "country": "CA",
                        "cross_street": "at rue Morin",
                        "formatted_address": "861 Decarie Blvd (at rue Morin), Saint-Laurent QC H4L 3L7",
                        "locality": "Saint-Laurent",
                        "postcode": "H4L 3L7",
                        "region": "QC"
                  },
                  "name": "Kyoto Restaurants Japonais",
                  "popularity": 0.9595240348221045,
                  "price": 2,
                  "rating": 7.4
            },
            {
                  "distance": 777,
                  "location": {
                        "address": "1320 Rue de l'\u00e3\u2030Glise",
                        "country": "CA",
                        "cross_street": "",
                        "formatted_address": "1320 Rue de l'\u00e3\u2030Glise, Saint-Laurent QC H4L 2G7",
                        "locality": "Saint-Laurent",
                        "postcode": "H4L 2G7",
                        "region": "QC"
                  },
                  "name": "Pizza Hut",
                  "popularity": 0.9853212528387585,
                  "price": 1,
                  "rating": 6.8,
                  "store_id": "R29613"
            },
            {
                  "distance": 873,
                  "location": {
                        "address": "1001 Decarie Blvd",
                        "country": "CA",
                        "cross_street": "btwn rue de l'\u00c9glise & rue Decelles",
                        "formatted_address": "1001 Decarie Blvd (btwn rue de l'\u00c9glise & rue Decelles), Montr\u00e9al QC H4L 3L7",
                        "locality": "Montreal",
                        "postcode": "H4L 3L7",
                        "region": "QC"
                  },
                  "name": "P\u00e2tisserie Dolci Pi\u00f9",
                  "popularity": 0.9278600492051476,
                  "price": 1,
                  "rating": 6.7
            },
            {
                  "distance": 702,
                  "location": {
                        "address": "1191 Decarie Rue",
                        "country": "CA",
                        "cross_street": "Rochon",
                        "formatted_address": "1191 Decarie Rue (Rochon), Saint-Laurent QC H4L 3M8",
                        "locality": "Saint-Laurent",
                        "postcode": "H4L 3M8",
                        "region": "QC"
                  },
                  "name": "Tim Hortons",
                  "popularity": 0.9984741672975019,
                  "price": 1,
                  "rating": 6.6
            },
            {
                  "distance": 760,
                  "location": {
                        "address": "993 Blvd D\u00e9carie",
                        "country": "CA",
                        "cross_street": "",
                        "formatted_address": "993 Blvd D\u00e9carie, Montr\u00e9al QC H4L 3M7",
                        "locality": "Montreal",
                        "postcode": "H4L 3M7",
                        "region": "QC"
                  },
                  "name": "Subway",
                  "popularity": 0.8939723694171082,
                  "price": 1,
                  "rating": 6.4,
                  "store_id": "15203"
            },
            {
                  "distance": 283,
                  "location": {
                        "address": "740 Blvd de la cote-Vertu",
                        "address_extended": "Suite 159D",
                        "country": "CA",
                        "formatted_address": "740 Blvd de la cote-Vertu, Saint-Laurent QC H4L 5C8",
                        "locality": "Saint-Laurent",
                        "postcode": "H4L 5C8",
                        "region": "QC"
                  },
                  "name": "Subway",
                  "popularity": 0.9444667865253595,
                  "price": 1,
                  "rating": 6.4
            },
            {
                  "distance": 764,
                  "location": {
                        "address": "1000 Decarie Blvd",
                        "country": "CA",
                        "cross_street": "",
                        "formatted_address": "1000 Decarie Blvd, Saint-Laurent QC H4L 3M5",
                        "locality": "Saint-Laurent",
                        "postcode": "H4L 3M5",
                        "region": "QC"
                  },
                  "name": "Pizza Pizza",
                  "popularity": 0.9467969341408025,
                  "price": 1,
                  "rating": 6.3,
                  "store_id": "308"
            },
            {
                  "distance": 855,
                  "location": {
                        "address": "1408 Rue de l'\u00c9glise",
                        "country": "CA",
                        "cross_street": "Saint Germain",
                        "formatted_address": "1408 Rue de l'\u00c9glise (Saint Germain), Saint-Laurent QC H4L 2H3",
                        "locality": "Saint-Laurent",
                        "postcode": "H4L 2H3",
                        "region": "QC"
                  },
                  "name": "Boccalini",
                  "popularity": 0.9165168433005298,
                  "price": 2,
                  "rating": 6.1
            },
            {
                  "distance": 257,
                  "location": {
                        "address": "740 C\u00f4te-Vertu",
                        "country": "CA",
                        "cross_street": "",
                        "formatted_address": "740 C\u00f4te-Vertu, Saint-Laurent QC H4L 5C8",
                        "locality": "Saint-Laurent",
                        "postcode": "H4L 5C8",
                        "region": "QC"
                  },
                  "name": "Pho Thanh Nam Quan",
                  "popularity": 0.9864449280847842,
                  "price": 2,
                  "rating": 5.9
            },
            {
                  "distance": 881,
                  "location": {
                        "address": "1565 Ch. de la Cote Vertu",
                        "country": "CA",
                        "formatted_address": "1565 Ch. de la Cote Vertu, Saint-Laurent QC H4L 2A1",
                        "locality": "Saint-Laurent",
                        "postcode": "H4L 2A1",
                        "region": "QC"
                  },
                  "name": "McDonald's",
                  "popularity": 0.9992075132475398,
                  "price": 1,
                  "rating": 5.5,
                  "store_id": "2314"
            },
            {
                  "distance": 310,
                  "location": {
                        "address": "740 Blvd de la C\u00f4te-Vertu O",
                        "country": "CA",
                        "cross_street": "",
                        "formatted_address": "740 Blvd de la C\u00f4te-Vertu O, Montr\u00e9al QC H4L 5C8",
                        "locality": "Montreal",
                        "postcode": "H4L 5C8",
                        "region": "QC"
                  },
                  "name": "Patisserie Al Shahroura",
                  "popularity": 0.3167226532929599
            },
            {
                  "distance": 375,
                  "location": {
                        "address": "1470 Blvd de la C\u00f4te-Vertu",
                        "country": "CA",
                        "cross_street": "Montpellier",
                        "formatted_address": "1470 Blvd de la C\u00f4te-Vertu (Montpellier), Saint-Laurent QC H4L 1Z7",
                        "locality": "Saint-Laurent",
                        "postcode": "H4L 1Z7",
                        "region": "QC"
                  },
                  "name": "Caf\u00e9 Beyrouth",
                  "popularity": 0.9762727100681302,
                  "price": 1
            },
            {
                  "distance": 476,
                  "location": {
                        "address": "595 Blvd de la cote-Vertu",
                        "country": "CA",
                        "formatted_address": "595 Blvd de la cote-Vertu, Saint-Laurent QC H4L 1X8",
                        "locality": "Saint-Laurent",
                        "postcode": "H4L 1X8",
                        "region": "QC"
                  },
                  "name": "Caf\u00e9 Restaurant Jounieh",
                  "popularity": 0.30064818319454956
            },
            {
                  "distance": 701,
                  "location": {
                        "address": "1181 Decarie Rue",
                        "country": "CA",
                        "cross_street": "",
                        "formatted_address": "1181 Decarie Rue, Saint-Laurent QC H4L 3M8",
                        "locality": "Saint-Laurent",
                        "postcode": "H4L 3M8",
                        "region": "QC"
                  },
                  "name": "Planete Pizza",
                  "popularity": 0.9933525738077215,
                  "price": 1
            },
            {
                  "distance": 722,
                  "location": {
                        "address": "1470 Blvd de la Cote Vertu",
                        "country": "CA",
                        "cross_street": "Boul. de la C\u00f4te-Vertu",
                        "formatted_address": "1470 Blvd de la Cote Vertu (Boul. de la C\u00f4te-Vertu), Saint-Laurent QC H4L 1Z7",
                        "locality": "Saint-Laurent",
                        "postcode": "H4L 1Z7",
                        "region": "QC"
                  },
                  "name": "Caf\u00e9 Tea Tac Toe",
                  "popularity": 0.928285862982589,
                  "price": 1
            },
            {
                  "distance": 752,
                  "location": {
                        "address": "983 Decarie Blvd",
                        "country": "CA",
                        "cross_street": "Boul. de la C\u00f4te Vertu",
                        "formatted_address": "983 Decarie Blvd (Boul. de la C\u00f4te Vertu), Saint-Laurent QC H4L 3M6",
                        "locality": "Saint-Laurent",
                        "postcode": "H4L 3M6",
                        "region": "QC"
                  },
                  "name": "Bol Orange",
                  "popularity": 0.9293858819076457,
                  "price": 2
            },
            {
                  "distance": 760,
                  "location": {
                        "address": "1001 Decarie Blvd",
                        "country": "CA",
                        "cross_street": "at boul. de la C\u00f4te-Vertu",
                        "formatted_address": "1001 Decarie Blvd (at boul. de la C\u00f4te-Vertu), Saint-Laurent QC H4L 3M6",
                        "locality": "Saint-Laurent",
                        "postcode": "H4L 3M6",
                        "region": "QC"
                  },
                  "name": "Restaurant Kam Do",
                  "popularity": 0.9516228236184708,
                  "price": 1
            },
            {
                  "distance": 762,
                  "location": {
                        "address": "959 Decarie Blvd",
                        "country": "CA",
                        "cross_street": "",
                        "formatted_address": "959 Decarie Blvd, Saint-Laurent QC H4L 3M3",
                        "locality": "Saint-Laurent",
                        "postcode": "H4L 3M3",
                        "region": "QC"
                  },
                  "name": "La Diperie",
                  "popularity": 0.9373462339137018,
                  "price": 1
            },
            {
                  "distance": 772,
                  "location": {
                        "address": "996 Decarie Blvd",
                        "country": "CA",
                        "cross_street": "",
                        "formatted_address": "996 Decarie Blvd, Saint-Laurent QC H4L 3M5",
                        "locality": "Saint-Laurent",
                        "postcode": "H4L 3M5",
                        "region": "QC"
                  },
                  "name": "Caf\u00e9 Van Houtte",
                  "popularity": 0.9931751514004542,
                  "price": 1
            },
            {
                  "distance": 812,
                  "location": {
                        "address": "1015 Devarie",
                        "country": "CA",
                        "cross_street": "",
                        "formatted_address": "1015 Devarie, Saint-Laurent QC",
                        "locality": "Saint-Laurent",
                        "region": "QC"
                  },
                  "name": "Grillade Yasmine",
                  "popularity": 0.5058667676003028,
                  "price": 2
            },
            {
                  "distance": 862,
                  "location": {
                        "address": "886 Decarie Blvd",
                        "country": "CA",
                        "cross_street": "",
                        "formatted_address": "886 Decarie Blvd, Montr\u00e9al QC H4L 3L9",
                        "locality": "Montreal",
                        "postcode": "H4L 3L9",
                        "region": "QC"
                  },
                  "name": "Pho Moderne",
                  "popularity": 0.9669521196063589,
                  "price": 2
            },
            {
                  "distance": 868,
                  "location": {
                        "address": "1430 rue de l'\u00c9glise",
                        "country": "CA",
                        "cross_street": "",
                        "formatted_address": "1430 rue de l'\u00c9glise, Montr\u00e9al QC H4L 2H3",
                        "locality": "Montreal",
                        "postcode": "H4L 2H3",
                        "region": "QC"
                  },
                  "name": "Maison Samosa Express",
                  "popularity": 0.13836582134746403,
                  "price": 2
            },
            {
                  "distance": 885,
                  "location": {
                        "address": "1455 Rue de l'\u00c3\u2030glise",
                        "country": "CA",
                        "cross_street": "",
                        "formatted_address": "1455 Rue de l'\u00c3\u2030glise, Saint-Laurent QC H4L 2H5",
                        "locality": "Saint-Laurent",
                        "postcode": "H4L 2H5",
                        "region": "QC"
                  },
                  "name": "Domino's Pizza",
                  "popularity": 0.9375118281604845,
                  "price": 1
            },
            {
                  "distance": 932,
                  "location": {
                        "address": "1470 Blvd de la C\u00f4te-Vertu",
                        "country": "CA",
                        "cross_street": "",
                        "formatted_address": "1470 Blvd de la C\u00f4te-Vertu, Saint-Laurent QC H4L 1Z7",
                        "locality": "Saint-Laurent",
                        "postcode": "H4L 1Z7",
                        "region": "QC"
                  },
                  "name": "123 Caf\u00e9",
                  "popularity": 0.30211487509462526,
                  "price": 1
            },
            {
                  "distance": 951,
                  "location": {
                        "address": "747 Decarie Blvd",
                        "country": "CA",
                        "cross_street": "",
                        "formatted_address": "747 Decarie Blvd, Montr\u00e9al QC H4L 3L3",
                        "locality": "Montreal",
                        "postcode": "H4L 3L3",
                        "region": "QC"
                  },
                  "name": "Mon Ami",
                  "popularity": 0.9755038796366389,
                  "price": 2
            },
            {
                  "distance": 978,
                  "location": {
                        "address": "753 Decarie Blvd",
                        "country": "CA",
                        "cross_street": "",
                        "formatted_address": "753 Decarie Blvd, Montr\u00e9al QC H4L 3L3",
                        "locality": "Montreal",
                        "postcode": "H4L 3L3",
                        "region": "QC"
                  },
                  "name": "Caf\u00e9 le VSL",
                  "popularity": 0.7458838001514004,
                  "price": 1
            },
            {
                  "distance": 181,
                  "location": {
                        "address": "825 Blvd de la Cote-Vertu",
                        "country": "CA",
                        "formatted_address": "825 Blvd de la Cote-Vertu, Saint-Laurent QC H4L 1Y6",
                        "locality": "Saint-Laurent",
                        "postcode": "H4L 1Y6",
                        "region": "QC"
                  },
                  "name": "Restaurant Siwar"
            },
            {
                  "distance": 238,
                  "location": {
                        "address": "751 Blvd de la C\u00f4te-Vertu",
                        "country": "CA",
                        "formatted_address": "751 Blvd de la C\u00f4te-Vertu, Saint-Laurent QC H4L 1Y6",
                        "locality": "Saint-Laurent",
                        "postcode": "H4L 1Y6",
                        "region": "QC"
                  },
                  "name": "Sailor's"
            },
            {
                  "distance": 291,
                  "location": {
                        "address": "740 Cote Vertu Blvd O",
                        "country": "CA",
                        "formatted_address": "740 Cote Vertu Blvd O, Saint-Laurent QC",
                        "locality": "Saint-Laurent",
                        "region": "QC"
                  },
                  "name": "Ph\u1edf Th\u00e0nh Nam Quang"
            },
            {
                  "distance": 297,
                  "location": {
                        "address": "740 Blvd de la Cote-Vertu",
                        "country": "CA",
                        "formatted_address": "740 Blvd de la Cote-Vertu, Saint-Laurent QC",
                        "locality": "Saint-Laurent",
                        "region": "QC"
                  },
                  "name": "Cafe Bistro Arly Tera"
            },
            {
                  "distance": 330,
                  "location": {
                        "address": "740 Cote Vertu Blvd O",
                        "country": "CA",
                        "formatted_address": "740 Cote Vertu Blvd O, Saint-Laurent QC H4L 5C8",
                        "locality": "Saint-Laurent",
                        "postcode": "H4L 5C8",
                        "region": "QC"
                  },
                  "name": "Poulet Syriana"
            },
            {
                  "distance": 653,
                  "location": {
                        "address": "821 Sainte-Croix Ave",
                        "address_extended": "The N Building",
                        "country": "CA",
                        "formatted_address": "821 Sainte-Croix Ave, Saint-Laurent QC H4L 3X9",
                        "locality": "Saint-Laurent",
                        "postcode": "H4L 3X9",
                        "region": "QC"
                  },
                  "name": "Subway",
                  "store_id": "19723"
            },
            {
                  "distance": 694,
                  "location": {
                        "address": "720 Montpellier Blvd",
                        "country": "CA",
                        "formatted_address": "720 Montpellier Blvd, Saint-Laurent QC H4L 5B5",
                        "locality": "Saint-Laurent",
                        "postcode": "H4L 5B5",
                        "region": "QC"
                  },
                  "name": "Cuisine Syrienne"
            }
      ],
      "context": {
            "geo_bounds": {
                  "circle": {
                        "center": {
                              "latitude": 45.52005572,
                              "longitude": -73.67795147
                        },
                        "radius": 1000
                  }
            }
      }
}