{
      "results": [
            {
                  "distance": 916,
                  "location": {
                        "address": "7790 Sherbrooke Rue E",
                        "country": "CA",
                        "cross_street": "coin Lepailleur",
                        "formatted_address": "7790 Sherbrooke Rue E (coin Lepailleur), Montr\u00e9al QC H1L 1A5",
                        "locality": "Montreal",
                        "postcode": "H1L 1A5",
                        "region": "QC"
                  },
                  "name": "Bar Sushi Nippori",
                  "popularity": 0.976047975018925,
                  "price": 2,
                  "rating": 7.6
            },
            {
                  "distance": 1063,
                  "location": {
                        "address": "7275 Sherbrooke Rue E",
                        "address_extended": "Floor 2",
                        "country": "CA",
                        "formatted_address": "7275 Sherbrooke Rue E, Montr\u00e9al QC H1N 1E9",
                        "locality": "Montreal",
                        "postcode": "H1N 1E9",
                        "region": "QC"
                  },
                  "name": "La Cage",
                  "popularity": 0.9927375094625284,
                  "price": 2,
                  "rating": 7.2,
                  "store_id": "LC_35"
            },
            {
                  "distance": 891,
                  "location": {
                        "address": "7275 Sherbrooke St E",
                        "address_extended": "Suite 193",
                        "country": "CA",
                        "cross_street": "",
                        "formatted_address": "7275 Sherbrooke St E, Montr\u00e9al QC H1N 1E9",
                        "locality": "Montreal",
                        "postcode": "H1N 1E9",
                        "region": "QC"
                  },
                  "name": "Second Cup CAF\u00c9 & Cie avec Pinkberry yogourt glac\u00e9",
                  "popularity": 0.9631552800908403,
                  "price": 1,
                  "rating": 6.7
            },
            {
                  "distance": 923,
                  "location": {
                        "address": "7780 Sherbrooke Rue E",
                        "address_extended": "Couche-Tard C-Store",
                        "country": "CA",
                        "cross_street": "coin Lepailleur",
                        "formatted_address": "7780 Sherbrooke Rue E (coin Lepailleur), Montr\u00e9al QC H1L 1A5",
                        "locality": "Montreal",
                        "postcode": "H1L 1A5",
                        "region": "QC"
                  },
                  "name": "Subway",
                  "popularity": 0.8829958364875095,
                  "price": 1,
                  "rating": 6.6,
                  "store_id": "23356"
            },
            {
                  "distance": 557,
                  "location": {
                        "address": "6270 Louis-H. Lafontaine Blvd",
                        "country": "CA",
                        "formatted_address": "6270 Louis-H. Lafontaine Blvd, Montr\u00e9al QC H1M 1S8",
                        "locality": "Montreal",
                        "postcode": "H1M 1S8",
                        "region": "QC"
                  },
                  "name": "Tim Hortons",
                  "popularity": 0.9908095193035579,
                  "price": 1,
                  "rating": 6.5
            },
            {
                  "distance": 383,
                  "location": {
                        "address": "6110 Louis-H.-La Fontaine Blvd",
                        "country": "CA",
                        "cross_street": "entre Des Roseraies & Beaubien",
                        "formatted_address": "6110 Louis-H.-La Fontaine Blvd (entre Des Roseraies & Beaubien), Montr\u00e9al QC H1M 1S8",
                        "locality": "Montreal",
                        "postcode": "H1M 1S8",
                        "region": "QC"
                  },
                  "name": "Dic Ann's Hamburgers",
                  "popularity": 0.9404097274791824,
                  "price": 1,
                  "rating": 6.4
            },
            {
                  "distance": 916,
                  "location": {
                        "address": "7870 Sherbrooke Rue E",
                        "country": "CA",
                        "cross_street": "",
                        "formatted_address": "7870 Sherbrooke Rue E, Montr\u00e9al QC H1L 1A5",
                        "locality": "Montreal",
                        "postcode": "H1L 1A5",
                        "region": "QC"
                  },
                  "name": "St-Hubert Express",
                  "popularity": 0.8380724829674489,
                  "price": 2,
                  "rating": 5.9,
                  "store_id": "100163"
            },
            {
                  "distance": 890,
                  "location": {
                        "address": "7275 Sherbrooke Rue E",
                        "address_extended": "Floor 1",
                        "country": "CA",
                        "cross_street": "coin Du Trianon",
                        "formatted_address": "7275 Sherbrooke Rue E (coin Du Trianon), Montr\u00e9al QC H1N 1E9",
                        "locality": "Montreal",
                        "postcode": "H1N 1E9",
                        "region": "QC"
                  },
                  "name": "Nickels",
                  "popularity": 0.9797265329295988,
                  "price": 2,
                  "rating": 5.1
            },
            {
                  "distance": 690,
                  "location": {
                        "address": "7275 Sherbrooke Rue E",
                        "address_extended": "Local 102",
                        "country": "CA",
                        "formatted_address": "7275 Sherbrooke Rue E, Montr\u00e9al QC H1N 1E9",
                        "locality": "Montreal",
                        "postcode": "H1N 1E9",
                        "region": "QC"
                  },
                  "name": "McDonald's",
                  "popularity": 0.9785555450416351,
                  "price": 1,
                  "rating": 4.9
            },
            {
                  "distance": 580,
                  "location": {
                        "address": "7291 Ave de la Malicorne",
                        "country": "CA",
                        "formatted_address": "7291 Ave de la Malicorne, Anjou QC H1M 1H1",
                        "locality": "Anjou",
                        "postcode": "H1M 1H1",
                        "region": "QC"
                  },
                  "name": "Acropolis Pizzeria & Restaurant",
                  "popularity": 0.9555261165783497,
                  "price": 1
            },
            {
                  "distance": 816,
                  "location": {
                        "address": "7275 Sherbrooke Rue E",
                        "address_extended": "Floor 1",
                        "country": "CA",
                        "cross_street": "",
                        "formatted_address": "7275 Sherbrooke Rue E, Montr\u00e9al QC H1N 1E9",
                        "locality": "Montreal",
                        "postcode": "H1N 1E9",
                        "region": "QC"
                  },
                  "name": "Popino",
                  "popularity": 0.6265258327024981
            },
            {
                  "distance": 821,
                  "location": {
                        "address": "7880 Sherbrooke Rue E",
                        "country": "CA",
                        "cross_street": "",
                        "formatted_address": "7880 Sherbrooke Rue E, Montreal QC H1L 1A5",
                        "locality": "Montreal",
                        "postcode": "H1L 1A5",
                        "region": "QC"
                  },
                  "name": "Brasserie Champlain",
                  "popularity": 0.9256600113550341,
                  "price": 1
            },
            {
                  "distance": 872,
                  "location": {
                        "address": "7275 Sherbrooke Rue E",
                        "address_extended": "# 61",
                        "country": "CA",
                        "cross_street": "",
                        "formatted_address": "7275 Sherbrooke Rue E, Montr\u00e9al QC H1N 1E9",
                        "locality": "Montreal",
                        "postcode": "H1N 1E9",
                        "region": "QC"
                  },
                  "name": "Caf\u00e9 \u00c0 Rome",
                  "popularity": 0.8820377554882665,
                  "price": 1
            },
            {
                  "distance": 892,
                  "location": {
                        "address": "7275 Sherbrooke St E",
                        "address_extended": "Suite 193",
                        "country": "CA",
                        "cross_street": "",
                        "formatted_address": "7275 Sherbrooke St E, Montr\u00e9al QC H1N 1E9",
                        "locality": "Montreal",
                        "postcode": "H1N 1E9",
                        "region": "QC"
                  },
                  "name": "Second Cup CAF\u00c9 & Cie avec Pinkberry yogourt glac\u00e9",
                  "popularity": 0.15511449659348978,
                  "price": 1
            },
            {
                  "distance": 894,
                  "location": {
                        "address": "6740 Joseph-Renaud Blvd",
                        "country": "CA",
                        "cross_street": "",
                        "formatted_address": "6740 Joseph-Renaud Blvd, Anjou QC H1K 3V4",
                        "locality": "Anjou",
                        "postcode": "H1K 3V4",
                        "region": "QC"
                  },
                  "name": "Restaurant Memphis",
                  "popularity": 0.9430947199091597,
                  "price": 2
            },
            {
                  "distance": 895,
                  "location": {
                        "address": "7950 Sherbrooke Rue E",
                        "country": "CA",
                        "cross_street": "\u00c0 l'int\u00e9rieur du m\u00e9tro Honor\u00e9-Beaugrand",
                        "formatted_address": "7950 Sherbrooke Rue E (\u00c0 l'int\u00e9rieur du m\u00e9tro Honor\u00e9-Beaugrand), Montr\u00e9al QC",
                        "locality": "Montreal",
                        "region": "QC"
                  },
                  "name": "Caf\u00e9 William Spartivento",
                  "popularity": 0.46740158970476914,
                  "price": 1
            },
            {
                  "distance": 938,
                  "location": {
                        "address": "7275 Sherbrooke Rue E",
                        "country": "CA",
                        "cross_street": "",
                        "formatted_address": "7275 Sherbrooke Rue E, Montreal QC H1N 1E9",
                        "locality": "Montreal",
                        "postcode": "H1N 1E9",
                        "region": "QC"
                  },
                  "name": "Bistro l'Escale Gourmande",
                  "popularity": 0.3021030469341408,
                  "price": 3
            },
            {
                  "distance": 975,
                  "location": {
                        "address": "7275 Sherbrooke Rue E",
                        "address_extended": "# 33",
                        "country": "CA",
                        "cross_street": "",
                        "formatted_address": "7275 Sherbrooke Rue E, Montreal QC H1N 1E9",
                        "locality": "Montreal",
                        "postcode": "H1N 1E9",
                        "region": "QC"
                  },
                  "name": "Mr Pretzels",
                  "popularity": 0.6808762301286904,
                  "price": 1
            },
            {
                  "distance": 1011,
                  "location": {
                        "address": "7201 Beaubien Rue E",
                        "country": "CA",
                        "cross_street": "",
                        "formatted_address": "7201 Beaubien Rue E, Anjou QC H1M 2Y2",
                        "locality": "Anjou",
                        "postcode": "H1M 2Y2",
                        "region": "QC"
                  },
                  "name": "La Belle Province Anjou",
                  "popularity": 0.9636757191521574,
                  "price": 1
            },
            {
                  "distance": 1072,
                  "location": {
                        "address": "7001 des Galeries d'Anjou Blvd",
                        "country": "CA",
                        "formatted_address": "7001 des Galeries d'Anjou Blvd, Montr\u00e9al QC H1M 3V6",
                        "locality": "Montreal",
                        "postcode": "H1M 3V6",
                        "region": "QC"
                  },
                  "name": "Restaurant la Bonne Adresse",
                  "popularity": 0.9089823050719152,
                  "price": 3
            },
            {
                  "distance": 1073,
                  "location": {
                        "address": "7275 Sherbrooke Rue E",
                        "address_extended": "Place Versailles",
                        "country": "CA",
                        "cross_street": "",
                        "formatted_address": "7275 Sherbrooke Rue E, Montr\u00e9al QC H1N 1E9",
                        "locality": "Montreal",
                        "postcode": "H1N 1E9",
                        "region": "QC"
                  },
                  "name": "Cultures",
                  "popularity": 0.6800364307342922,
                  "price": 2
            },
            {
                  "distance": 1073,
                  "location": {
                        "address": "7275 Sherbrooke Rue E",
                        "address_extended": "Place Versailles",
                        "country": "CA",
                        "cross_street": "du Trianon",
                        "formatted_address": "7275 Sherbrooke Rue E (du Trianon), Montr\u00e9al QC H1N 1E9",
                        "locality": "Montreal",
                        "postcode": "H1N 1E9",
                        "region": "QC"
                  },
                  "name": "Villa Madina",
                  "popularity": 0.9271148750946253,
                  "price": 2
            },
            {
                  "distance": 444,
                  "location": {
                        "address": "6270 Louis-H.-Lafontaine Blvd",
                        "country": "CA",
                        "formatted_address": "6270 Louis-H.-Lafontaine Blvd, Anjou QC H1M 1S8",
                        "locality": "Anjou",
                        "postcode": "H1M 1S8",
                        "region": "QC"
                  },
                  "name": "Gestion Faucher Lambert 1985 Inc"
            },
            {
                  "distance": 736,
                  "location": {
                        "address": "7275 Sherbrooke Rue E",
                        "address_extended": "# 2226",
                        "country": "CA",
                        "formatted_address": "7275 Sherbrooke Rue E, Montreal QC H1N 1E9",
                        "locality": "Montreal",
                        "postcode": "H1N 1E9",
                        "region": "QC"
                  },
                  "name": "Cafe Creperie"
            },
            {
                  "distance": 754,
                  "location": {
                        "address": "7275 Sherbrooke Rue E",
                        "country": "CA",
                        "formatted_address": "7275 Sherbrooke Rue E, Montreal QC H1N 1E9",
                        "locality": "Montreal",
                        "postcode": "H1N 1E9",
                        "region": "QC"
                  },
                  "name": "Los-Rios Place Versailles"
            },
            {
                  "distance": 764,
                  "location": {
                        "address": "7275 Sherbrooke Rue E",
                        "country": "CA",
                        "formatted_address": "7275 Sherbrooke Rue E, Montreal QC",
                        "locality": "Montreal",
                        "region": "QC"
                  },
                  "name": "Nickels Restaurants-Place Versaille"
            },
            {
                  "distance": 782,
                  "location": {
                        "address": "7275 Sherbrooke Rue E",
                        "country": "CA",
                        "formatted_address": "7275 Sherbrooke Rue E, Montreal QC H1N 1E9",
                        "locality": "Montreal",
                        "postcode": "H1N 1E9",
                        "region": "QC"
                  },
                  "name": "Almadina Mediterranean Cuisine"
            },
            {
                  "distance": 784,
                  "location": {
                        "address": "7275 Sherbrooke Rue E",
                        "address_extended": "# 7",
                        "country": "CA",
                        "formatted_address": "7275 Sherbrooke Rue E, Montreal QC H1N 1E9",
                        "locality": "Montreal",
                        "postcode": "H1N 1E9",
                        "region": "QC"
                  },
                  "name": "Baskin-Robbins"
            },
            {
                  "distance": 868,
                  "location": {
                        "address": "6700 Joseph Renaud Blvd",
                        "country": "CA",
                        "formatted_address": "6700 Joseph Renaud Blvd, Anjou QC H1K 3V4",
                        "locality": "Anjou",
                        "postcode": "H1K 3V4",
                        "region": "QC"
                  },
                  "name": "La Fraicheur Tropicale"
            },
            {
                  "distance": 896,
                  "location": {
                        "address": "5020 Saint-Donat Rue",
                        "country": "CA",
                        "formatted_address": "5020 Saint-Donat Rue, Montreal QC H1K 3N8",
                        "locality": "Montreal",
                        "postcode": "H1K 3N8",
                        "region": "QC"
                  },
                  "name": "Lakay"
            },
            {
                  "distance": 953,
                  "location": {
                        "address": "7275 Sherbrooke Rue E",
                        "address_extended": "Floor 1",
                        "country": "CA",
                        "formatted_address": "7275 Sherbrooke Rue E, Montreal QC H1N 1E9",
                        "locality": "Montreal",
                        "postcode": "H1N 1E9",
                        "region": "QC"
                  },
                  "name": "Josephine la poutine"
            },
            {
                  "distance": 956,
                  "location": {
                        "address": "7275 Sherbrooke Rue E",
                        "address_extended": "Place Versailles",
                        "country": "CA",
                        "formatted_address": "7275 Sherbrooke Rue E, Montreal QC H1N 1E9",
                        "locality": "Montreal",
                        "postcode": "H1N 1E9",
                        "region": "QC"
                  },
                  "name": "Kim Chi - D\u00e9lice Cor\u00e9en"
            },
            {
                  "distance": 978,
                  "location": {
                        "address": "7275 Sherbrooke Rue E",
                        "address_extended": "Floor 1",
                        "country": "CA",
                        "formatted_address": "7275 Sherbrooke Rue E, Montreal QC H1N 1E9",
                        "locality": "Montreal",
                        "postcode": "H1N 1E9",
                        "region": "QC"
                  },
                  "name": "Bar Beaux Jeux"
            }
      ],
      "context": {
            "geo_bounds": {
                  "circle": {
                        "center": {
                              "latitude": 45.59833498,
                              "longitude": -73.54596734
                        },
                        "radius": 1000
                  }
            }
      }
}