{
      "results": [
            {
                  "distance": 973,
                  "location": {
                        "address": "5670 Sherbrooke Rue E",
                        "country": "CA",
                        "cross_street": "",
                        "formatted_address": "5670 Sherbrooke Rue E, Montr\u00e9al QC H1N 1A1",
                        "locality": "Montreal",
                        "postcode": "H1N 1A1",
                        "region": "QC"
                  },
                  "name": "Chez Cora",
                  "popularity": 0.9456732588947767,
                  "price": 1,
                  "rating": 7.2
            },
            {
                  "distance": 970,
                  "location": {
                        "address": "5666 Sherbrooke Rue E",
                        "country": "CA",
                        "cross_street": "",
                        "formatted_address": "5666 Sherbrooke Rue E, Montr\u00e9al QC H1N 1A1",
                        "locality": "Montreal",
                        "postcode": "H1N 1A1",
                        "region": "QC"
                  },
                  "name": "Beni Hana Cuisine Japonaise",
                  "popularity": 0.9583885314155942,
                  "price": 2,
                  "rating": 6.5
            },
            {
                  "distance": 886,
                  "location": {
                        "address": "4825 Pierre de Coubertin Ave",
                        "country": "CA",
                        "cross_street": "Viau",
                        "formatted_address": "4825 Pierre de Coubertin Ave (Viau), Montr\u00e9al QC",
                        "locality": "Montreal",
                        "region": "QC"
                  },
                  "name": "Pizza Pizza",
                  "popularity": 0.611610522331567,
                  "price": 1,
                  "rating": 6.2
            },
            {
                  "distance": 975,
                  "location": {
                        "address": "5460 Sherbrooke Rue O",
                        "country": "CA",
                        "cross_street": "L'Assomption",
                        "formatted_address": "5460 Sherbrooke Rue O (L'Assomption), Montr\u00e9al QC H4A 1V9",
                        "locality": "Montreal",
                        "postcode": "H4A 1V9",
                        "region": "QC"
                  },
                  "name": "Au Vieux Duluth",
                  "popularity": 0.8967519871309614,
                  "price": 2,
                  "rating": 5.9
            },
            {
                  "distance": 979,
                  "location": {
                        "address": "5222 Sherbrooke Rue E",
                        "country": "CA",
                        "formatted_address": "5222 Sherbrooke Rue E, Montr\u00e9al QC H1V 1A1",
                        "locality": "Montreal",
                        "postcode": "H1V 1A1",
                        "region": "QC"
                  },
                  "name": "Madisons Restaurant & Bar",
                  "popularity": 0.966171461014383,
                  "price": 2,
                  "rating": 5.8
            },
            {
                  "distance": 619,
                  "location": {
                        "address": "5865 Hochelaga Rue",
                        "country": "CA",
                        "cross_street": "Louis-Veuillot",
                        "formatted_address": "5865 Hochelaga Rue (Louis-Veuillot), Montr\u00e9al QC H1N 1X2",
                        "locality": "Montreal",
                        "postcode": "H1N 1X2",
                        "region": "QC"
                  },
                  "name": "Soupe and Roll",
                  "popularity": 0.9531841408024224,
                  "price": 2
            },
            {
                  "distance": 667,
                  "location": {
                        "address": "5065 Ontario Rue E",
                        "country": "CA",
                        "cross_street": "Coin rue Ida-Steinberg",
                        "formatted_address": "5065 Ontario Rue E (Coin rue Ida-Steinberg), Montr\u00e9al QC H1V 3V2",
                        "locality": "Montreal",
                        "postcode": "H1V 3V2",
                        "region": "QC"
                  },
                  "name": "France Delices",
                  "popularity": 0.21029286525359575
            },
            {
                  "distance": 818,
                  "location": {
                        "address": "6018 Hochelaga Rue",
                        "country": "CA",
                        "cross_street": "",
                        "formatted_address": "6018 Hochelaga Rue, Montr\u00e9al QC H1N 1X6",
                        "locality": "Montreal",
                        "postcode": "H1N 1X6",
                        "region": "QC"
                  },
                  "name": "Bar 3 Barils",
                  "popularity": 0.6373604277062831,
                  "price": 1
            },
            {
                  "distance": 854,
                  "location": {
                        "address": "3055 Viau Rue",
                        "country": "CA",
                        "formatted_address": "3055 Viau Rue, Montr\u00e9al QC H1V 3J5",
                        "locality": "Montreal",
                        "postcode": "H1V 3J5",
                        "region": "QC"
                  },
                  "name": "Mondelez Internationale",
                  "popularity": 0.9218395155185466
            },
            {
                  "distance": 920,
                  "location": {
                        "address": "4743 Hochelaga Rue",
                        "country": "CA",
                        "cross_street": "Leclaire",
                        "formatted_address": "4743 Hochelaga Rue (Leclaire), Montr\u00e9al QC H1V 1E2",
                        "locality": "Montreal",
                        "postcode": "H1V 1E2",
                        "region": "QC"
                  },
                  "name": "Restaurant Pizzeria Hochelaga",
                  "popularity": 0.9084618660105981,
                  "price": 1
            },
            {
                  "distance": 952,
                  "location": {
                        "address": "5660 Sherbrooke Rue E",
                        "country": "CA",
                        "cross_street": "Dickson",
                        "formatted_address": "5660 Sherbrooke Rue E (Dickson), Montr\u00e9al QC H1N 1A1",
                        "locality": "Montreal",
                        "postcode": "H1N 1A1",
                        "region": "QC"
                  },
                  "name": "Enoteca Monza Pizzeria Moderna",
                  "popularity": 0.9203373391370174,
                  "price": 2
            },
            {
                  "distance": 676,
                  "location": {
                        "address": "5067 Ontario Rue E",
                        "country": "CA",
                        "formatted_address": "5067 Ontario Rue E, Montreal QC H1V 3V2",
                        "locality": "Montreal",
                        "postcode": "H1V 3V2",
                        "region": "QC"
                  },
                  "name": "Quali-Desserts Inc"
            },
            {
                  "distance": 760,
                  "location": {
                        "address": "2896 Louis Veuillot Rue",
                        "country": "CA",
                        "formatted_address": "2896 Louis Veuillot Rue, Montreal QC H1N 2P6",
                        "locality": "Montreal",
                        "postcode": "H1N 2P6",
                        "region": "QC"
                  },
                  "name": "Shakir Indian Cuisine"
            },
            {
                  "distance": 786,
                  "location": {
                        "address": "3055 Viau Rue",
                        "country": "CA",
                        "formatted_address": "3055 Viau Rue, Montreal QC H1V 3J5",
                        "locality": "Montreal",
                        "postcode": "H1V 3J5",
                        "region": "QC"
                  },
                  "name": "Compagnie Christie Brown"
            },
            {
                  "distance": 796,
                  "location": {
                        "address": "6018 Hochelaga Rue",
                        "country": "CA",
                        "formatted_address": "6018 Hochelaga Rue, Montreal QC H1N 1X6",
                        "locality": "Montreal",
                        "postcode": "H1N 1X6",
                        "region": "QC"
                  },
                  "name": "Bar Aux Trois Barils"
            },
            {
                  "distance": 930,
                  "location": {
                        "address": "4740 Hochelaga Rue",
                        "country": "CA",
                        "formatted_address": "4740 Hochelaga Rue, Montreal QC H1V 1E3",
                        "locality": "Montreal",
                        "postcode": "H1V 1E3",
                        "region": "QC"
                  },
                  "name": "Tok\u00e9"
            },
            {
                  "distance": 949,
                  "location": {
                        "address": "5460 Sherbrooke Rue O",
                        "country": "CA",
                        "formatted_address": "5460 Sherbrooke Rue O, Montreal QC H4A 1V9",
                        "locality": "Montreal",
                        "postcode": "H4A 1V9",
                        "region": "QC"
                  },
                  "name": "Nickels Restaurant"
            },
            {
                  "distance": 986,
                  "location": {
                        "address": "5222 Sherbrooke Rue E",
                        "country": "CA",
                        "formatted_address": "5222 Sherbrooke Rue E, Montreal QC H1V 1A1",
                        "locality": "Montreal",
                        "postcode": "H1V 1A1",
                        "region": "QC"
                  },
                  "name": "BRGR&MAC Village-Olympique"
            }
      ],
      "context": {
            "geo_bounds": {
                  "circle": {
                        "center": {
                              "latitude": 45.56688309,
                              "longitude": -73.53943817
                        },
                        "radius": 1000
                  }
            }
      }
}