{
      "results": [
            {
                  "distance": 714,
                  "location": {
                        "address": "520 Saint-Laurent Blvd",
                        "address_extended": "Saint-Jacques",
                        "country": "CA",
                        "cross_street": "Saint-Jacques",
                        "formatted_address": "520 Saint-Laurent Blvd (Saint-Jacques), Montr\u00e9al QC H2Y 2Y9",
                        "locality": "Montreal",
                        "postcode": "H2Y 2Y9",
                        "region": "QC"
                  },
                  "name": "Paquebot Vieux-Mtl",
                  "popularity": 0.9716833838001514,
                  "price": 1,
                  "rating": 9.0
            },
            {
                  "distance": 923,
                  "location": {
                        "address": "1106B Saint Laurent Blvd",
                        "country": "CA",
                        "cross_street": "coin Ren\u00e9-L\u00e9vesque",
                        "formatted_address": "1106B Saint Laurent Blvd (coin Ren\u00e9-L\u00e9vesque), Montr\u00e9al QC H2Z 1J5",
                        "locality": "Montreal",
                        "postcode": "H2Z 1J5",
                        "region": "QC"
                  },
                  "name": "Bar le Mal N\u00e9cessaire",
                  "popularity": 0.9491152535957608,
                  "price": 3,
                  "rating": 9.0
            },
            {
                  "distance": 208,
                  "location": {
                        "address": "380 Saint Paul Rue E",
                        "country": "CA",
                        "cross_street": "coin Bonsecours",
                        "formatted_address": "380 Saint Paul Rue E (coin Bonsecours), Montr\u00e9al QC H2Y 1H2",
                        "locality": "Montreal",
                        "postcode": "H2Y 1H2",
                        "region": "QC"
                  },
                  "name": "Pub BreWskey",
                  "popularity": 0.9748888152914459,
                  "price": 1,
                  "rating": 8.9
            },
            {
                  "distance": 490,
                  "location": {
                        "address": "155 Saint-Paul Rue E",
                        "country": "CA",
                        "formatted_address": "155 Saint-Paul Rue E, Montr\u00e9al QC H2Y 1G8",
                        "locality": "Montreal",
                        "postcode": "H2Y 1G8",
                        "region": "QC"
                  },
                  "name": "Cold Room",
                  "popularity": 0.9257782929598789,
                  "price": 3,
                  "rating": 8.9
            },
            {
                  "distance": 486,
                  "location": {
                        "address": "419 Saint-Vincent Rue",
                        "country": "CA",
                        "cross_street": "Rue Saint-Amable",
                        "formatted_address": "419 Saint-Vincent Rue (Rue Saint-Amable), Montr\u00e9al QC H2Y 3A6",
                        "locality": "Montreal",
                        "postcode": "H2Y 3A6",
                        "region": "QC"
                  },
                  "name": "Caf\u00e9 Olimpico",
                  "popularity": 0.9666682437547313,
                  "price": 1,
                  "rating": 8.9
            },
            {
                  "distance": 366,
                  "location": {
                        "address": "273 Saint-Paul Rue E",
                        "country": "CA",
                        "cross_street": "at rue du March\u00e9-Bonsecours",
                        "formatted_address": "273 Saint-Paul Rue E (at rue du March\u00e9-Bonsecours), Montr\u00e9al QC H2Y 1H1",
                        "locality": "Montreal",
                        "postcode": "H2Y 1H1",
                        "region": "QC"
                  },
                  "name": "L'Usine de Spaghetti",
                  "popularity": 0.9515400264950795,
                  "price": 2,
                  "rating": 8.8
            },
            {
                  "distance": 886,
                  "location": {
                        "address": "139 Saint-Paul Rue O",
                        "country": "CA",
                        "cross_street": "",
                        "formatted_address": "139 Saint-Paul Rue O, Montr\u00e9al QC H2Y 1Z5",
                        "locality": "Montreal",
                        "postcode": "H2Y 1Z5",
                        "region": "QC"
                  },
                  "name": "Pub Wolf & Workman",
                  "popularity": 0.9454485238455715,
                  "price": 2,
                  "rating": 8.7
            },
            {
                  "distance": 912,
                  "location": {
                        "address": "151 Saint-Paul Rue O",
                        "country": "CA",
                        "cross_street": "",
                        "formatted_address": "151 Saint-Paul Rue O, Montr\u00e9al QC H2Y 1Z5",
                        "locality": "Montreal",
                        "postcode": "H2Y 1Z5",
                        "region": "QC"
                  },
                  "name": "Tommy Caf\u00e9",
                  "popularity": 0.9337741294473884,
                  "price": 1,
                  "rating": 8.6
            },
            {
                  "distance": 587,
                  "location": {
                        "address": "426 Saint-Gabriel Rue",
                        "country": "CA",
                        "formatted_address": "426 Saint-Gabriel Rue, Montr\u00e9al QC H2Y 2Z9",
                        "locality": "Montreal",
                        "postcode": "H2Y 2Z9",
                        "region": "QC"
                  },
                  "name": "L'Auberge Saint-Gabriel",
                  "popularity": 0.9457087433762301,
                  "price": 3,
                  "rating": 8.6
            },
            {
                  "distance": 874,
                  "location": {
                        "address": "711 cote de la Place-d'Armes",
                        "country": "CA",
                        "cross_street": "St-Jacques",
                        "formatted_address": "711 cote de la Place-d'Armes (St-Jacques), Montr\u00e9al QC H2Y 2X6",
                        "locality": "Montreal",
                        "postcode": "H2Y 2X6",
                        "region": "QC"
                  },
                  "name": "Kyo Bar Japonais",
                  "popularity": 0.9498722558667676,
                  "price": 2,
                  "rating": 8.6
            },
            {
                  "distance": 921,
                  "location": {
                        "address": "1096 Saint-Laurent Blvd",
                        "country": "CA",
                        "cross_street": "entre Ren\u00e9-L\u00e9vesque & De la Gaucheti\u00e8re",
                        "formatted_address": "1096 Saint-Laurent Blvd (entre Ren\u00e9-L\u00e9vesque & De la Gaucheti\u00e8re), Montr\u00e9al QC H2Z 1J5",
                        "locality": "Montreal",
                        "postcode": "H2Z 1J5",
                        "region": "QC"
                  },
                  "name": "La Capital Tacos",
                  "popularity": 0.9445377554882665,
                  "price": 1,
                  "rating": 8.6
            },
            {
                  "distance": 257,
                  "location": {
                        "address": "350 Notre-Dame Rue E",
                        "address_extended": "Suite 1",
                        "country": "CA",
                        "cross_street": "Bonsecours",
                        "formatted_address": "350 Notre-Dame Rue E (Bonsecours), Montr\u00e9al QC H2Y 1C7",
                        "locality": "Montreal",
                        "postcode": "H2Y 1C7",
                        "region": "QC"
                  },
                  "name": "Caf\u00e9 de' Mercanti - Old Montreal",
                  "popularity": 0.9625993565480696,
                  "price": 1,
                  "rating": 8.6
            },
            {
                  "distance": 619,
                  "location": {
                        "address": "25 Saint Paul St E",
                        "country": "CA",
                        "formatted_address": "25 Saint Paul St E, Montr\u00e9al QC H2Y 1G2",
                        "locality": "Montreal",
                        "postcode": "H2Y 1G2",
                        "region": "QC"
                  },
                  "name": "The Keg Steakhouse + Bar",
                  "popularity": 0.957205715367146,
                  "price": 2,
                  "rating": 8.6,
                  "store_id": "108"
            },
            {
                  "distance": 831,
                  "location": {
                        "address": "453 Saint-Sulpice Rue",
                        "country": "CA",
                        "cross_street": "Notre-Dame O.",
                        "formatted_address": "453 Saint-Sulpice Rue (Notre-Dame O.), Montr\u00e9al QC H2Y 2V8",
                        "locality": "Montreal",
                        "postcode": "H2Y 2V8",
                        "region": "QC"
                  },
                  "name": "Les Glaceurs",
                  "popularity": 0.9073145344436033,
                  "price": 3,
                  "rating": 8.5
            },
            {
                  "distance": 968,
                  "location": {
                        "address": "179 Saint-Paul Rue O",
                        "country": "CA",
                        "cross_street": "Place Royale",
                        "formatted_address": "179 Saint-Paul Rue O (Place Royale), Montr\u00e9al QC H2Y 1Z5",
                        "locality": "Montreal",
                        "postcode": "H2Y 1Z5",
                        "region": "QC"
                  },
                  "name": "Le Petit Dep",
                  "popularity": 0.9530540310370931,
                  "rating": 8.5
            },
            {
                  "distance": 982,
                  "location": {
                        "address": "200 Notre-Dame Rue O",
                        "country": "CA",
                        "cross_street": "coin Saint-Fran\u00e7ois Xavier",
                        "formatted_address": "200 Notre-Dame Rue O (coin Saint-Fran\u00e7ois Xavier), Montr\u00e9al QC H2Y 1T3",
                        "locality": "Montreal",
                        "postcode": "H2Y 1T3",
                        "region": "QC"
                  },
                  "name": "Tommy",
                  "popularity": 0.9703586298258895,
                  "price": 1,
                  "rating": 8.3
            },
            {
                  "distance": 678,
                  "location": {
                        "address": "1 Saint-Paul Rue O",
                        "country": "CA",
                        "cross_street": "St-Laurent",
                        "formatted_address": "1 Saint-Paul Rue O (St-Laurent), Montr\u00e9al QC H2Y 1Y6",
                        "locality": "Montreal",
                        "postcode": "H2Y 1Y6",
                        "region": "QC"
                  },
                  "name": "Modavie",
                  "popularity": 0.9749006434519304,
                  "price": 2,
                  "rating": 8.3
            },
            {
                  "distance": 826,
                  "location": {
                        "address": "1006 Saint-Laurent Blvd",
                        "country": "CA",
                        "cross_street": "",
                        "formatted_address": "1006 Saint-Laurent Blvd, Montr\u00e9al QC H2Z 1J3",
                        "locality": "Montreal",
                        "postcode": "H2Z 1J3",
                        "region": "QC"
                  },
                  "name": "Nouilles de Lan Zhou",
                  "popularity": 0.9843868281604845,
                  "price": 2,
                  "rating": 8.3
            },
            {
                  "distance": 638,
                  "location": {
                        "address": "3 Saint-Paul Rue E",
                        "country": "CA",
                        "formatted_address": "3 Saint-Paul Rue E, Montr\u00e9al QC H2Y 1E9",
                        "locality": "Montreal",
                        "postcode": "H2Y 1E9",
                        "region": "QC"
                  },
                  "name": "Creperie Chez Suzette",
                  "popularity": 0.9561530090840272,
                  "price": 2,
                  "rating": 8.3
            },
            {
                  "distance": 588,
                  "location": {
                        "address": "39 Saint-Paul Rue E",
                        "country": "CA",
                        "cross_street": "St-Gabriel",
                        "formatted_address": "39 Saint-Paul Rue E (St-Gabriel), Montreal QC H2Y 1G2",
                        "locality": "Montreal",
                        "postcode": "H2Y 1G2",
                        "region": "QC"
                  },
                  "name": "Vieux-Port Steakhouse",
                  "popularity": 0.9651542392127176,
                  "price": 2,
                  "rating": 8.2
            },
            {
                  "distance": 422,
                  "location": {
                        "address": "426 Jacques-Cartier Pl",
                        "country": "CA",
                        "cross_street": "",
                        "formatted_address": "426 Jacques-Cartier Pl, Montr\u00e9al QC H2Y 3B3",
                        "locality": "Montreal",
                        "postcode": "H2Y 3B3",
                        "region": "QC"
                  },
                  "name": "Maggie Oakes",
                  "popularity": 0.9443603330809992,
                  "price": 4,
                  "rating": 8.2
            },
            {
                  "distance": 717,
                  "location": {
                        "address": "15 Rue de la Commune Ouest",
                        "country": "CA",
                        "cross_street": "",
                        "formatted_address": "15 Rue de la Commune Ouest, Montr\u00e9al QC H2Y 2C6",
                        "locality": "Montreal",
                        "postcode": "H2Y 2C6",
                        "region": "QC"
                  },
                  "name": "Lattuca Barbecue",
                  "popularity": 0.9148372445117335,
                  "price": 2,
                  "rating": 8.1
            },
            {
                  "distance": 657,
                  "location": {
                        "address": "12 Notre-Dame Rue E",
                        "country": "CA",
                        "cross_street": "Saint-Laurent",
                        "formatted_address": "12 Notre-Dame Rue E (Saint-Laurent), Montr\u00e9al QC H2Y 1B7",
                        "locality": "Montreal",
                        "postcode": "H2Y 1B7",
                        "region": "QC"
                  },
                  "name": "Eggspectation",
                  "popularity": 0.9441947388342165,
                  "price": 1,
                  "rating": 8.1
            },
            {
                  "distance": 862,
                  "location": {
                        "address": "124 Saint-Paul Rue O",
                        "country": "CA",
                        "cross_street": "Place Royale",
                        "formatted_address": "124 Saint-Paul Rue O (Place Royale), Montr\u00e9al QC H2Y 1Z3",
                        "locality": "Montreal",
                        "postcode": "H2Y 1Z3",
                        "region": "QC"
                  },
                  "name": "M\u00e9chant B\u0153uf Bar & Brasserie",
                  "popularity": 0.922537376987131,
                  "price": 2,
                  "rating": 8.0
            },
            {
                  "distance": 948,
                  "location": {
                        "address": "1018 Saint-Urbain Rue",
                        "country": "CA",
                        "cross_street": "coin De la Gaucheti\u00e8re",
                        "formatted_address": "1018 Saint-Urbain Rue (coin De la Gaucheti\u00e8re), Montr\u00e9al QC H2Z 1K6",
                        "locality": "Montreal",
                        "postcode": "H2Z 1K6",
                        "region": "QC"
                  },
                  "name": "Noodle Factory",
                  "popularity": 0.9307106358819076,
                  "price": 2,
                  "rating": 7.9
            },
            {
                  "distance": 807,
                  "location": {
                        "address": "43 Rue de la Gaucheti\u00e8re Est",
                        "country": "CA",
                        "cross_street": "coin St-Dominique",
                        "formatted_address": "43 Rue de la Gaucheti\u00e8re Est (coin St-Dominique), Montr\u00e9al QC H2X 1P4",
                        "locality": "Montreal",
                        "postcode": "H2X 1P4",
                        "region": "QC"
                  },
                  "name": "Restaurant Mon-Nan Cantonese Food Enr",
                  "popularity": 0.9700984102952309,
                  "price": 1,
                  "rating": 7.8
            },
            {
                  "distance": 902,
                  "location": {
                        "address": "921 Sainte-Catherine Rue E",
                        "country": "CA",
                        "cross_street": "entre St-Andr\u00e9 & St-Timoth\u00e9e",
                        "formatted_address": "921 Sainte-Catherine Rue E (entre St-Andr\u00e9 & St-Timoth\u00e9e), Montr\u00e9al QC H2L 2E5",
                        "locality": "Montreal",
                        "postcode": "H2L 2E5",
                        "region": "QC"
                  },
                  "name": "La graine br\u00fbl\u00e9e",
                  "popularity": 0.9593584405753217,
                  "price": 1,
                  "rating": 7.8
            },
            {
                  "distance": 854,
                  "location": {
                        "address": "701 cote de la Place-d'Armes",
                        "country": "CA",
                        "cross_street": "St-Jacques",
                        "formatted_address": "701 cote de la Place-d'Armes (St-Jacques), Montr\u00e9al QC H2Y 2X6",
                        "locality": "Montreal",
                        "postcode": "H2Y 2X6",
                        "region": "QC"
                  },
                  "name": "Suite 701",
                  "popularity": 0.9388720666161998,
                  "price": 2,
                  "rating": 7.8
            },
            {
                  "distance": 435,
                  "location": {
                        "address": "458 Jacques-Cartier Pl",
                        "country": "CA",
                        "cross_street": "",
                        "formatted_address": "458 Jacques-Cartier Pl, Montr\u00e9al QC H2Y 3B3",
                        "locality": "Montreal",
                        "postcode": "H2Y 3B3",
                        "region": "QC"
                  },
                  "name": "John Michael's Pub",
                  "popularity": 0.9487604087812264,
                  "price": 1,
                  "rating": 7.8
            },
            {
                  "distance": 942,
                  "location": {
                        "address": "71A rue de la Gaucheti\u00e8re Ouest",
                        "country": "CA",
                        "cross_street": "coin Saint-Urbain",
                        "formatted_address": "71A rue de la Gaucheti\u00e8re Ouest (coin Saint-Urbain), Montr\u00e9al QC H2Z 1C2",
                        "locality": "Montreal",
                        "postcode": "H2Z 1C2",
                        "region": "QC"
                  },
                  "name": "L2 Desserts Lounge",
                  "popularity": 0.9178770817562453,
                  "rating": 7.7
            },
            {
                  "distance": 471,
                  "location": {
                        "address": "421 Saint Vincent Rue",
                        "country": "CA",
                        "cross_street": "",
                        "formatted_address": "421 Saint Vincent Rue, Montr\u00e9al QC H2Y 3A6",
                        "locality": "Montreal",
                        "postcode": "H2Y 3A6",
                        "region": "QC"
                  },
                  "name": "Terrasse William Gray",
                  "popularity": 0.9524981074943225,
                  "price": 2,
                  "rating": 7.7
            },
            {
                  "distance": 909,
                  "location": {
                        "address": "68 Rue de la Gaucheti\u00e8re O",
                        "country": "CA",
                        "cross_street": "",
                        "formatted_address": "68 Rue de la Gaucheti\u00e8re O, Montr\u00e9al QC H2Z 1C1",
                        "locality": "Montreal",
                        "postcode": "H2Z 1C1",
                        "region": "QC"
                  },
                  "name": "Sammi & Soupe Dumpling",
                  "popularity": 0.9741554693414081,
                  "price": 1,
                  "rating": 7.7
            },
            {
                  "distance": 525,
                  "location": {
                        "address": "105 Saint-Paul Rue E",
                        "country": "CA",
                        "cross_street": "coin De Vaudreuil",
                        "formatted_address": "105 Saint-Paul Rue E (coin De Vaudreuil), Montr\u00e9al QC H2Y 1G7",
                        "locality": "Montreal",
                        "postcode": "H2Y 1G7",
                        "region": "QC"
                  },
                  "name": "Les 3 Brasseurs",
                  "popularity": 0.9654972558667676,
                  "price": 2,
                  "rating": 7.6
            },
            {
                  "distance": 564,
                  "location": {
                        "address": "89 Rue de la Commune Est",
                        "country": "CA",
                        "cross_street": "St-Gabriel",
                        "formatted_address": "89 Rue de la Commune Est (St-Gabriel), Montr\u00e9al QC H2Y 1J1",
                        "locality": "Montreal",
                        "postcode": "H2Y 1J1",
                        "region": "QC"
                  },
                  "name": "Taverne Gaspar",
                  "popularity": 0.9400312263436791,
                  "price": 2,
                  "rating": 7.5
            },
            {
                  "distance": 592,
                  "location": {
                        "address": "39 rue de la Commune E",
                        "country": "CA",
                        "cross_street": "St-Gabriel",
                        "formatted_address": "39 rue de la Commune E (St-Gabriel), Montr\u00e9al QC H2Y 1H9",
                        "locality": "Montreal",
                        "postcode": "H2Y 1H9",
                        "region": "QC"
                  },
                  "name": "Al Pizzetta",
                  "popularity": 0.9280256434519304,
                  "price": 2,
                  "rating": 7.5
            }
      ],
      "context": {
            "geo_bounds": {
                  "circle": {
                        "center": {
                              "latitude": 45.51086,
                              "longitude": -73.54983
                        },
                        "radius": 1000
                  }
            }
      }
}