{
      "results": [
            {
                  "distance": 409,
                  "location": {
                        "address": "8803 Hochelaga Rue",
                        "country": "CA",
                        "cross_street": "Joffre",
                        "formatted_address": "8803 Hochelaga Rue (Joffre), Montr\u00e9al QC H1L 2N1",
                        "locality": "Montreal",
                        "postcode": "H1L 2N1",
                        "region": "QC"
                  },
                  "name": "Le Coq de l'Est 2015 Inc",
                  "popularity": 0.8620363361090083,
                  "price": 2,
                  "rating": 8.2
            },
            {
                  "distance": 687,
                  "location": {
                        "address": "8990 Sherbrooke Rue E",
                        "country": "CA",
                        "cross_street": "",
                        "formatted_address": "8990 Sherbrooke Rue E, Montr\u00e9al QC H1L 1C9",
                        "locality": "Montreal",
                        "postcode": "H1L 1C9",
                        "region": "QC"
                  },
                  "name": "Boulangerie MariePain",
                  "popularity": 0.9910933951551855,
                  "price": 1,
                  "rating": 7.9
            },
            {
                  "distance": 509,
                  "location": {
                        "address": "8670 Sherbrooke Rue E",
                        "country": "CA",
                        "cross_street": "",
                        "formatted_address": "8670 Sherbrooke Rue E, Montr\u00e9al QC H1L 1B9",
                        "locality": "Montreal",
                        "postcode": "H1L 1B9",
                        "region": "QC"
                  },
                  "name": "Le Grill Barroso",
                  "popularity": 0.8786194171082513,
                  "price": 2,
                  "rating": 7.4
            },
            {
                  "distance": 962,
                  "location": {
                        "address": "8746 Notre-Dame Rue E",
                        "country": "CA",
                        "cross_street": "",
                        "formatted_address": "8746 Notre-Dame Rue E, Montr\u00e9al QC H1L 3M1",
                        "locality": "Montreal",
                        "postcode": "H1L 3M1",
                        "region": "QC"
                  },
                  "name": "Coronel Restaurant",
                  "popularity": 0.9031746782740349,
                  "price": 2,
                  "rating": 7.0
            },
            {
                  "distance": 523,
                  "location": {
                        "address": "5272 Sherbrooke Rue O",
                        "country": "CA",
                        "cross_street": "",
                        "formatted_address": "5272 Sherbrooke Rue O, Montr\u00e9al QC H4A 1T9",
                        "locality": "Montreal",
                        "postcode": "H4A 1T9",
                        "region": "QC"
                  },
                  "name": "KFC",
                  "popularity": 0.9679929977289932,
                  "price": 1,
                  "rating": 6.4
            },
            {
                  "distance": 938,
                  "location": {
                        "address": "9325 Sherbrooke St E",
                        "country": "CA",
                        "cross_street": "",
                        "formatted_address": "9325 Sherbrooke St E, Montr\u00e9al QC H1L 6P2",
                        "locality": "Montreal",
                        "postcode": "H1L 6P2",
                        "region": "QC"
                  },
                  "name": "Subway",
                  "popularity": 0.9523325132475398,
                  "price": 1,
                  "rating": 6.4,
                  "store_id": "26312"
            },
            {
                  "distance": 320,
                  "location": {
                        "address": "2525 des Ormeaux Rue",
                        "country": "CA",
                        "cross_street": "",
                        "formatted_address": "2525 des Ormeaux Rue, Montr\u00e9al QC H1L 4X4",
                        "locality": "Montreal",
                        "postcode": "H1L 4X4",
                        "region": "QC"
                  },
                  "name": "Kem CoBa",
                  "popularity": 0.31227526495079483,
                  "price": 1
            },
            {
                  "distance": 375,
                  "location": {
                        "address": "8517 Hochelaga Rue",
                        "country": "CA",
                        "cross_street": "Lebrun",
                        "formatted_address": "8517 Hochelaga Rue (Lebrun), Montr\u00e9al QC H1L 2M1",
                        "locality": "Montreal",
                        "postcode": "H1L 2M1",
                        "region": "QC"
                  },
                  "name": "Chez Simon Cantine Urbaine",
                  "popularity": 0.9938138720666162,
                  "price": 1
            },
            {
                  "distance": 416,
                  "location": {
                        "address": "8480 Hochelaga Rue",
                        "country": "CA",
                        "cross_street": "",
                        "formatted_address": "8480 Hochelaga Rue, Montr\u00e9al QC H1L 2L9",
                        "locality": "Montreal",
                        "postcode": "H1L 2L9",
                        "region": "QC"
                  },
                  "name": "Taverne Reeves Inc",
                  "popularity": 0.7225704958364875,
                  "price": 1
            },
            {
                  "distance": 419,
                  "location": {
                        "address": "8792 Hochelaga Rue",
                        "country": "CA",
                        "cross_street": "",
                        "formatted_address": "8792 Hochelaga Rue, Montr\u00e9al QC H1L 2M9",
                        "locality": "Montreal",
                        "postcode": "H1L 2M9",
                        "region": "QC"
                  },
                  "name": "Restaurant Zykaa",
                  "popularity": 0.9669876040878123,
                  "price": 2
            },
            {
                  "distance": 487,
                  "location": {
                        "address": "2263 des Ormeaux Rue",
                        "country": "CA",
                        "cross_street": "",
                        "formatted_address": "2263 des Ormeaux Rue, Montr\u00e9al QC H1L 4X2",
                        "locality": "Montreal",
                        "postcode": "H1L 4X2",
                        "region": "QC"
                  },
                  "name": "Chopine P\u00e2tisserie",
                  "popularity": 0.7051239591218774
            },
            {
                  "distance": 496,
                  "location": {
                        "address": "8604 Sherbrooke Rue E",
                        "country": "CA",
                        "cross_street": "",
                        "formatted_address": "8604 Sherbrooke Rue E, Montr\u00e9al QC H1L 1B7",
                        "locality": "Montreal",
                        "postcode": "H1L 1B7",
                        "region": "QC"
                  },
                  "name": "Pizza Hut",
                  "popularity": 0.9349096328538986,
                  "price": 1,
                  "store_id": "R47401"
            },
            {
                  "distance": 499,
                  "location": {
                        "address": "8660 Sherbrooke Rue E",
                        "country": "CA",
                        "formatted_address": "8660 Sherbrooke Rue E, Montr\u00e9al QC H1L 1B7",
                        "locality": "Montreal",
                        "postcode": "H1L 1B7",
                        "region": "QC"
                  },
                  "name": "Restaurant la Belle Province",
                  "popularity": 0.9033047880393641,
                  "price": 1
            },
            {
                  "distance": 503,
                  "location": {
                        "address": "8604 Sherbrooke Rue E",
                        "country": "CA",
                        "cross_street": "",
                        "formatted_address": "8604 Sherbrooke Rue E, Montr\u00e9al QC",
                        "locality": "Montreal",
                        "region": "QC"
                  },
                  "name": "Double Pizza",
                  "popularity": 0.826528198334595,
                  "price": 1
            },
            {
                  "distance": 542,
                  "location": {
                        "address": "8655 Sherbrooke Rue E",
                        "country": "CA",
                        "cross_street": "",
                        "formatted_address": "8655 Sherbrooke Rue E, Montr\u00e9al QC H1L 1B8",
                        "locality": "Montreal",
                        "postcode": "H1L 1B8",
                        "region": "QC"
                  },
                  "name": "Broadway Pizzeria",
                  "popularity": 0.8714278955336866,
                  "price": 1
            },
            {
                  "distance": 576,
                  "location": {
                        "address": "8980 Hochelaga Rue",
                        "country": "CA",
                        "cross_street": "",
                        "formatted_address": "8980 Hochelaga Rue, Montr\u00e9al QC H1L 2N7",
                        "locality": "Montreal",
                        "postcode": "H1L 2N7",
                        "region": "QC"
                  },
                  "name": "Dominic Sous-Marins",
                  "popularity": 0.905611279333838,
                  "price": 1
            },
            {
                  "distance": 698,
                  "location": {
                        "address": "9005 Sherbrooke Rue E",
                        "country": "CA",
                        "cross_street": "",
                        "formatted_address": "9005 Sherbrooke Rue E, Montr\u00e9al QC H1L 1C8",
                        "locality": "Montreal",
                        "postcode": "H1L 1C8",
                        "region": "QC"
                  },
                  "name": "Brasserie Sherbrooke",
                  "popularity": 0.8930616010598031,
                  "price": 2
            },
            {
                  "distance": 775,
                  "location": {
                        "address": "9100 Sherbrooke Rue E",
                        "country": "CA",
                        "cross_street": "",
                        "formatted_address": "9100 Sherbrooke Rue E, Montreal QC",
                        "locality": "Montreal",
                        "region": "QC"
                  },
                  "name": "Restaurant le Petit Quebec",
                  "popularity": 0.9605412566237699,
                  "price": 1
            },
            {
                  "distance": 851,
                  "location": {
                        "address": "9194 Sherbrooke Rue E",
                        "country": "CA",
                        "cross_street": "",
                        "formatted_address": "9194 Sherbrooke Rue E, Montr\u00e9al QC H1L 1E5",
                        "locality": "Montreal",
                        "postcode": "H1L 1E5",
                        "region": "QC"
                  },
                  "name": "Cari Masala",
                  "popularity": 0.8693934519303558,
                  "price": 2
            },
            {
                  "distance": 989,
                  "location": {
                        "address": "9198 Sherbrooke Rue E",
                        "country": "CA",
                        "cross_street": "",
                        "formatted_address": "9198 Sherbrooke Rue E, Montr\u00e9al QC H1L 1E5",
                        "locality": "Montreal",
                        "postcode": "H1L 1E5",
                        "region": "QC"
                  },
                  "name": "Caf\u00e9 Sunset",
                  "popularity": 0.5367264383043149,
                  "price": 1
            },
            {
                  "distance": 2879,
                  "location": {
                        "address": "9020 Sherbrooke Rue E",
                        "country": "CA",
                        "cross_street": "Desmarteau",
                        "formatted_address": "9020 Sherbrooke Rue E (Desmarteau), Montr\u00e9al QC H1L 1C9",
                        "locality": "Montreal",
                        "postcode": "H1L 1C9",
                        "region": "QC"
                  },
                  "name": "Pizza 2 Pour 1",
                  "popularity": 0.14915310370931112,
                  "price": 1
            },
            {
                  "distance": 87,
                  "location": {
                        "address": "2864 des Ormeaux Rue",
                        "country": "CA",
                        "formatted_address": "2864 des Ormeaux Rue, Montreal QC H1L 4X8",
                        "locality": "Montreal",
                        "postcode": "H1L 4X8",
                        "region": "QC"
                  },
                  "name": "Restaurant le des Ormeaux"
            },
            {
                  "distance": 238,
                  "location": {
                        "address": "2557 Pierre-Tetreault Rue",
                        "country": "CA",
                        "formatted_address": "2557 Pierre-Tetreault Rue, Montreal QC H1L 4Z3",
                        "locality": "Montreal",
                        "postcode": "H1L 4Z3",
                        "region": "QC"
                  },
                  "name": "La Caba\u00f1a"
            },
            {
                  "distance": 374,
                  "location": {
                        "address": "8582 Hochelaga Rue",
                        "country": "CA",
                        "formatted_address": "8582 Hochelaga Rue, Montreal QC H1L 2M3",
                        "locality": "Montreal",
                        "postcode": "H1L 2M3",
                        "region": "QC"
                  },
                  "name": "Cafe d'Abord"
            },
            {
                  "distance": 388,
                  "location": {
                        "address": "8726 Hochelaga St",
                        "country": "CA",
                        "formatted_address": "8726 Hochelaga St, Montreal QC H1L 2M7",
                        "locality": "Montreal",
                        "postcode": "H1L 2M7",
                        "region": "QC"
                  },
                  "name": "La Diperie"
            },
            {
                  "distance": 392,
                  "location": {
                        "address": "8720 Hochelaga Rue",
                        "country": "CA",
                        "formatted_address": "8720 Hochelaga Rue, Montreal QC H1L 2M7",
                        "locality": "Montreal",
                        "postcode": "H1L 2M7",
                        "region": "QC"
                  },
                  "name": "Au Go\u00fbt Tropical"
            },
            {
                  "distance": 484,
                  "location": {
                        "address": "8874 Hochelaga Rue",
                        "country": "CA",
                        "formatted_address": "8874 Hochelaga Rue, Montreal QC H1L 2N2",
                        "locality": "Montreal",
                        "postcode": "H1L 2N2",
                        "region": "QC"
                  },
                  "name": "\u00d4 Poids Vert"
            },
            {
                  "distance": 498,
                  "location": {
                        "address": "8933 Hochelaga Rue",
                        "country": "CA",
                        "formatted_address": "8933 Hochelaga Rue, Montreal QC H1L 2N4",
                        "locality": "Montreal",
                        "postcode": "H1L 2N4",
                        "region": "QC"
                  },
                  "name": "Pub Romana"
            },
            {
                  "distance": 505,
                  "location": {
                        "address": "2269 des Ormeaux Rue",
                        "country": "CA",
                        "formatted_address": "2269 des Ormeaux Rue, Montreal QC H1L 4X2",
                        "locality": "Montreal",
                        "postcode": "H1L 4X2",
                        "region": "QC"
                  },
                  "name": "Bar des Ormeaux"
            },
            {
                  "distance": 557,
                  "location": {
                        "address": "8655 Sherbrooke Rue E",
                        "country": "CA",
                        "formatted_address": "8655 Sherbrooke Rue E, Montreal QC H1L 1B8",
                        "locality": "Montreal",
                        "postcode": "H1L 1B8",
                        "region": "QC"
                  },
                  "name": "Scores - Montr\u00e9al"
            },
            {
                  "distance": 558,
                  "location": {
                        "address": "8715 Est Sherbrooke",
                        "country": "CA",
                        "formatted_address": "8715 Est Sherbrooke, Montreal QC H1K 1C1",
                        "locality": "Montreal",
                        "postcode": "H1K 1C1",
                        "region": "QC"
                  },
                  "name": "Fusion Viet Asie"
            },
            {
                  "distance": 573,
                  "location": {
                        "address": "9007 Hochelaga Rue",
                        "country": "CA",
                        "formatted_address": "9007 Hochelaga Rue, Montreal QC H1L 2N6",
                        "locality": "Montreal",
                        "postcode": "H1L 2N6",
                        "region": "QC"
                  },
                  "name": "Restaurant Malaythai"
            },
            {
                  "distance": 666,
                  "location": {
                        "address": "9191 rue de Marseille",
                        "country": "CA",
                        "formatted_address": "9191 rue de Marseille, Montreal QC H1L 1T2",
                        "locality": "Montreal",
                        "postcode": "H1L 1T2",
                        "region": "QC"
                  },
                  "name": "Restaurant le Quartier"
            },
            {
                  "distance": 685,
                  "location": {
                        "address": "9191 rue de Marseille",
                        "country": "CA",
                        "formatted_address": "9191 rue de Marseille, Montreal QC H1L 1T2",
                        "locality": "Montreal",
                        "postcode": "H1L 1T2",
                        "region": "QC"
                  },
                  "name": "Le Gout Secret des Caraibes"
            },
            {
                  "distance": 723,
                  "location": {
                        "address": "9005 Sherbrooke Rue E",
                        "country": "CA",
                        "formatted_address": "9005 Sherbrooke Rue E, Montreal QC H1L 1C8",
                        "locality": "Montreal",
                        "postcode": "H1L 1C8",
                        "region": "QC"
                  },
                  "name": "Bar Salon Sherbrooke Est Enr"
            }
      ],
      "context": {
            "geo_bounds": {
                  "circle": {
                        "center": {
                              "latitude": 45.60191332,
                              "longitude": -73.52441847
                        },
                        "radius": 1000
                  }
            }
      }
}