{
      "results": [
            {
                  "distance": 593,
                  "location": {
                        "address": "5070 Levesque Blvd E",
                        "country": "CA",
                        "cross_street": "",
                        "formatted_address": "5070 Levesque Blvd E, Laval QC H7C 1N1",
                        "locality": "Laval",
                        "postcode": "H7C 1N1",
                        "region": "QC"
                  },
                  "name": "Restaurant le Vieux Four de Laval",
                  "popularity": 0.9533160760510577,
                  "price": 2,
                  "rating": 7.1
            },
            {
                  "distance": 801,
                  "location": {
                        "address": "5601 Leger Blvd",
                        "country": "CA",
                        "cross_street": "",
                        "formatted_address": "5601 Leger Blvd, Montr\u00e9al QC H1G 1K4",
                        "locality": "Montreal",
                        "postcode": "H1G 1K4",
                        "region": "QC"
                  },
                  "name": "KFC",
                  "popularity": 0.8959476722180166,
                  "price": 1,
                  "rating": 6.4,
                  "store_id": "1245"
            },
            {
                  "distance": 418,
                  "location": {
                        "address": "4972 Leger Blvd",
                        "country": "CA",
                        "cross_street": "",
                        "formatted_address": "4972 Leger Blvd, Montr\u00e9al QC H1G 1J6",
                        "locality": "Montreal",
                        "postcode": "H1G 1J6",
                        "region": "QC"
                  },
                  "name": "Restaurant Mamina",
                  "popularity": 0.9608961014383043,
                  "price": 2
            },
            {
                  "distance": 625,
                  "location": {
                        "address": "5115 Levesque Blvd E",
                        "country": "CA",
                        "cross_street": "",
                        "formatted_address": "5115 Levesque Blvd E, Laval QC H7C 1N3",
                        "locality": "Laval",
                        "postcode": "H7C 1N3",
                        "region": "QC"
                  },
                  "name": "Restaurant Bar Fusion",
                  "popularity": 0.0442738552173525,
                  "price": 2
            },
            {
                  "distance": 862,
                  "location": {
                        "address": "5195 Henri-Bourassa Blvd E",
                        "country": "CA",
                        "cross_street": "",
                        "formatted_address": "5195 Henri-Bourassa Blvd E, Montr\u00e9al QC H1G 2S7",
                        "locality": "Montreal",
                        "postcode": "H1G 2S7",
                        "region": "QC"
                  },
                  "name": "Queues de Castor",
                  "popularity": 0.2775359576078728,
                  "price": 1
            },
            {
                  "distance": 1119,
                  "location": {
                        "address": "4500 Henri-Bourassa Blvd E",
                        "country": "CA",
                        "cross_street": "",
                        "formatted_address": "4500 Henri-Bourassa Blvd E, Montreal-Nord QC H1H 0A6",
                        "locality": "Montr\u00e9al-Nord",
                        "postcode": "H1H 0A6",
                        "region": "QC"
                  },
                  "name": "Restaurant Max Rupp",
                  "popularity": 0.9922643830431491,
                  "price": 3
            },
            {
                  "distance": 637,
                  "location": {
                        "address": "5115 Levesque Blvd E",
                        "country": "CA",
                        "formatted_address": "5115 Levesque Blvd E, Laval QC H7C 1N3",
                        "locality": "Laval",
                        "postcode": "H7C 1N3",
                        "region": "QC"
                  },
                  "name": "Restaurant Bar Citta"
            },
            {
                  "distance": 746,
                  "location": {
                        "address": "5237 Levesque Blvd E",
                        "country": "CA",
                        "formatted_address": "5237 Levesque Blvd E, Laval QC H7C 1N4",
                        "locality": "Laval",
                        "postcode": "H7C 1N4",
                        "region": "QC"
                  },
                  "name": "Restaurant Uptown"
            },
            {
                  "distance": 747,
                  "location": {
                        "address": "5237 Levesque Blvd E",
                        "country": "CA",
                        "formatted_address": "5237 Levesque Blvd E, Laval QC H7C 1N4",
                        "locality": "Laval",
                        "postcode": "H7C 1N4",
                        "region": "QC"
                  },
                  "name": "D\u00e9men-Ciel Resto-Boutique"
            },
            {
                  "distance": 784,
                  "location": {
                        "address": "5271 Levesque Blvd E",
                        "country": "CA",
                        "formatted_address": "5271 Levesque Blvd E, Laval QC H7C 1N5",
                        "locality": "Laval",
                        "postcode": "H7C 1N5",
                        "region": "QC"
                  },
                  "name": "Restaurant la Bi-Coq Au Soleil"
            },
            {
                  "distance": 812,
                  "location": {
                        "address": "5047 Henri-Bourassa Blvd E",
                        "country": "CA",
                        "formatted_address": "5047 Henri-Bourassa Blvd E, Montreal-Nord QC H1G 2S1",
                        "locality": "Montreal-Nord",
                        "postcode": "H1G 2S1",
                        "region": "QC"
                  },
                  "name": "Restaurant Nouveau Kum Mon Inc"
            },
            {
                  "distance": 871,
                  "location": {
                        "address": "5608 Leger Blvd",
                        "country": "CA",
                        "formatted_address": "5608 Leger Blvd, Montreal-Nord QC H1G 1K3",
                        "locality": "Montreal-Nord",
                        "postcode": "H1G 1K3",
                        "region": "QC"
                  },
                  "name": "Rolando Resto Bar Sportif"
            },
            {
                  "distance": 933,
                  "location": {
                        "address": "5158 Henri-Bourassa Blvd E",
                        "country": "CA",
                        "formatted_address": "5158 Henri-Bourassa Blvd E, Montreal-Nord QC H1G 2S6",
                        "locality": "Montreal-Nord",
                        "postcode": "H1G 2S6",
                        "region": "QC"
                  },
                  "name": "Phat Grill Resto-Bar"
            },
            {
                  "distance": 941,
                  "location": {
                        "address": "5158 Henri-Bourassa Blvd E",
                        "country": "CA",
                        "formatted_address": "5158 Henri-Bourassa Blvd E, Montreal-Nord QC",
                        "locality": "Montreal-Nord",
                        "region": "QC"
                  },
                  "name": "Restaurant Trouvaille Creole"
            },
            {
                  "distance": 953,
                  "location": {
                        "address": "11442 Lamoureux Ave",
                        "country": "CA",
                        "formatted_address": "11442 Lamoureux Ave, Montreal-Nord QC H1G 5M2",
                        "locality": "Montreal-Nord",
                        "postcode": "H1G 5M2",
                        "region": "QC"
                  },
                  "name": "Faivre Italian Restaurant"
            }
      ],
      "context": {
            "geo_bounds": {
                  "circle": {
                        "center": {
                              "latitude": 45.60835821,
                              "longitude": -73.63850623
                        },
                        "radius": 1000
                  }
            }
      }
}