{
      "results": [
            {
                  "distance": 913,
                  "location": {
                        "address": "756 Saint-Roch Rue",
                        "country": "CA",
                        "cross_street": "",
                        "formatted_address": "756 Saint-Roch Rue, Montr\u00e9al QC H3N 1L3",
                        "locality": "Montreal",
                        "postcode": "H3N 1L3",
                        "region": "QC"
                  },
                  "name": "Afroditi Bakery",
                  "popularity": 0.8546792202876609,
                  "price": 1,
                  "rating": 8.8
            },
            {
                  "distance": 584,
                  "location": {
                        "address": "1001 Jean-Talon Rue O",
                        "country": "CA",
                        "cross_street": "at Birnam",
                        "formatted_address": "1001 Jean-Talon Rue O (at Birnam), Montr\u00e9al QC H3N 1T2",
                        "locality": "Montreal",
                        "postcode": "H3N 1T2",
                        "region": "QC"
                  },
                  "name": "Restaurant Bombay Mahal",
                  "popularity": 0.9612864307342922,
                  "price": 2,
                  "rating": 8.6
            },
            {
                  "distance": 943,
                  "location": {
                        "address": "880 Ball Ave",
                        "country": "CA",
                        "cross_street": "Wiseman",
                        "formatted_address": "880 Ball Ave (Wiseman), Montr\u00e9al QC H3N 1J7",
                        "locality": "Montreal",
                        "postcode": "H3N 1J7",
                        "region": "QC"
                  },
                  "name": "Marven's Restaurant",
                  "popularity": 0.9909514572293717,
                  "price": 2,
                  "rating": 8.6
            },
            {
                  "distance": 925,
                  "location": {
                        "address": "654 Jean-Talon Rue O",
                        "country": "CA",
                        "cross_street": "",
                        "formatted_address": "654 Jean-Talon Rue O, Montr\u00e9al QC H3N 1R7",
                        "locality": "Montreal",
                        "postcode": "H3N 1R7",
                        "region": "QC"
                  },
                  "name": "Restaurant Village Grecque Inc",
                  "popularity": 0.9827663701741105,
                  "price": 2,
                  "rating": 8.1
            },
            {
                  "distance": 603,
                  "location": {
                        "address": "996 Jean-Talon Rue O",
                        "country": "CA",
                        "cross_street": "Brinam",
                        "formatted_address": "996 Jean-Talon Rue O (Brinam), Montr\u00e9al QC H3N 1S8",
                        "locality": "Montreal",
                        "postcode": "H3N 1S8",
                        "region": "QC"
                  },
                  "name": "Indian Curry House",
                  "popularity": 0.9859244890234671,
                  "price": 1,
                  "rating": 8.1
            },
            {
                  "distance": 933,
                  "location": {
                        "address": "689 Saint-Roch Rue",
                        "country": "CA",
                        "cross_street": "",
                        "formatted_address": "689 Saint-Roch Rue, Montr\u00e9al QC H3N 1L2",
                        "locality": "Montreal",
                        "postcode": "H3N 1L2",
                        "region": "QC"
                  },
                  "name": "Efes Patisseries",
                  "popularity": 0.8594932816048448,
                  "price": 1,
                  "rating": 8.0
            },
            {
                  "distance": 665,
                  "location": {
                        "address": "920 Jean-Talon Rue O",
                        "country": "CA",
                        "cross_street": "",
                        "formatted_address": "920 Jean-Talon Rue O, Montr\u00e9al QC H3N 1S6",
                        "locality": "Montreal",
                        "postcode": "H3N 1S6",
                        "region": "QC"
                  },
                  "name": "Punjab Palace",
                  "popularity": 0.9633563588190764,
                  "price": 2,
                  "rating": 7.8
            },
            {
                  "distance": 465,
                  "location": {
                        "address": "1248 Beaumont Ave",
                        "country": "CA",
                        "formatted_address": "1248 Beaumont Ave, Montr\u00e9al QC H3P 3E5",
                        "locality": "Montreal",
                        "postcode": "H3P 3E5",
                        "region": "QC"
                  },
                  "name": "Sushi Plus",
                  "popularity": 0.956247634367903,
                  "price": 2,
                  "rating": 7.7
            },
            {
                  "distance": 609,
                  "location": {
                        "address": "989 Jean-Talon Rue O",
                        "country": "CA",
                        "cross_street": "Birnam",
                        "formatted_address": "989 Jean-Talon Rue O (Birnam), Montr\u00e9al QC H3N 1S9",
                        "locality": "Montreal",
                        "postcode": "H3N 1S9",
                        "region": "QC"
                  },
                  "name": "Chand Palace",
                  "popularity": 0.9685134367903103,
                  "price": 2,
                  "rating": 7.7
            },
            {
                  "distance": 816,
                  "location": {
                        "address": "768 Jean-Talon Rue O",
                        "country": "CA",
                        "cross_street": "entre Champagneur & Outremont",
                        "formatted_address": "768 Jean-Talon Rue O (entre Champagneur & Outremont), Montr\u00e9al QC H3N 1S2",
                        "locality": "Montreal",
                        "postcode": "H3N 1S2",
                        "region": "QC"
                  },
                  "name": "786 Halal Restaurant",
                  "popularity": 0.9251395722937169,
                  "price": 2,
                  "rating": 7.5
            },
            {
                  "distance": 451,
                  "location": {
                        "address": "114 Dresden Ave",
                        "country": "CA",
                        "cross_street": "coin Jean-Talon",
                        "formatted_address": "114 Dresden Ave (coin Jean-Talon), Montr\u00e9al QC H3P 2B6",
                        "locality": "Montreal",
                        "postcode": "H3P 2B6",
                        "region": "QC"
                  },
                  "name": "Poissonnerie la Sirene la Mer",
                  "popularity": 0.9898987509462528,
                  "price": 3,
                  "rating": 7.4
            },
            {
                  "distance": 551,
                  "location": {
                        "address": "1024 Jean Talon Rue W",
                        "country": "CA",
                        "cross_street": "coin De l'Acadie",
                        "formatted_address": "1024 Jean Talon Rue W (coin De l'Acadie), Montr\u00e9al QC H3N 1T1",
                        "locality": "Montreal",
                        "postcode": "H3N 1T1",
                        "region": "QC"
                  },
                  "name": "Flavours of India",
                  "popularity": 0.9423377176381529,
                  "price": 2,
                  "rating": 7.4
            },
            {
                  "distance": 961,
                  "location": {
                        "address": "679 Saint-Roch Rue",
                        "country": "CA",
                        "cross_street": "Bloomfield",
                        "formatted_address": "679 Saint-Roch Rue (Bloomfield), Montr\u00e9al QC H3N 1L2",
                        "locality": "Montreal",
                        "postcode": "H3N 1L2",
                        "region": "QC"
                  },
                  "name": "Tripoli Restaurant",
                  "popularity": 0.860676097653293,
                  "price": 2,
                  "rating": 7.2
            },
            {
                  "distance": 700,
                  "location": {
                        "address": "893 Ogilvy Ave",
                        "country": "CA",
                        "cross_street": "Wiseman",
                        "formatted_address": "893 Ogilvy Ave (Wiseman), Montr\u00e9al QC H3N 1P2",
                        "locality": "Montreal",
                        "postcode": "H3N 1P2",
                        "region": "QC"
                  },
                  "name": "Bar \u00e0 Gaufre",
                  "popularity": 0.8874668811506434,
                  "price": 1,
                  "rating": 6.8
            },
            {
                  "distance": 348,
                  "location": {
                        "address": "1300 Beaumont Ave",
                        "country": "CA",
                        "formatted_address": "1300 Beaumont Ave, Montr\u00e9al QC H3P 3E5",
                        "locality": "Montreal",
                        "postcode": "H3P 3E5",
                        "region": "QC"
                  },
                  "name": "McDonald's",
                  "popularity": 0.9923708364875095,
                  "price": 1,
                  "rating": 4.8,
                  "store_id": "5095"
            },
            {
                  "distance": 192,
                  "location": {
                        "address": "250 Graham Blvd",
                        "country": "CA",
                        "cross_street": "",
                        "formatted_address": "250 Graham Blvd, Mont-Royal QC H3P 2C5",
                        "locality": "Mont-Royal",
                        "postcode": "H3P 2C5",
                        "region": "QC"
                  },
                  "name": "Domino's Pizza",
                  "popularity": 0.9223954390613172,
                  "price": 1,
                  "store_id": "10650"
            },
            {
                  "distance": 583,
                  "location": {
                        "address": "1100 Beaumont Ave",
                        "country": "CA",
                        "cross_street": "Acadie",
                        "formatted_address": "1100 Beaumont Ave (Acadie), Montr\u00e9al QC H3P 3H5",
                        "locality": "Montreal",
                        "postcode": "H3P 3H5",
                        "region": "QC"
                  },
                  "name": "Cartier Caf\u00e9 BIstro",
                  "popularity": 0.9433076267978804,
                  "price": 1
            },
            {
                  "distance": 620,
                  "location": {
                        "address": "975 Jean-Talon Rue O",
                        "country": "CA",
                        "cross_street": "",
                        "formatted_address": "975 Jean-Talon Rue O, Montr\u00e9al QC H3N 1S9",
                        "locality": "Montreal",
                        "postcode": "H3N 1S9",
                        "region": "QC"
                  },
                  "name": "Punjab Sweet",
                  "popularity": 0.9590154239212718,
                  "price": 2
            },
            {
                  "distance": 650,
                  "location": {
                        "address": "931 Jean Talon Rue W",
                        "country": "CA",
                        "cross_street": "Stuart",
                        "formatted_address": "931 Jean Talon Rue W (Stuart), Montr\u00e9al QC H3N 1S9",
                        "locality": "Montreal",
                        "postcode": "H3N 1S9",
                        "region": "QC"
                  },
                  "name": "Cafe C Central",
                  "popularity": 0.20640140045420136,
                  "price": 1
            },
            {
                  "distance": 694,
                  "location": {
                        "address": "901 Jean-Talon Rue O",
                        "country": "CA",
                        "formatted_address": "901 Jean-Talon Rue O, Montr\u00e9al QC H3N 1S7",
                        "locality": "Montreal",
                        "postcode": "H3N 1S7",
                        "region": "QC"
                  },
                  "name": "Miss Jean Talon Restaurant",
                  "popularity": 0.8740300908402725,
                  "price": 2
            },
            {
                  "distance": 717,
                  "location": {
                        "address": "880 Jean-Talon Rue O",
                        "country": "CA",
                        "cross_street": "Wiseman",
                        "formatted_address": "880 Jean-Talon Rue O (Wiseman), Montr\u00e9al QC H3N 1S6",
                        "locality": "Montreal",
                        "postcode": "H3N 1S6",
                        "region": "QC"
                  },
                  "name": "Cozmos Caf\u00e9 Bar",
                  "popularity": 0.9895912187736563,
                  "price": 2
            },
            {
                  "distance": 747,
                  "location": {
                        "address": "950 Beaumont Ave",
                        "address_extended": "Suite 105",
                        "country": "CA",
                        "cross_street": "L'Acadie Boulevard",
                        "formatted_address": "950 Beaumont Ave (L'Acadie Boulevard), Montr\u00e9al QC H3N 1V5",
                        "locality": "Montreal",
                        "postcode": "H3N 1V5",
                        "region": "QC"
                  },
                  "name": "Beau Mont",
                  "popularity": 0.9565433383800152,
                  "price": 3
            },
            {
                  "distance": 762,
                  "location": {
                        "address": "808 Jean-Talon Rue O",
                        "country": "CA",
                        "cross_street": "",
                        "formatted_address": "808 Jean-Talon Rue O, Montr\u00e9al QC H3N 1S4",
                        "locality": "Montreal",
                        "postcode": "H3N 1S4",
                        "region": "QC"
                  },
                  "name": "Buffet Maharani",
                  "popularity": 0.9032811317183952,
                  "price": 2
            },
            {
                  "distance": 800,
                  "location": {
                        "address": "895 Jean-Talon Rue O",
                        "country": "CA",
                        "cross_street": "d'Outremont",
                        "formatted_address": "895 Jean-Talon Rue O (d'Outremont), Montr\u00e9al QC H3N 1S7",
                        "locality": "Montreal",
                        "postcode": "H3N 1S7",
                        "region": "QC"
                  },
                  "name": "Dosa Pointe",
                  "popularity": 0.9385645344436033
            },
            {
                  "distance": 903,
                  "location": {
                        "address": "670 Jean-Talon Rue O",
                        "country": "CA",
                        "cross_street": "",
                        "formatted_address": "670 Jean-Talon Rue O, Montr\u00e9al QC",
                        "locality": "Montreal",
                        "region": "QC"
                  },
                  "name": "Salateen",
                  "popularity": 0.5311080620741863,
                  "price": 2
            },
            {
                  "distance": 919,
                  "location": {
                        "country": "CA",
                        "cross_street": "",
                        "formatted_address": ""
                  },
                  "name": "Ha\u00fcs of Gyros",
                  "popularity": 0.3711203633610901,
                  "price": 2
            },
            {
                  "distance": 936,
                  "location": {
                        "address": "690 Saint-Roch Rue",
                        "country": "CA",
                        "cross_street": "Champagneur",
                        "formatted_address": "690 Saint-Roch Rue (Champagneur), Montr\u00e9al QC H3N 1L1",
                        "locality": "Montreal",
                        "postcode": "H3N 1L1",
                        "region": "QC"
                  },
                  "name": "CaffeNeo",
                  "popularity": 0.9985687925813778,
                  "price": 1
            },
            {
                  "distance": 1128,
                  "location": {
                        "address": "542 Ogilvy Ave",
                        "country": "CA",
                        "cross_street": "",
                        "formatted_address": "542 Ogilvy Ave, Montr\u00e9al QC H3N 1M8",
                        "locality": "Montreal",
                        "postcode": "H3N 1M8",
                        "region": "QC"
                  },
                  "name": "Picadilly Bakery & Pastry Shop",
                  "popularity": 0.9722274791824376,
                  "price": 1
            },
            {
                  "distance": 191,
                  "location": {
                        "address": "250 Graham Blvd",
                        "country": "CA",
                        "formatted_address": "250 Graham Blvd, Mont-Royal QC H3P 2C5",
                        "locality": "Mont-Royal",
                        "postcode": "H3P 2C5",
                        "region": "QC"
                  },
                  "name": "Pizza Molito"
            },
            {
                  "distance": 191,
                  "location": {
                        "address": "246 Graham Blvd",
                        "country": "CA",
                        "formatted_address": "246 Graham Blvd, Mont-Royal QC H3P 2C5",
                        "locality": "Mont-Royal",
                        "postcode": "H3P 2C5",
                        "region": "QC"
                  },
                  "name": "Dagwoods Sandwichs et Salades"
            },
            {
                  "distance": 450,
                  "location": {
                        "address": "1244 Beaumont Ave",
                        "country": "CA",
                        "formatted_address": "1244 Beaumont Ave, Mont-Royal QC H3P 3E5",
                        "locality": "Mont-Royal",
                        "postcode": "H3P 3E5",
                        "region": "QC"
                  },
                  "name": "Cage Aux Sports"
            },
            {
                  "distance": 568,
                  "location": {
                        "address": "1016 Jean-Talon Rue O",
                        "country": "CA",
                        "formatted_address": "1016 Jean-Talon Rue O, Montreal QC H3N 1T1",
                        "locality": "Montreal",
                        "postcode": "H3N 1T1",
                        "region": "QC"
                  },
                  "name": "Ram Sweet Shop"
            },
            {
                  "distance": 575,
                  "location": {
                        "address": "1010 Jean-Talon Rue O",
                        "country": "CA",
                        "formatted_address": "1010 Jean-Talon Rue O, Montreal QC H3N 1T1",
                        "locality": "Montreal",
                        "postcode": "H3N 1T1",
                        "region": "QC"
                  },
                  "name": "Restaurant et Bar Delhi Bombay"
            },
            {
                  "distance": 625,
                  "location": {
                        "address": "991 Ogilvy Ave",
                        "country": "CA",
                        "formatted_address": "991 Ogilvy Ave, Montreal QC H3N 1P3",
                        "locality": "Montreal",
                        "postcode": "H3N 1P3",
                        "region": "QC"
                  },
                  "name": "Taverne Portara"
            },
            {
                  "distance": 688,
                  "location": {
                        "address": "893 Ogilvy Ave",
                        "country": "CA",
                        "formatted_address": "893 Ogilvy Ave, Montreal QC H3N 1P2",
                        "locality": "Montreal",
                        "postcode": "H3N 1P2",
                        "region": "QC"
                  },
                  "name": "Cafe Frappe"
            }
      ],
      "context": {
            "geo_bounds": {
                  "circle": {
                        "center": {
                              "latitude": 45.52022241,
                              "longitude": -73.62985611
                        },
                        "radius": 1000
                  }
            }
      }
}