{
      "results": [
            {
                  "distance": 657,
                  "location": {
                        "address": "3353 Masson Rue",
                        "country": "CA",
                        "cross_street": "",
                        "formatted_address": "3353 Masson Rue, Montr\u00e9al QC H1X 1R5",
                        "locality": "Montreal",
                        "postcode": "H1X 1R5",
                        "region": "QC"
                  },
                  "name": "Maesmi",
                  "popularity": 0.9623154806964421,
                  "price": 1,
                  "rating": 8.9
            },
            {
                  "distance": 919,
                  "location": {
                        "address": "3119 Masson Rue",
                        "country": "CA",
                        "cross_street": "9e av.",
                        "formatted_address": "3119 Masson Rue (9e av.), Montr\u00e9al QC H1Y 1X9",
                        "locality": "Montreal",
                        "postcode": "H1Y 1X9",
                        "region": "QC"
                  },
                  "name": "Cafe Lezard",
                  "popularity": 0.9094317751703255,
                  "price": 2,
                  "rating": 8.5
            },
            {
                  "distance": 821,
                  "location": {
                        "address": "3188 Masson Rue",
                        "country": "CA",
                        "cross_street": "coin 10e avenue",
                        "formatted_address": "3188 Masson Rue (coin 10e avenue), Montr\u00e9al QC H1Y 1Y1",
                        "locality": "Montreal",
                        "postcode": "H1Y 1Y1",
                        "region": "QC"
                  },
                  "name": "La Succursale",
                  "popularity": 0.9643262679788039,
                  "price": 2,
                  "rating": 8.2
            },
            {
                  "distance": 978,
                  "location": {
                        "address": "3033 Masson Rue",
                        "country": "CA",
                        "cross_street": "",
                        "formatted_address": "3033 Masson Rue, Montreal QC H1Y 1X7",
                        "locality": "Montreal",
                        "postcode": "H1Y 1X7",
                        "region": "QC"
                  },
                  "name": "Tori Tora Sushi",
                  "popularity": 0.8646030469341408,
                  "price": 2,
                  "rating": 7.7
            },
            {
                  "distance": 881,
                  "location": {
                        "address": "5405 9e Ave",
                        "country": "CA",
                        "cross_street": "coin Masson",
                        "formatted_address": "5405 9e Ave (coin Masson), Montr\u00e9al QC H1Y 2J7",
                        "locality": "Montreal",
                        "postcode": "H1Y 2J7",
                        "region": "QC"
                  },
                  "name": "Frite Alors",
                  "popularity": 0.9371096707040121,
                  "price": 1,
                  "rating": 7.5
            },
            {
                  "distance": 164,
                  "location": {
                        "address": "4028 Masson Rue",
                        "country": "CA",
                        "cross_street": "Btw Jean-d'Arc & Pie-IX",
                        "formatted_address": "4028 Masson Rue (Btw Jean-d'Arc & Pie-IX), Montr\u00e9al QC H1X 1T8",
                        "locality": "Montreal",
                        "postcode": "H1X 1T8",
                        "region": "QC"
                  },
                  "name": "Restaurant Chez la M\u00e8re",
                  "popularity": 0.9612036336109009,
                  "price": 1,
                  "rating": 7.4
            },
            {
                  "distance": 1000,
                  "location": {
                        "address": "4101 Sherbrooke Rue E",
                        "country": "CA",
                        "cross_street": "",
                        "formatted_address": "4101 Sherbrooke Rue E, Montr\u00e9al QC H1X 2B2",
                        "locality": "Montreal",
                        "postcode": "H1X 2B2",
                        "region": "QC"
                  },
                  "name": "Restaurant du Jardin Botanique",
                  "popularity": 0.9286880204390613,
                  "price": 2,
                  "rating": 7.4
            },
            {
                  "distance": 995,
                  "location": {
                        "address": "3014 Masson Rue",
                        "country": "CA",
                        "cross_street": "coin 7e avenue",
                        "formatted_address": "3014 Masson Rue (coin 7e avenue), Montr\u00e9al QC H1Y 1X6",
                        "locality": "Montreal",
                        "postcode": "H1Y 1X6",
                        "region": "QC"
                  },
                  "name": "Chez Baptiste Sur Masson",
                  "popularity": 0.9593347842543528,
                  "price": 2,
                  "rating": 7.3
            },
            {
                  "distance": 965,
                  "location": {
                        "address": "4023 Beaubien Rue E",
                        "country": "CA",
                        "formatted_address": "4023 Beaubien Rue E, Montr\u00e9al QC H1X 1H7",
                        "locality": "Montreal",
                        "postcode": "H1X 1H7",
                        "region": "QC"
                  },
                  "name": "Beaubien Deli",
                  "popularity": 0.9816072104466314,
                  "price": 2,
                  "rating": 7.2
            },
            {
                  "distance": 1000,
                  "location": {
                        "address": "3975 Beaubien Rue E",
                        "address_extended": "Magasins Couche Tard C-Store",
                        "country": "CA",
                        "cross_street": "21e Avenue",
                        "formatted_address": "3975 Beaubien Rue E (21e Avenue), Montr\u00e9al QC H1X 1H5",
                        "locality": "Montreal",
                        "postcode": "H1X 1H5",
                        "region": "QC"
                  },
                  "name": "Subway",
                  "popularity": 0.8886496971990916,
                  "price": 1,
                  "rating": 6.2,
                  "store_id": "29727"
            },
            {
                  "distance": 790,
                  "location": {
                        "address": "3216 Masson St",
                        "country": "CA",
                        "cross_street": "coin 10e avenue",
                        "formatted_address": "3216 Masson St (coin 10e avenue), Montr\u00e9al QC H1Y 1Y3",
                        "locality": "Montreal",
                        "postcode": "H1Y 1Y3",
                        "region": "QC"
                  },
                  "name": "Subway",
                  "popularity": 0.8415381339894019,
                  "price": 1,
                  "rating": 6.1,
                  "store_id": "22453"
            },
            {
                  "distance": 737,
                  "location": {
                        "address": "3244 Masson Rue",
                        "country": "CA",
                        "cross_street": "int. St-Michel",
                        "formatted_address": "3244 Masson Rue (int. St-Michel), Montr\u00e9al QC H1Y 1Y3",
                        "locality": "Montreal",
                        "postcode": "H1Y 1Y3",
                        "region": "QC"
                  },
                  "name": "Juste Nouilles Inc",
                  "popularity": 0.8794355601816806,
                  "price": 2,
                  "rating": 5.6
            },
            {
                  "distance": 916,
                  "location": {
                        "address": "3255 Rosemont Blvd",
                        "country": "CA",
                        "formatted_address": "3255 Rosemont Blvd, Montr\u00e9al QC H1X 1K1",
                        "locality": "Montreal",
                        "postcode": "H1X 1K1",
                        "region": "QC"
                  },
                  "name": "Restaurant le Petit Quebec",
                  "popularity": 0.9626703255109765,
                  "price": 1,
                  "rating": 5.2
            },
            {
                  "distance": 173,
                  "location": {
                        "address": "3790 Masson Rue",
                        "country": "CA",
                        "cross_street": "",
                        "formatted_address": "3790 Masson Rue, Montr\u00e9al QC H1X 1S6",
                        "locality": "Montreal",
                        "postcode": "H1X 1S6",
                        "region": "QC"
                  },
                  "name": "Cafeopolis Bistro",
                  "popularity": 0.8884722747918243
            },
            {
                  "distance": 211,
                  "location": {
                        "address": "3756 Masson Rue",
                        "country": "CA",
                        "cross_street": "17eme avenue",
                        "formatted_address": "3756 Masson Rue (17eme avenue), Montr\u00e9al QC H1X 1S6",
                        "locality": "Montreal",
                        "postcode": "H1X 1S6",
                        "region": "QC"
                  },
                  "name": "La Tasse Rouge",
                  "popularity": 0.8086321915215746,
                  "price": 1
            },
            {
                  "distance": 211,
                  "location": {
                        "address": "3738 Masson Rue",
                        "country": "CA",
                        "cross_street": "17e",
                        "formatted_address": "3738 Masson Rue (17e), Montr\u00e9al QC H1X 1S6",
                        "locality": "Montreal",
                        "postcode": "H1X 1S6",
                        "region": "QC"
                  },
                  "name": "Les Plats Cuisin\u00e9s B.V.M",
                  "popularity": 0.37813446252838756,
                  "price": 1
            },
            {
                  "distance": 396,
                  "location": {
                        "address": "3560 Masson Rue",
                        "country": "CA",
                        "cross_street": "15e Ave",
                        "formatted_address": "3560 Masson Rue (15e Ave), Montr\u00e9al QC H1X 1R9",
                        "locality": "Montreal",
                        "postcode": "H1X 1R9",
                        "region": "QC"
                  },
                  "name": "Bar U-Turn",
                  "popularity": 0.8883776495079485,
                  "price": 2
            },
            {
                  "distance": 399,
                  "location": {
                        "address": "3641A Dandurand Rue",
                        "country": "CA",
                        "cross_street": "16e avenue",
                        "formatted_address": "3641A Dandurand Rue (16e avenue), Montreal QC H1X 1N5",
                        "locality": "Mont\u00e9r\u00e9gie",
                        "postcode": "H1X 1N5",
                        "region": "QC"
                  },
                  "name": "La Bo\u00eete \u00e0 Vins",
                  "popularity": 0.10760077592732778,
                  "price": 1
            },
            {
                  "distance": 549,
                  "location": {
                        "address": "4201 Rosemont Blvd",
                        "country": "CA",
                        "cross_street": "23e avenue",
                        "formatted_address": "4201 Rosemont Blvd (23e avenue), Montr\u00e9al QC H1T 2C6",
                        "locality": "Montreal",
                        "postcode": "H1T 2C6",
                        "region": "QC"
                  },
                  "name": "Aux Sept Bonheurs Restaurant",
                  "popularity": 0.8941497918243755,
                  "price": 1
            },
            {
                  "distance": 725,
                  "location": {
                        "address": "3251 Masson Rue",
                        "country": "CA",
                        "cross_street": "Coin boulevard Saint-Michel",
                        "formatted_address": "3251 Masson Rue (Coin boulevard Saint-Michel), Montr\u00e9al QC H1X 1R3",
                        "locality": "Montreal",
                        "postcode": "H1X 1R3",
                        "region": "QC"
                  },
                  "name": "Bar Monaco",
                  "popularity": 0.6515069076457229,
                  "price": 2
            },
            {
                  "distance": 747,
                  "location": {
                        "address": "3244 Masson Rue",
                        "country": "CA",
                        "cross_street": "",
                        "formatted_address": "3244 Masson Rue, Montr\u00e9al QC H1Y 1Y3",
                        "locality": "Montreal",
                        "postcode": "H1Y 1Y3",
                        "region": "QC"
                  },
                  "name": "A&W Restaurant",
                  "popularity": 0.9042273845571537,
                  "price": 1,
                  "store_id": "5903"
            },
            {
                  "distance": 787,
                  "location": {
                        "address": "3240 Dandurand Rue",
                        "country": "CA",
                        "cross_street": "coin St-Michel",
                        "formatted_address": "3240 Dandurand Rue (coin St-Michel), Montr\u00e9al QC H1Y 1V5",
                        "locality": "Montreal",
                        "postcode": "H1Y 1V5",
                        "region": "QC"
                  },
                  "name": "Gariepy & Fils Fins Gourmets",
                  "popularity": 0.9137372255866768
            },
            {
                  "distance": 885,
                  "location": {
                        "address": "3150 Masson Rue",
                        "country": "CA",
                        "cross_street": "coin 9e avenue",
                        "formatted_address": "3150 Masson Rue (coin 9e avenue), Montr\u00e9al QC H1Y 1Y1",
                        "locality": "Montreal",
                        "postcode": "H1Y 1Y1",
                        "region": "QC"
                  },
                  "name": "Restaurant Basha",
                  "popularity": 0.9222298448145344,
                  "price": 1
            },
            {
                  "distance": 893,
                  "location": {
                        "address": "3290 Rosemont Blvd",
                        "country": "CA",
                        "cross_street": "",
                        "formatted_address": "3290 Rosemont Blvd, Montr\u00e9al QC H1X 1K2",
                        "locality": "Montreal",
                        "postcode": "H1X 1K2",
                        "region": "QC"
                  },
                  "name": "Domino's Pizza",
                  "popularity": 0.9224545798637396,
                  "price": 1,
                  "store_id": "10709"
            },
            {
                  "distance": 903,
                  "location": {
                        "address": "3135 Masson Rue",
                        "country": "CA",
                        "cross_street": "",
                        "formatted_address": "3135 Masson Rue, Montr\u00e9al QC H1Y 1X9",
                        "locality": "Montreal",
                        "postcode": "H1Y 1X9",
                        "region": "QC"
                  },
                  "name": "Billy Buck",
                  "popularity": 0.30010408781226344,
                  "price": 1
            },
            {
                  "distance": 908,
                  "location": {
                        "address": "3127 Masson Rue",
                        "country": "CA",
                        "cross_street": "",
                        "formatted_address": "3127 Masson Rue, Montr\u00e9al QC H1Y 1X9",
                        "locality": "Montreal",
                        "postcode": "H1Y 1X9",
                        "region": "QC"
                  },
                  "name": "Mojito & Margarita",
                  "popularity": 0.880429125662377,
                  "price": 1
            },
            {
                  "distance": 965,
                  "location": {
                        "address": "3017 Masson Rue",
                        "country": "CA",
                        "cross_street": "",
                        "formatted_address": "3017 Masson Rue, Montr\u00e9al QC H1Y 1X7",
                        "locality": "Montreal",
                        "postcode": "H1Y 1X7",
                        "region": "QC"
                  },
                  "name": "Rose Ross",
                  "popularity": 0.931751514004542,
                  "price": 2
            },
            {
                  "distance": 969,
                  "location": {
                        "address": "3224 Rosemont Blvd",
                        "country": "CA",
                        "cross_street": "",
                        "formatted_address": "3224 Rosemont Blvd, Montr\u00e9al QC H1Y 1M7",
                        "locality": "Montreal",
                        "postcode": "H1Y 1M7",
                        "region": "QC"
                  },
                  "name": "Poulet 3 Pattes",
                  "popularity": 0.8786430734292203,
                  "price": 2
            },
            {
                  "distance": 974,
                  "location": {
                        "address": "3036 Masson Rue",
                        "country": "CA",
                        "cross_street": "",
                        "formatted_address": "3036 Masson Rue, Montr\u00e9al QC H1Y 1X6",
                        "locality": "Montreal",
                        "postcode": "H1Y 1X6",
                        "region": "QC"
                  },
                  "name": "Joyo Burger",
                  "popularity": 0.9241223504920515,
                  "price": 1
            },
            {
                  "distance": 1004,
                  "location": {
                        "address": "4111 Beaubien Rue E",
                        "country": "CA",
                        "cross_street": "",
                        "formatted_address": "4111 Beaubien Rue E, Montr\u00e9al QC H1T 1S3",
                        "locality": "Montreal",
                        "postcode": "H1T 1S3",
                        "region": "QC"
                  },
                  "name": "La Grotta del Mare",
                  "popularity": 0.30545041635124903,
                  "price": 2
            },
            {
                  "distance": 174,
                  "location": {
                        "address": "3775 Masson Rue",
                        "country": "CA",
                        "formatted_address": "3775 Masson Rue, Montreal QC H1X 1S7",
                        "locality": "Montreal",
                        "postcode": "H1X 1S7",
                        "region": "QC"
                  },
                  "name": "Banh Mi Ngon"
            },
            {
                  "distance": 194,
                  "location": {
                        "address": "3750 Masson Rue",
                        "country": "CA",
                        "formatted_address": "3750 Masson Rue, Montreal QC H1X 1S6",
                        "locality": "Montreal",
                        "postcode": "H1X 1S6",
                        "region": "QC"
                  },
                  "name": "Sr Vinho"
            },
            {
                  "distance": 438,
                  "location": {
                        "address": "3545 Masson Rue",
                        "country": "CA",
                        "formatted_address": "3545 Masson Rue, Montreal QC H1X 1S1",
                        "locality": "Montreal",
                        "postcode": "H1X 1S1",
                        "region": "QC"
                  },
                  "name": "John Knot"
            },
            {
                  "distance": 775,
                  "location": {
                        "address": "3218A Masson Rue",
                        "country": "CA",
                        "formatted_address": "3218A Masson Rue, Montreal QC H1Y 1Y3",
                        "locality": "Montreal",
                        "postcode": "H1Y 1Y3",
                        "region": "QC"
                  },
                  "name": "La Chocolaterie du Vieux Rosemont"
            },
            {
                  "distance": 830,
                  "location": {
                        "address": "3188 Masson Rue",
                        "country": "CA",
                        "formatted_address": "3188 Masson Rue, Montreal QC H1Y 1Y1",
                        "locality": "Montreal",
                        "postcode": "H1Y 1Y1",
                        "region": "QC"
                  },
                  "name": "Van Houtte Inc"
            }
      ],
      "context": {
            "geo_bounds": {
                  "circle": {
                        "center": {
                              "latitude": 45.557192,
                              "longitude": -73.569847
                        },
                        "radius": 1000
                  }
            }
      }
}