{
      "results": [
            {
                  "distance": 735,
                  "location": {
                        "address": "5884 Jean-Talon Rue E",
                        "country": "CA",
                        "cross_street": "",
                        "formatted_address": "5884 Jean-Talon Rue E, Montr\u00e9al QC H1S 1M2",
                        "locality": "Montreal",
                        "postcode": "H1S 1M2",
                        "region": "QC"
                  },
                  "name": "La Bella Italiana",
                  "popularity": 0.9815480696442089,
                  "price": 4,
                  "rating": 8.5
            },
            {
                  "distance": 1017,
                  "location": {
                        "address": "6400 Jean-Talon Rue E",
                        "country": "CA",
                        "cross_street": "Boul. Langelier",
                        "formatted_address": "6400 Jean-Talon Rue E (Boul. Langelier), Montr\u00e9al QC H1S 1M8",
                        "locality": "Montreal",
                        "postcode": "H1S 1M8",
                        "region": "QC"
                  },
                  "name": "Dejeuner Eggcetera",
                  "popularity": 0.906545704012112,
                  "price": 1,
                  "rating": 7.2
            },
            {
                  "distance": 900,
                  "location": {
                        "address": "6675 Jean-Talon Rue E",
                        "country": "CA",
                        "cross_street": "",
                        "formatted_address": "6675 Jean-Talon Rue E, Montr\u00e9al QC H1S 1N2",
                        "locality": "Montreal",
                        "postcode": "H1S 1N2",
                        "region": "QC"
                  },
                  "name": "R\u00f4tisserie Scores",
                  "popularity": 0.9697199091597275,
                  "price": 2,
                  "rating": 7.2,
                  "store_id": "SC_14"
            },
            {
                  "distance": 536,
                  "location": {
                        "address": "7265 Langelier Blvd",
                        "country": "CA",
                        "cross_street": "B\u00e9langer",
                        "formatted_address": "7265 Langelier Blvd (B\u00e9langer), Montr\u00e9al QC H1S 1V6",
                        "locality": "Montreal",
                        "postcode": "H1S 1V6",
                        "region": "QC"
                  },
                  "name": "L'Oeuf Dor\u00e9",
                  "popularity": 0.9489141748675246,
                  "price": 1,
                  "rating": 7.1
            },
            {
                  "distance": 637,
                  "location": {
                        "address": "6420 Beaulieu Rue",
                        "country": "CA",
                        "cross_street": "",
                        "formatted_address": "6420 Beaulieu Rue, Montr\u00e9al QC H4E 3G1",
                        "locality": "Montreal",
                        "postcode": "H4E 3G1",
                        "region": "QC"
                  },
                  "name": "KFC",
                  "popularity": 0.9768641180923543,
                  "price": 1,
                  "rating": 6.2,
                  "store_id": "1112"
            },
            {
                  "distance": 328,
                  "location": {
                        "address": "7090 Langelier Blvd",
                        "address_extended": "Marche Langelier",
                        "country": "CA",
                        "cross_street": "",
                        "formatted_address": "7090 Langelier Blvd, Montr\u00e9al QC H1S 2X6",
                        "locality": "Montreal",
                        "postcode": "H1S 2X6",
                        "region": "QC"
                  },
                  "name": "Starbucks",
                  "popularity": 0.993908497350492,
                  "price": 1,
                  "rating": 6.2,
                  "store_id": "18198-174465"
            },
            {
                  "distance": 632,
                  "location": {
                        "address": "7373 Langelier Blvd",
                        "address_extended": "Suite C-1",
                        "country": "CA",
                        "cross_street": "Jean-Talon",
                        "formatted_address": "7373 Langelier Blvd (Jean-Talon), Saint-Leonard QC H1S 1V7",
                        "locality": "Saint-L\u00e9onard",
                        "postcode": "H1S 1V7",
                        "region": "QC"
                  },
                  "name": "Subway",
                  "popularity": 0.9621853709311128,
                  "price": 1,
                  "rating": 6.1,
                  "store_id": "#16293"
            },
            {
                  "distance": 637,
                  "location": {
                        "address": "7373 Langelier Blvd",
                        "address_extended": "C8",
                        "country": "CA",
                        "cross_street": "",
                        "formatted_address": "7373 Langelier Blvd, Montr\u00e9al QC H1S 1V7",
                        "locality": "Montreal",
                        "postcode": "H1S 1V7",
                        "region": "QC"
                  },
                  "name": "Mandarin Buffet Chinois Langelier Inc le",
                  "popularity": 0.9664080242240727,
                  "price": 1,
                  "rating": 5.2
            },
            {
                  "distance": 205,
                  "location": {
                        "address": "6045 Belanger Rue",
                        "country": "CA",
                        "formatted_address": "6045 Belanger Rue, Saint-Leonard QC H1T 3T4",
                        "locality": "Saint-Leonard",
                        "postcode": "H1T 3T4",
                        "region": "QC"
                  },
                  "name": "Bar Billard le Losange",
                  "popularity": 0.9740253595760787,
                  "price": 2
            },
            {
                  "distance": 491,
                  "location": {
                        "address": "5840 Belanger Rue",
                        "country": "CA",
                        "cross_street": "Lacordaire",
                        "formatted_address": "5840 Belanger Rue (Lacordaire), Montr\u00e9al QC H1T 1G6",
                        "locality": "Montreal",
                        "postcode": "H1T 1G6",
                        "region": "QC"
                  },
                  "name": "Luso",
                  "popularity": 0.5323855034065103,
                  "price": 2
            },
            {
                  "distance": 499,
                  "location": {
                        "address": "5830 Belanger Rue",
                        "country": "CA",
                        "cross_street": "angle Lacordaire",
                        "formatted_address": "5830 Belanger Rue (angle Lacordaire), Montr\u00e9al QC H1T 1G6",
                        "locality": "Montreal",
                        "postcode": "H1T 1G6",
                        "region": "QC"
                  },
                  "name": "Corona Caf\u00e9",
                  "popularity": 0.9481690007570023,
                  "price": 2
            },
            {
                  "distance": 537,
                  "location": {
                        "address": "6460 Beaubien Rue E",
                        "country": "CA",
                        "cross_street": "",
                        "formatted_address": "6460 Beaubien Rue E, Montr\u00e9al QC H1M 1A9",
                        "locality": "Montreal",
                        "postcode": "H1M 1A9",
                        "region": "QC"
                  },
                  "name": "Oishii Sushi",
                  "popularity": 0.8567254920514762,
                  "price": 2
            },
            {
                  "distance": 630,
                  "location": {
                        "address": "6350 Jean-Talon Rue E",
                        "country": "CA",
                        "cross_street": "",
                        "formatted_address": "6350 Jean-Talon Rue E, Saint-Leonard QC H1S 1M8",
                        "locality": "Saint-Leonard",
                        "postcode": "H1S 1M8",
                        "region": "QC"
                  },
                  "name": "Cafe Modena",
                  "popularity": 0.09326504542013626,
                  "price": 3
            },
            {
                  "distance": 709,
                  "location": {
                        "address": "5957 Jean-Talon Rue E",
                        "country": "CA",
                        "cross_street": "",
                        "formatted_address": "5957 Jean-Talon Rue E, Montr\u00e9al QC H1S 1M5",
                        "locality": "Montreal",
                        "postcode": "H1S 1M5",
                        "region": "QC"
                  },
                  "name": "Vincent S Variete Limitee",
                  "popularity": 0.34977053368660105
            },
            {
                  "distance": 766,
                  "location": {
                        "address": "6550 Beaubien Rue E",
                        "country": "CA",
                        "cross_street": "coin Langelier",
                        "formatted_address": "6550 Beaubien Rue E (coin Langelier), Montr\u00e9al QC H1M 1A9",
                        "locality": "Montreal",
                        "postcode": "H1M 1A9",
                        "region": "QC"
                  },
                  "name": "Pub St-Fran\u00e7ois",
                  "popularity": 0.9475184519303558,
                  "price": 2
            },
            {
                  "distance": 810,
                  "location": {
                        "address": "6600 Beaubien Rue E",
                        "country": "CA",
                        "cross_street": "Langelier",
                        "formatted_address": "6600 Beaubien Rue E (Langelier), Montreal QC",
                        "locality": "Montreal",
                        "region": "QC"
                  },
                  "name": "Pizza 4 Fr\u00e8res",
                  "popularity": 0.9765211014383043,
                  "price": 1
            },
            {
                  "distance": 840,
                  "location": {
                        "address": "5761 Jean Talon Rue E",
                        "country": "CA",
                        "cross_street": "",
                        "formatted_address": "5761 Jean Talon Rue E, Montr\u00e9al QC H1S 1M3",
                        "locality": "Montreal",
                        "postcode": "H1S 1M3",
                        "region": "QC"
                  },
                  "name": "Restaurant Espadon",
                  "popularity": 0.9847416729750189
            },
            {
                  "distance": 885,
                  "location": {
                        "address": "6669 Jean-Talon Rue E",
                        "country": "CA",
                        "cross_street": "",
                        "formatted_address": "6669 Jean-Talon Rue E, Saint-Leonard QC H1S 1N2",
                        "locality": "Saint-L\u00e9onard",
                        "postcode": "H1S 1N2",
                        "region": "QC"
                  },
                  "name": "Pizza Pizza",
                  "popularity": 0.22695874337623012,
                  "price": 1,
                  "store_id": "336"
            },
            {
                  "distance": 898,
                  "location": {
                        "address": "6683 Jean-Talon Rue E",
                        "country": "CA",
                        "cross_street": "",
                        "formatted_address": "6683 Jean-Talon Rue E, Montr\u00e9al QC H1S 0A5",
                        "locality": "Montreal",
                        "postcode": "H1S 0A5",
                        "region": "QC"
                  },
                  "name": "Sushi Shop",
                  "popularity": 0.11552564345193035,
                  "price": 2
            },
            {
                  "distance": 939,
                  "location": {
                        "address": "6683 Jean-Talon Rue E",
                        "country": "CA",
                        "cross_street": "",
                        "formatted_address": "6683 Jean-Talon Rue E, Saint-Leonard QC H1S 0A5",
                        "locality": "Saint-L\u00e9onard",
                        "postcode": "H1S 0A5",
                        "region": "QC"
                  },
                  "name": "Bacaro Pizzeria",
                  "popularity": 0.7629518357305072,
                  "price": 2
            },
            {
                  "distance": 79,
                  "location": {
                        "address": "6183 Belanger Rue",
                        "country": "CA",
                        "formatted_address": "6183 Belanger Rue, Saint-Leonard QC H1T 3T4",
                        "locality": "Saint-Leonard",
                        "postcode": "H1T 3T4",
                        "region": "QC"
                  },
                  "name": "Pizza Oasis"
            },
            {
                  "distance": 301,
                  "location": {
                        "address": "5961 Belanger Rue",
                        "country": "CA",
                        "formatted_address": "5961 Belanger Rue, Saint-Leonard QC H1T 1G8",
                        "locality": "Saint-Leonard",
                        "postcode": "H1T 1G8",
                        "region": "QC"
                  },
                  "name": "Boulangerie P\u00e2tisserie et Charcuterie Firenze Inc"
            },
            {
                  "distance": 467,
                  "location": {
                        "address": "6835 Lacordaire Blvd",
                        "country": "CA",
                        "formatted_address": "6835 Lacordaire Blvd, Saint-Leonard QC H1T 2K5",
                        "locality": "Saint-Leonard",
                        "postcode": "H1T 2K5",
                        "region": "QC"
                  },
                  "name": "Hlow by Foufa"
            },
            {
                  "distance": 498,
                  "location": {
                        "address": "5840 Belanger Rue",
                        "country": "CA",
                        "formatted_address": "5840 Belanger Rue, Saint-Leonard QC H1T 1G6",
                        "locality": "Saint-Leonard",
                        "postcode": "H1T 1G6",
                        "region": "QC"
                  },
                  "name": "Restaurant Leso"
            },
            {
                  "distance": 498,
                  "location": {
                        "address": "7065 Langelier Blvd",
                        "country": "CA",
                        "formatted_address": "7065 Langelier Blvd, Saint-Leonard QC H1S 1V6",
                        "locality": "Saint-Leonard",
                        "postcode": "H1S 1V6",
                        "region": "QC"
                  },
                  "name": "Pizza Hut"
            },
            {
                  "distance": 511,
                  "location": {
                        "address": "7373 Langelier Blvd",
                        "country": "CA",
                        "formatted_address": "7373 Langelier Blvd, Saint-Leonard QC H1S 1V7",
                        "locality": "Saint-Leonard",
                        "postcode": "H1S 1V7",
                        "region": "QC"
                  },
                  "name": "Cafe 2 M"
            },
            {
                  "distance": 569,
                  "location": {
                        "address": "7373 Langelier Blvd",
                        "country": "CA",
                        "formatted_address": "7373 Langelier Blvd, Saint-Leonard QC H1S 1V7",
                        "locality": "Saint-Leonard",
                        "postcode": "H1S 1V7",
                        "region": "QC"
                  },
                  "name": "Caf\u00e9 Langelier"
            },
            {
                  "distance": 607,
                  "location": {
                        "address": "5823 Brossard Rue",
                        "country": "CA",
                        "formatted_address": "5823 Brossard Rue, Montreal QC H1T 1J8",
                        "locality": "Montreal",
                        "postcode": "H1T 1J8",
                        "region": "QC"
                  },
                  "name": "Malchow Chinese Restaurant"
            },
            {
                  "distance": 629,
                  "location": {
                        "address": "6294 Jean Talon Rue E",
                        "country": "CA",
                        "formatted_address": "6294 Jean Talon Rue E, Saint-Leonard QC H1S 1M8",
                        "locality": "Saint-Leonard",
                        "postcode": "H1S 1M8",
                        "region": "QC"
                  },
                  "name": "Caf\u00e9 Mon Petit Village"
            },
            {
                  "distance": 631,
                  "location": {
                        "address": "7373 Langelier Blvd",
                        "country": "CA",
                        "formatted_address": "7373 Langelier Blvd, Saint-Leonard QC H1S 1V7",
                        "locality": "Saint-Leonard",
                        "postcode": "H1S 1V7",
                        "region": "QC"
                  },
                  "name": "Sultan Istanbul Kebab"
            },
            {
                  "distance": 644,
                  "location": {
                        "address": "7373 Langelier Blvd",
                        "country": "CA",
                        "formatted_address": "7373 Langelier Blvd, Saint-Leonard QC H1S 1V7",
                        "locality": "Saint-Leonard",
                        "postcode": "H1S 1V7",
                        "region": "QC"
                  },
                  "name": "Restaurant Yenta"
            },
            {
                  "distance": 665,
                  "location": {
                        "address": "6459 Beaubien Rue E",
                        "country": "CA",
                        "formatted_address": "6459 Beaubien Rue E, Montreal QC H1M 1B1",
                        "locality": "Montreal",
                        "postcode": "H1M 1B1",
                        "region": "QC"
                  },
                  "name": "Charcuterie & Fromagerie Siena Canada Inc"
            },
            {
                  "distance": 669,
                  "location": {
                        "address": "6400 Jean Talon Rue E",
                        "country": "CA",
                        "formatted_address": "6400 Jean Talon Rue E, Saint-Leonard QC H1S 1M8",
                        "locality": "Saint-Leonard",
                        "postcode": "H1S 1M8",
                        "region": "QC"
                  },
                  "name": "Restaurant Basha"
            },
            {
                  "distance": 670,
                  "location": {
                        "address": "6350 Jean-Talon Rue E",
                        "country": "CA",
                        "formatted_address": "6350 Jean-Talon Rue E, Saint-Leonard QC H1S 1M8",
                        "locality": "Saint-Leonard",
                        "postcode": "H1S 1M8",
                        "region": "QC"
                  },
                  "name": "Cafe"
            },
            {
                  "distance": 675,
                  "location": {
                        "address": "6370 Beaubien Rue E",
                        "country": "CA",
                        "formatted_address": "6370 Beaubien Rue E, Montreal QC H1M 3G8",
                        "locality": "Montreal",
                        "postcode": "H1M 3G8",
                        "region": "QC"
                  },
                  "name": "Kaf\u00e9 Latt\u00e9"
            }
      ],
      "context": {
            "geo_bounds": {
                  "circle": {
                        "center": {
                              "latitude": 45.58647648,
                              "longitude": -73.5703969
                        },
                        "radius": 1000
                  }
            }
      }
}