{
      "results": [
            {
                  "distance": 368,
                  "location": {
                        "address": "2471 Notre-Dame Rue O",
                        "country": "CA",
                        "cross_street": "entre Vinet & Charlevoix",
                        "formatted_address": "2471 Notre-Dame Rue O (entre Vinet & Charlevoix), Montr\u00e9al QC H3J 1N6",
                        "locality": "Montreal",
                        "postcode": "H3J 1N6",
                        "region": "QC"
                  },
                  "name": "September Surf Caf\u00e9",
                  "popularity": 0.9357139477668432,
                  "price": 1,
                  "rating": 9.0
            },
            {
                  "distance": 145,
                  "location": {
                        "address": "2713 Notre-Dame Rue O",
                        "country": "CA",
                        "cross_street": "Atwater",
                        "formatted_address": "2713 Notre-Dame Rue O (Atwater), Montr\u00e9al QC H3J 1N9",
                        "locality": "Montreal",
                        "postcode": "H3J 1N9",
                        "region": "QC"
                  },
                  "name": "Lili & Oli",
                  "popularity": 0.9507711960635882,
                  "price": 1,
                  "rating": 8.9
            },
            {
                  "distance": 333,
                  "location": {
                        "address": "2501 Notre-Dame Rue O",
                        "country": "CA",
                        "cross_street": "btwn Charlevoix & Vinet",
                        "formatted_address": "2501 Notre-Dame Rue O (btwn Charlevoix & Vinet), Montr\u00e9al QC H3J 1N6",
                        "locality": "Montreal",
                        "postcode": "H3J 1N6",
                        "region": "QC"
                  },
                  "name": "Liverpool House",
                  "popularity": 0.9156888720666162,
                  "price": 3,
                  "rating": 8.9
            },
            {
                  "distance": 309,
                  "location": {
                        "address": "2519 Notre-Dame Rue O",
                        "country": "CA",
                        "cross_street": "",
                        "formatted_address": "2519 Notre-Dame Rue O, Montr\u00e9al QC H3J 1N6",
                        "locality": "Montreal",
                        "postcode": "H3J 1N6",
                        "region": "QC"
                  },
                  "name": "Le Vin Papillon",
                  "popularity": 0.9172383610900833,
                  "price": 3,
                  "rating": 8.9
            },
            {
                  "distance": 333,
                  "location": {
                        "address": "3721 Notre-Dame Rue O",
                        "country": "CA",
                        "cross_street": "entre Bourget & Turgeon",
                        "formatted_address": "3721 Notre-Dame Rue O (entre Bourget & Turgeon), Montr\u00e9al QC H4C 1P8",
                        "locality": "Montreal",
                        "postcode": "H4C 1P8",
                        "region": "QC"
                  },
                  "name": "Satay Brothers",
                  "popularity": 0.9822577592732779,
                  "price": 2,
                  "rating": 8.9
            },
            {
                  "distance": 337,
                  "location": {
                        "address": "2490 Notre-Dame Rue O",
                        "country": "CA",
                        "formatted_address": "2490 Notre-Dame Rue O, Montreal QC H3J 1N5",
                        "locality": "Montreal",
                        "postcode": "H3J 1N5",
                        "region": "QC"
                  },
                  "name": "Th\u00e9\u00e2tre Corona",
                  "popularity": 0.9053274034822104,
                  "rating": 8.8
            },
            {
                  "distance": 329,
                  "location": {
                        "address": "2496 Notre-Dame Rue O",
                        "country": "CA",
                        "cross_street": "entre Charlevoix & Vinet",
                        "formatted_address": "2496 Notre-Dame Rue O (entre Charlevoix & Vinet), Montr\u00e9al QC H3J 1N5",
                        "locality": "Montreal",
                        "postcode": "H3J 1N5",
                        "region": "QC"
                  },
                  "name": "Burgundy Lion",
                  "popularity": 0.956637963663891,
                  "price": 2,
                  "rating": 8.8
            },
            {
                  "distance": 87,
                  "location": {
                        "address": "512 Atwater Ave",
                        "country": "CA",
                        "cross_street": "Notre-Dame",
                        "formatted_address": "512 Atwater Ave (Notre-Dame), Montr\u00e9al QC H4C 2G5",
                        "locality": "Montreal",
                        "postcode": "H4C 2G5",
                        "region": "QC"
                  },
                  "name": "Atwater Cocktail Club",
                  "popularity": 0.969412376987131,
                  "price": 3,
                  "rating": 8.7
            },
            {
                  "distance": 922,
                  "location": {
                        "address": "1974 Notre-Dame Rue O",
                        "country": "CA",
                        "cross_street": "entre Canning & Chatham",
                        "formatted_address": "1974 Notre-Dame Rue O (entre Canning & Chatham), Montr\u00e9al QC H3J 1M8",
                        "locality": "Montreal",
                        "postcode": "H3J 1M8",
                        "region": "QC"
                  },
                  "name": "Chez Sophie",
                  "popularity": 0.927304125662377,
                  "price": 3,
                  "rating": 8.6
            },
            {
                  "distance": 261,
                  "location": {
                        "address": "3618 Notre-Dame Rue O",
                        "country": "CA",
                        "cross_street": "",
                        "formatted_address": "3618 Notre-Dame Rue O, Montr\u00e9al QC H4C 1P5",
                        "locality": "Montreal",
                        "postcode": "H4C 1P5",
                        "region": "QC"
                  },
                  "name": "Sumac",
                  "popularity": 0.9393806775170326,
                  "price": 2,
                  "rating": 8.5
            },
            {
                  "distance": 139,
                  "location": {
                        "address": "3502 Notre-Dame Rue O",
                        "country": "CA",
                        "cross_street": "",
                        "formatted_address": "3502 Notre-Dame Rue O, Montr\u00e9al QC H4C 1P4",
                        "locality": "Montreal",
                        "postcode": "H4C 1P4",
                        "region": "QC"
                  },
                  "name": "Eko Sushi",
                  "popularity": 0.925316994700984,
                  "price": 2,
                  "rating": 8.5
            },
            {
                  "distance": 58,
                  "location": {
                        "address": "138 Atwater Ave",
                        "country": "CA",
                        "formatted_address": "138 Atwater Ave, Montr\u00e9al QC H4C 2G3",
                        "locality": "Montreal",
                        "postcode": "H4C 2G3",
                        "region": "QC"
                  },
                  "name": "Satay Brothers",
                  "popularity": 0.882025927327782,
                  "price": 2,
                  "rating": 8.4
            },
            {
                  "distance": 81,
                  "location": {
                        "address": "3001 Notre-Dame Rue O",
                        "country": "CA",
                        "cross_street": "coin Atwater",
                        "formatted_address": "3001 Notre-Dame Rue O (coin Atwater), Montr\u00e9al QC H4C 1N9",
                        "locality": "Montreal",
                        "postcode": "H4C 1N9",
                        "region": "QC"
                  },
                  "name": "Foiegwa",
                  "popularity": 0.9437807532172596,
                  "price": 3,
                  "rating": 8.2
            },
            {
                  "distance": 231,
                  "location": {
                        "address": "138 Atwater Ave",
                        "country": "CA",
                        "formatted_address": "138 Atwater Ave, Montr\u00e9al QC H4C 2G3",
                        "locality": "Montreal",
                        "postcode": "H4C 2G3",
                        "region": "QC"
                  },
                  "name": "Havre-aux-Glaces",
                  "popularity": 0.9121049394398183,
                  "price": 1,
                  "rating": 7.9
            },
            {
                  "distance": 563,
                  "location": {
                        "address": "3068 Saint-Antoine Rue O",
                        "country": "CA",
                        "cross_street": "Avenue Marin",
                        "formatted_address": "3068 Saint-Antoine Rue O (Avenue Marin), Montr\u00e9al QC H4C 1A5",
                        "locality": "Montreal",
                        "postcode": "H4C 1A5",
                        "region": "QC"
                  },
                  "name": "Cafe Joe",
                  "popularity": 0.8828302422407267,
                  "price": 1,
                  "rating": 7.8
            },
            {
                  "distance": 218,
                  "location": {
                        "address": "2661 Notre-Dame Rue O",
                        "country": "CA",
                        "cross_street": "Petite-Bourgogne",
                        "formatted_address": "2661 Notre-Dame Rue O (Petite-Bourgogne), Montr\u00e9al QC H3J 1N9",
                        "locality": "Montreal",
                        "postcode": "H3J 1N9",
                        "region": "QC"
                  },
                  "name": "Drinkerie Ste-Cun\u00e9gonde",
                  "popularity": 0.9424678274034822,
                  "price": 2,
                  "rating": 7.8
            },
            {
                  "distance": 756,
                  "location": {
                        "address": "2483 rue du Ctr",
                        "country": "CA",
                        "cross_street": "",
                        "formatted_address": "2483 rue du Ctr, Montr\u00e9al QC H3K 1J9",
                        "locality": "Montreal",
                        "postcode": "H3K 1J9",
                        "region": "QC"
                  },
                  "name": "Clarke Caf\u00e9",
                  "popularity": 0.9593111279333838,
                  "price": 1,
                  "rating": 7.6
            },
            {
                  "distance": 93,
                  "location": {
                        "address": "3041 Notre-Dame Rue O",
                        "country": "CA",
                        "cross_street": "coin Greene",
                        "formatted_address": "3041 Notre-Dame Rue O (coin Greene), Montr\u00e9al QC H4C 1N9",
                        "locality": "Montreal",
                        "postcode": "H4C 1N9",
                        "region": "QC"
                  },
                  "name": "Green Spot",
                  "popularity": 0.9889998107494322,
                  "price": 1,
                  "rating": 7.6
            },
            {
                  "distance": 114,
                  "location": {
                        "address": "2745 Notre-Dame Rue O",
                        "country": "CA",
                        "cross_street": "avenue Atwater",
                        "formatted_address": "2745 Notre-Dame Rue O (avenue Atwater), Montr\u00e9al QC H3J 1N9",
                        "locality": "Montreal",
                        "postcode": "H3J 1N9",
                        "region": "QC"
                  },
                  "name": "Resto Cafe Quoi de N'Oeuf",
                  "popularity": 0.9520959500378501,
                  "price": 2,
                  "rating": 7.4
            },
            {
                  "distance": 205,
                  "location": {
                        "address": "3568 Notre-Dame Rue O",
                        "country": "CA",
                        "cross_street": "coin Rose de Lima",
                        "formatted_address": "3568 Notre-Dame Rue O (coin Rose de Lima), Montr\u00e9al QC H4C 1P4",
                        "locality": "Montreal",
                        "postcode": "H4C 1P4",
                        "region": "QC"
                  },
                  "name": "Restaurant Nozy",
                  "popularity": 0.9039435087055261,
                  "price": 2,
                  "rating": 7.2
            },
            {
                  "distance": 645,
                  "location": {
                        "address": "4020 Saint-Ambroise Rue",
                        "address_extended": "# 140",
                        "country": "CA",
                        "formatted_address": "4020 Saint-Ambroise Rue, Montr\u00e9al QC H4C 2C7",
                        "locality": "Montreal",
                        "postcode": "H4C 2C7",
                        "region": "QC"
                  },
                  "name": "Restaurant l'Ambroisie",
                  "popularity": 0.9416871688115064,
                  "price": 2,
                  "rating": 6.3
            },
            {
                  "distance": 98,
                  "location": {
                        "address": "3009 Notre Dame Rue O",
                        "country": "CA",
                        "cross_street": "Atwater",
                        "formatted_address": "3009 Notre Dame Rue O (Atwater), Montr\u00e9al QC H4C 1N9",
                        "locality": "Montreal",
                        "postcode": "H4C 1N9",
                        "region": "QC"
                  },
                  "name": "Thai Express",
                  "popularity": 0.9009391559424679,
                  "price": 2,
                  "rating": 6.0,
                  "store_id": "68"
            },
            {
                  "distance": 958,
                  "location": {
                        "address": "4401 Notre-Dame Rue O",
                        "country": "CA",
                        "cross_street": "Beaudoin",
                        "formatted_address": "4401 Notre-Dame Rue O (Beaudoin), Montr\u00e9al QC H4C 1S2",
                        "locality": "Montreal",
                        "postcode": "H4C 1S2",
                        "region": "QC"
                  },
                  "name": "Le T\u00e9quila Bar",
                  "popularity": 0.929515991672975,
                  "price": 1,
                  "rating": 5.7
            },
            {
                  "distance": 440,
                  "location": {
                        "address": "700 Atwater Ave",
                        "country": "CA",
                        "cross_street": "coin St-Jacques",
                        "formatted_address": "700 Atwater Ave (coin St-Jacques), Montr\u00e9al QC H4C 2G9",
                        "locality": "Montreal",
                        "postcode": "H4C 2G9",
                        "region": "QC"
                  },
                  "name": "Tim Hortons",
                  "popularity": 0.9925955715367146,
                  "price": 1,
                  "rating": 5.6
            },
            {
                  "distance": 66,
                  "location": {
                        "address": "3026 Notre-Dame Rue O",
                        "country": "CA",
                        "cross_street": "Greene",
                        "formatted_address": "3026 Notre-Dame Rue O (Greene), Montr\u00e9al QC H4C 1P1",
                        "locality": "Montreal",
                        "postcode": "H4C 1P1",
                        "region": "QC"
                  },
                  "name": "McDonald's",
                  "popularity": 0.9893073429220288,
                  "price": 1,
                  "rating": 4.8,
                  "store_id": "26035"
            },
            {
                  "distance": 80,
                  "location": {
                        "address": "138 Atwater Ave",
                        "country": "CA",
                        "cross_street": "",
                        "formatted_address": "138 Atwater Ave, Montr\u00e9al QC H4C 2G3",
                        "locality": "Montreal",
                        "postcode": "H4C 2G3",
                        "region": "QC"
                  },
                  "name": "Chez Layla",
                  "popularity": 0.2843726343679031,
                  "price": 2
            },
            {
                  "distance": 92,
                  "location": {
                        "address": "3401 Notre-Dame Rue O",
                        "country": "CA",
                        "cross_street": "",
                        "formatted_address": "3401 Notre-Dame Rue O, Montr\u00e9al QC H4C 1P3",
                        "locality": "Montreal",
                        "postcode": "H4C 1P3",
                        "region": "QC"
                  },
                  "name": "9 Tail Fox",
                  "popularity": 0.8886023845571537,
                  "price": 2
            },
            {
                  "distance": 98,
                  "location": {
                        "address": "3426 Notre-Dame Rue O",
                        "country": "CA",
                        "cross_street": "",
                        "formatted_address": "3426 Notre-Dame Rue O, Montr\u00e9al QC H4C 1P2",
                        "locality": "Montreal",
                        "postcode": "H4C 1P2",
                        "region": "QC"
                  },
                  "name": "Tropik\u00e0l Restobar",
                  "popularity": 0.9082844436033308,
                  "price": 2
            },
            {
                  "distance": 103,
                  "location": {
                        "address": "3401 Notre-Dame Rue O",
                        "country": "CA",
                        "cross_street": "Greene",
                        "formatted_address": "3401 Notre-Dame Rue O (Greene), Montr\u00e9al QC H4C 1P3",
                        "locality": "Montreal",
                        "postcode": "H4C 1P3",
                        "region": "QC"
                  },
                  "name": "SudWest Gyros & Co",
                  "popularity": 0.8349616767600303,
                  "price": 2
            },
            {
                  "distance": 121,
                  "location": {
                        "address": "155 Greene Ave",
                        "address_extended": "# 2",
                        "country": "CA",
                        "cross_street": "",
                        "formatted_address": "155 Greene Ave, Montr\u00e9al QC H4C 2H6",
                        "locality": "Montreal",
                        "postcode": "H4C 2H6",
                        "region": "QC"
                  },
                  "name": "Ave Green",
                  "popularity": 0.5881671082513248,
                  "price": 1
            },
            {
                  "distance": 296,
                  "location": {
                        "address": "2523 Notre-Dame Rue O",
                        "country": "CA",
                        "cross_street": "",
                        "formatted_address": "2523 Notre-Dame Rue O, Montr\u00e9al QC H3J 1N6",
                        "locality": "Montreal",
                        "postcode": "H3J 1N6",
                        "region": "QC"
                  },
                  "name": "Mignon Steak",
                  "popularity": 0.8599782361847086,
                  "price": 4
            },
            {
                  "distance": 379,
                  "location": {
                        "address": "2455 Notre-Dame Rue O",
                        "country": "CA",
                        "cross_street": "Vinet",
                        "formatted_address": "2455 Notre-Dame Rue O (Vinet), Montr\u00e9al QC H3J 1N6",
                        "locality": "Montreal",
                        "postcode": "H3J 1N6",
                        "region": "QC"
                  },
                  "name": "Shushu Bar \u00c0 Pok\u00e9 + Sushi",
                  "popularity": 0.8745741862225587,
                  "price": 2
            },
            {
                  "distance": 472,
                  "location": {
                        "address": "2606 Saint-Patrick Rue",
                        "country": "CA",
                        "cross_street": "",
                        "formatted_address": "2606 Saint-Patrick Rue, Montr\u00e9al QC H3K 1B8",
                        "locality": "Montreal",
                        "postcode": "H3K 1B8",
                        "region": "QC"
                  },
                  "name": "Restaurant Krood",
                  "popularity": 0.8481973883421651
            },
            {
                  "distance": 474,
                  "location": {
                        "address": "2604 Saint-Patrick Rue",
                        "country": "CA",
                        "cross_street": "",
                        "formatted_address": "2604 Saint-Patrick Rue, Montr\u00e9al QC H3K 1B8",
                        "locality": "Montreal",
                        "postcode": "H3K 1B8",
                        "region": "QC"
                  },
                  "name": "Caf\u00e9 Redwood",
                  "popularity": 0.9289127554882665,
                  "price": 1
            },
            {
                  "distance": 512,
                  "location": {
                        "address": "768 Atwater Ave",
                        "country": "CA",
                        "cross_street": "saint jacques",
                        "formatted_address": "768 Atwater Ave (saint jacques), Montr\u00e9al QC H4C 2G9",
                        "locality": "Montreal",
                        "postcode": "H4C 2G9",
                        "region": "QC"
                  },
                  "name": "Restaurant Frida",
                  "popularity": 0.9075984102952309,
                  "price": 1
            }
      ],
      "context": {
            "geo_bounds": {
                  "circle": {
                        "center": {
                              "latitude": 45.48049514,
                              "longitude": -73.57782662
                        },
                        "radius": 1000
                  }
            }
      }
}