{
      "results": [
            {
                  "distance": 90,
                  "location": {
                        "address": "953 Decarie Blvd",
                        "country": "CA",
                        "cross_street": "cote-vertu",
                        "formatted_address": "953 Decarie Blvd (cote-vertu), Montr\u00e9al QC H4L 3M3",
                        "locality": "Montreal",
                        "postcode": "H4L 3M3",
                        "region": "QC"
                  },
                  "name": "Decarie Hot Dog",
                  "popularity": 0.9809921461014383,
                  "price": 1,
                  "rating": 7.7
            },
            {
                  "distance": 104,
                  "location": {
                        "address": "1494 Blvd de la Cote-Vertu",
                        "country": "CA",
                        "cross_street": "",
                        "formatted_address": "1494 Blvd de la Cote-Vertu, Montr\u00e9al QC H4L 1Z8",
                        "locality": "Montreal",
                        "postcode": "H4L 1Z8",
                        "region": "QC"
                  },
                  "name": "A&W Restaurant",
                  "popularity": 0.9899815480696442,
                  "price": 1,
                  "rating": 7.5,
                  "store_id": "5555"
            },
            {
                  "distance": 867,
                  "location": {
                        "address": "1928 Thimens Blvd",
                        "country": "CA",
                        "cross_street": "Marcel-Laurin",
                        "formatted_address": "1928 Thimens Blvd (Marcel-Laurin), Montr\u00e9al QC H4R 1K2",
                        "locality": "Montreal",
                        "postcode": "H4R 1K2",
                        "region": "QC"
                  },
                  "name": "Ben & Florentine",
                  "popularity": 0.9675908402725208,
                  "price": 1,
                  "rating": 7.3,
                  "store_id": "004"
            },
            {
                  "distance": 547,
                  "location": {
                        "address": "735 Decarie Blvd",
                        "country": "CA",
                        "cross_street": "btwn Du College & Eglise",
                        "formatted_address": "735 Decarie Blvd (btwn Du College & Eglise), Montr\u00e9al QC H4L 3L3",
                        "locality": "Montreal",
                        "postcode": "H4L 3L3",
                        "region": "QC"
                  },
                  "name": "Restaurant Yi Pin Xiang",
                  "popularity": 0.29537282361847084,
                  "rating": 7.2
            },
            {
                  "distance": 435,
                  "location": {
                        "address": "1800 Blvd de la cote-Vertu",
                        "country": "CA",
                        "cross_street": "",
                        "formatted_address": "1800 Blvd de la cote-Vertu, Montr\u00e9al QC H4L 2A6",
                        "locality": "Montreal",
                        "postcode": "H4L 2A6",
                        "region": "QC"
                  },
                  "name": "Bistro Sawadika",
                  "popularity": 0.9861728803936411,
                  "price": 2,
                  "rating": 7.1
            },
            {
                  "distance": 358,
                  "location": {
                        "address": "1191 Decarie Rue",
                        "country": "CA",
                        "cross_street": "Rochon",
                        "formatted_address": "1191 Decarie Rue (Rochon), Saint-Laurent QC H4L 3M8",
                        "locality": "Saint-Laurent",
                        "postcode": "H4L 3M8",
                        "region": "QC"
                  },
                  "name": "Tim Hortons",
                  "popularity": 0.9984741672975019,
                  "price": 1,
                  "rating": 6.6
            },
            {
                  "distance": 782,
                  "location": {
                        "address": "1300 Marcel-Laurin Blvd",
                        "country": "CA",
                        "cross_street": "",
                        "formatted_address": "1300 Marcel-Laurin Blvd, Saint-Laurent QC H4R 1J9",
                        "locality": "Saint-Laurent",
                        "postcode": "H4R 1J9",
                        "region": "QC"
                  },
                  "name": "St-Hubert Express",
                  "popularity": 0.9805899886449659,
                  "price": 2,
                  "rating": 6.5,
                  "store_id": "100288"
            },
            {
                  "distance": 127,
                  "location": {
                        "address": "993 Blvd D\u00e9carie",
                        "country": "CA",
                        "cross_street": "",
                        "formatted_address": "993 Blvd D\u00e9carie, Montr\u00e9al QC H4L 3M7",
                        "locality": "Montreal",
                        "postcode": "H4L 3M7",
                        "region": "QC"
                  },
                  "name": "Subway",
                  "popularity": 0.8939723694171082,
                  "price": 1,
                  "rating": 6.4,
                  "store_id": "15203"
            },
            {
                  "distance": 121,
                  "location": {
                        "address": "1000 Decarie Blvd",
                        "country": "CA",
                        "cross_street": "",
                        "formatted_address": "1000 Decarie Blvd, Saint-Laurent QC H4L 3M5",
                        "locality": "Saint-Laurent",
                        "postcode": "H4L 3M5",
                        "region": "QC"
                  },
                  "name": "Pizza Pizza",
                  "popularity": 0.9467969341408025,
                  "price": 1,
                  "rating": 6.3,
                  "store_id": "308"
            },
            {
                  "distance": 423,
                  "location": {
                        "address": "1408 Rue de l'\u00c9glise",
                        "country": "CA",
                        "cross_street": "Saint Germain",
                        "formatted_address": "1408 Rue de l'\u00c9glise (Saint Germain), Saint-Laurent QC H4L 2H3",
                        "locality": "Saint-Laurent",
                        "postcode": "H4L 2H3",
                        "region": "QC"
                  },
                  "name": "Boccalini",
                  "popularity": 0.9165168433005298,
                  "price": 2,
                  "rating": 6.1
            },
            {
                  "distance": 141,
                  "location": {
                        "address": "1565 Ch. de la Cote Vertu",
                        "country": "CA",
                        "formatted_address": "1565 Ch. de la Cote Vertu, Saint-Laurent QC H4L 2A1",
                        "locality": "Saint-Laurent",
                        "postcode": "H4L 2A1",
                        "region": "QC"
                  },
                  "name": "McDonald's",
                  "popularity": 0.9992075132475398,
                  "price": 1,
                  "rating": 5.5,
                  "store_id": "2314"
            },
            {
                  "distance": 103,
                  "location": {
                        "address": "959 Decarie Blvd",
                        "country": "CA",
                        "cross_street": "",
                        "formatted_address": "959 Decarie Blvd, Saint-Laurent QC H4L 3M3",
                        "locality": "Saint-Laurent",
                        "postcode": "H4L 3M3",
                        "region": "QC"
                  },
                  "name": "La Diperie",
                  "popularity": 0.9373462339137018,
                  "price": 1
            },
            {
                  "distance": 103,
                  "location": {
                        "address": "1001 Decarie Blvd",
                        "country": "CA",
                        "cross_street": "at boul. de la C\u00f4te-Vertu",
                        "formatted_address": "1001 Decarie Blvd (at boul. de la C\u00f4te-Vertu), Saint-Laurent QC H4L 3M6",
                        "locality": "Saint-Laurent",
                        "postcode": "H4L 3M6",
                        "region": "QC"
                  },
                  "name": "Restaurant Kam Do",
                  "popularity": 0.9516228236184708,
                  "price": 1
            },
            {
                  "distance": 106,
                  "location": {
                        "address": "996 Decarie Blvd",
                        "country": "CA",
                        "cross_street": "",
                        "formatted_address": "996 Decarie Blvd, Saint-Laurent QC H4L 3M5",
                        "locality": "Saint-Laurent",
                        "postcode": "H4L 3M5",
                        "region": "QC"
                  },
                  "name": "Caf\u00e9 Van Houtte",
                  "popularity": 0.9931751514004542,
                  "price": 1
            },
            {
                  "distance": 146,
                  "location": {
                        "address": "1470 Blvd de la Cote Vertu",
                        "country": "CA",
                        "cross_street": "Boul. de la C\u00f4te-Vertu",
                        "formatted_address": "1470 Blvd de la Cote Vertu (Boul. de la C\u00f4te-Vertu), Saint-Laurent QC H4L 1Z7",
                        "locality": "Saint-Laurent",
                        "postcode": "H4L 1Z7",
                        "region": "QC"
                  },
                  "name": "Caf\u00e9 Tea Tac Toe",
                  "popularity": 0.928285862982589,
                  "price": 1
            },
            {
                  "distance": 198,
                  "location": {
                        "address": "886 Decarie Blvd",
                        "country": "CA",
                        "cross_street": "",
                        "formatted_address": "886 Decarie Blvd, Montr\u00e9al QC H4L 3L9",
                        "locality": "Montreal",
                        "postcode": "H4L 3L9",
                        "region": "QC"
                  },
                  "name": "Pho Moderne",
                  "popularity": 0.9669521196063589,
                  "price": 2
            },
            {
                  "distance": 312,
                  "location": {
                        "address": "1181 Decarie Rue",
                        "country": "CA",
                        "cross_street": "",
                        "formatted_address": "1181 Decarie Rue, Saint-Laurent QC H4L 3M8",
                        "locality": "Saint-Laurent",
                        "postcode": "H4L 3M8",
                        "region": "QC"
                  },
                  "name": "Planete Pizza",
                  "popularity": 0.9933525738077215,
                  "price": 1
            },
            {
                  "distance": 373,
                  "location": {
                        "address": "1455 Rue de l'\u00c3\u2030glise",
                        "country": "CA",
                        "cross_street": "",
                        "formatted_address": "1455 Rue de l'\u00c3\u2030glise, Saint-Laurent QC H4L 2H5",
                        "locality": "Saint-Laurent",
                        "postcode": "H4L 2H5",
                        "region": "QC"
                  },
                  "name": "Domino's Pizza",
                  "popularity": 0.9375118281604845,
                  "price": 1
            },
            {
                  "distance": 395,
                  "location": {
                        "address": "747 Decarie Blvd",
                        "country": "CA",
                        "cross_street": "",
                        "formatted_address": "747 Decarie Blvd, Montr\u00e9al QC H4L 3L3",
                        "locality": "Montreal",
                        "postcode": "H4L 3L3",
                        "region": "QC"
                  },
                  "name": "Mon Ami",
                  "popularity": 0.9755038796366389,
                  "price": 2
            },
            {
                  "distance": 412,
                  "location": {
                        "address": "1430 rue de l'\u00c9glise",
                        "country": "CA",
                        "cross_street": "",
                        "formatted_address": "1430 rue de l'\u00c9glise, Montr\u00e9al QC H4L 2H3",
                        "locality": "Montreal",
                        "postcode": "H4L 2H3",
                        "region": "QC"
                  },
                  "name": "Maison Samosa Express",
                  "popularity": 0.13836582134746403,
                  "price": 2
            },
            {
                  "distance": 425,
                  "location": {
                        "address": "753 Decarie Blvd",
                        "country": "CA",
                        "cross_street": "",
                        "formatted_address": "753 Decarie Blvd, Montr\u00e9al QC H4L 3L3",
                        "locality": "Montreal",
                        "postcode": "H4L 3L3",
                        "region": "QC"
                  },
                  "name": "Caf\u00e9 le VSL",
                  "popularity": 0.7458838001514004,
                  "price": 1
            },
            {
                  "distance": 464,
                  "location": {
                        "address": "1470 Blvd de la C\u00f4te-Vertu",
                        "country": "CA",
                        "cross_street": "",
                        "formatted_address": "1470 Blvd de la C\u00f4te-Vertu, Saint-Laurent QC H4L 1Z7",
                        "locality": "Saint-Laurent",
                        "postcode": "H4L 1Z7",
                        "region": "QC"
                  },
                  "name": "123 Caf\u00e9",
                  "popularity": 0.30211487509462526,
                  "price": 1
            },
            {
                  "distance": 605,
                  "location": {
                        "address": "1110 Marcel-Laurin Blvd",
                        "country": "CA",
                        "cross_street": "",
                        "formatted_address": "1110 Marcel-Laurin Blvd, Saint-Laurent QC H4R 1J7",
                        "locality": "Saint-Laurent",
                        "postcode": "H4R 1J7",
                        "region": "QC"
                  },
                  "name": "La Slice",
                  "popularity": 0.20411856548069643,
                  "price": 1
            },
            {
                  "distance": 620,
                  "location": {
                        "address": "1146 Marcel-Laurin Blvd",
                        "country": "CA",
                        "cross_street": "Cote-vertu",
                        "formatted_address": "1146 Marcel-Laurin Blvd (Cote-vertu), Saint-Laurent QC H4R 1J7",
                        "locality": "Saint-Laurent",
                        "postcode": "H4R 1J7",
                        "region": "QC"
                  },
                  "name": "Double Pizza",
                  "popularity": 0.14413796366389098,
                  "price": 1
            },
            {
                  "distance": 635,
                  "location": {
                        "address": "625 Decarie Blvd",
                        "country": "CA",
                        "cross_street": "Lafontaine",
                        "formatted_address": "625 Decarie Blvd (Lafontaine), Montr\u00e9al QC H4L 3L2",
                        "locality": "Montreal",
                        "postcode": "H4L 3L2",
                        "region": "QC"
                  },
                  "name": "\u00d4 Th\u00e9 Tea Shop",
                  "popularity": 0.9048661052233157
            },
            {
                  "distance": 805,
                  "location": {
                        "address": "1320 Marcel-Laurin Blvd",
                        "country": "CA",
                        "cross_street": "",
                        "formatted_address": "1320 Marcel-Laurin Blvd, Montr\u00e9al QC H4R 1J9",
                        "locality": "Montreal",
                        "postcode": "H4R 1J9",
                        "region": "QC"
                  },
                  "name": "Premi\u00e8re Fondue",
                  "popularity": 0.9437925813777441
            },
            {
                  "distance": 821,
                  "location": {
                        "address": "1898 Thimens Blvd",
                        "country": "CA",
                        "cross_street": "Marcel-Laurin",
                        "formatted_address": "1898 Thimens Blvd (Marcel-Laurin), Montr\u00e9al QC H4R 2K2",
                        "locality": "Montreal",
                        "postcode": "H4R 2K2",
                        "region": "QC"
                  },
                  "name": "Trattoria la Villetta",
                  "popularity": 0.9578799205147616,
                  "price": 3
            },
            {
                  "distance": 137,
                  "location": {
                        "address": "1595 Blvd de la C\u00f4te-Vertu",
                        "country": "CA",
                        "formatted_address": "1595 Blvd de la C\u00f4te-Vertu, Saint-Laurent QC H4L 2A1",
                        "locality": "Saint-Laurent",
                        "postcode": "H4L 2A1",
                        "region": "QC"
                  },
                  "name": "Restaurant PFK"
            },
            {
                  "distance": 247,
                  "location": {
                        "address": "855 Decarie Blvd",
                        "country": "CA",
                        "formatted_address": "855 Decarie Blvd, Saint-Laurent QC H4L 3L7",
                        "locality": "Saint-Laurent",
                        "postcode": "H4L 3L7",
                        "region": "QC"
                  },
                  "name": "Brasserie Internet Inc"
            },
            {
                  "distance": 247,
                  "location": {
                        "address": "855 Decarie Blvd",
                        "country": "CA",
                        "formatted_address": "855 Decarie Blvd, Saint-Laurent QC H4L 3L7",
                        "locality": "Saint-Laurent",
                        "postcode": "H4L 3L7",
                        "region": "QC"
                  },
                  "name": "Rasa Resto Lounge & Reception"
            },
            {
                  "distance": 351,
                  "location": {
                        "address": "1180 Decarie Rue",
                        "country": "CA",
                        "formatted_address": "1180 Decarie Rue, Saint-Laurent QC H4L 3M9",
                        "locality": "Saint-Laurent",
                        "postcode": "H4L 3M9",
                        "region": "QC"
                  },
                  "name": "Restaurant Fu Kam Wah"
            },
            {
                  "distance": 526,
                  "location": {
                        "address": "1146 Marcel-Laurin Blvd",
                        "country": "CA",
                        "formatted_address": "1146 Marcel-Laurin Blvd, Saint-Laurent QC H4R 1J7",
                        "locality": "Saint-Laurent",
                        "postcode": "H4R 1J7",
                        "region": "QC"
                  },
                  "name": "Palais du Poulet"
            },
            {
                  "distance": 583,
                  "location": {
                        "address": "2015 Marcel-Laurin Blvd",
                        "country": "CA",
                        "formatted_address": "2015 Marcel-Laurin Blvd, Saint-Laurent QC H4R 1K4",
                        "locality": "Saint-Laurent",
                        "postcode": "H4R 1K4",
                        "region": "QC"
                  },
                  "name": "Dagwoods"
            },
            {
                  "distance": 630,
                  "location": {
                        "address": "1142 Marcel-Laurin Blvd",
                        "country": "CA",
                        "formatted_address": "1142 Marcel-Laurin Blvd, Saint-Laurent QC H4R 1J7",
                        "locality": "Saint-Laurent",
                        "postcode": "H4R 1J7",
                        "region": "QC"
                  },
                  "name": "Dagwoods Sandwiches & Salades"
            },
            {
                  "distance": 652,
                  "location": {
                        "address": "1375 Grenet Rue",
                        "country": "CA",
                        "formatted_address": "1375 Grenet Rue, Saint-Laurent QC H4L 5K3",
                        "locality": "Saint-Laurent",
                        "postcode": "H4L 5K3",
                        "region": "QC"
                  },
                  "name": "Cafe Mauro"
            }
      ],
      "context": {
            "geo_bounds": {
                  "circle": {
                        "center": {
                              "latitude": 45.51299386,
                              "longitude": -73.68249848
                        },
                        "radius": 1000
                  }
            }
      }
}