{
      "results": [
            {
                  "distance": 1003,
                  "location": {
                        "address": "2110 Belanger Rue",
                        "country": "CA",
                        "cross_street": "",
                        "formatted_address": "2110 Belanger Rue, Montr\u00e9al QC H2G 1C2",
                        "locality": "Montreal",
                        "postcode": "H2G 1C2",
                        "region": "QC"
                  },
                  "name": "Paquebot",
                  "popularity": 0.9647520817562453,
                  "price": 1,
                  "rating": 9.2
            },
            {
                  "distance": 597,
                  "location": {
                        "address": "1360 Rosemont Blvd",
                        "country": "CA",
                        "cross_street": "",
                        "formatted_address": "1360 Rosemont Blvd, Montr\u00e9al QC H2G 1V4",
                        "locality": "Montreal",
                        "postcode": "H2G 1V4",
                        "region": "QC"
                  },
                  "name": "Caf\u00e9 Dei Campi",
                  "popularity": 0.9428108440575321,
                  "price": 1,
                  "rating": 9.1
            },
            {
                  "distance": 316,
                  "location": {
                        "address": "1039 Beaubien Rue E",
                        "country": "CA",
                        "cross_street": "Christophe-Colomb",
                        "formatted_address": "1039 Beaubien Rue E (Christophe-Colomb), Montr\u00e9al QC H2S 1T3",
                        "locality": "Montreal",
                        "postcode": "H2S 1T3",
                        "region": "QC"
                  },
                  "name": "Isle de Garde",
                  "popularity": 0.9462055261165784,
                  "price": 3,
                  "rating": 9.1
            },
            {
                  "distance": 681,
                  "location": {
                        "address": "500 Beaubien Rue E",
                        "country": "CA",
                        "cross_street": "",
                        "formatted_address": "500 Beaubien Rue E, Montr\u00e9al QC H2S 1S5",
                        "locality": "Montreal",
                        "postcode": "H2S 1S5",
                        "region": "QC"
                  },
                  "name": "Caf\u00e9 Pista",
                  "popularity": 0.9594294095382286,
                  "price": 1,
                  "rating": 8.9
            },
            {
                  "distance": 565,
                  "location": {
                        "address": "901 Saint-Zotique Rue E",
                        "country": "CA",
                        "cross_street": "Saint-Andr\u00e9",
                        "formatted_address": "901 Saint-Zotique Rue E (Saint-Andr\u00e9), Montr\u00e9al QC H2S 1M9",
                        "locality": "Montreal",
                        "postcode": "H2S 1M9",
                        "region": "QC"
                  },
                  "name": "Y\u00efsst",
                  "popularity": 0.9474829674489024,
                  "price": 2,
                  "rating": 8.8
            },
            {
                  "distance": 561,
                  "location": {
                        "address": "6230 Saint-Hubert Rue",
                        "country": "CA",
                        "cross_street": "",
                        "formatted_address": "6230 Saint-Hubert Rue, Montr\u00e9al QC H2S 2M2",
                        "locality": "Montreal",
                        "postcode": "H2S 2M2",
                        "region": "QC"
                  },
                  "name": "Montreal Plaza",
                  "popularity": 0.9133350681302044,
                  "price": 2,
                  "rating": 8.8
            },
            {
                  "distance": 381,
                  "location": {
                        "address": "1212 Saint-Zotique Rue E",
                        "country": "CA",
                        "cross_street": "",
                        "formatted_address": "1212 Saint-Zotique Rue E, Montr\u00e9al QC H2S 1N5",
                        "locality": "Montreal",
                        "postcode": "H2S 1N5",
                        "region": "QC"
                  },
                  "name": "Luciano Trattoria",
                  "popularity": 0.9558099924299773,
                  "price": 2,
                  "rating": 8.7
            },
            {
                  "distance": 295,
                  "location": {
                        "address": "6500 Christophe-Colomb Ave",
                        "country": "CA",
                        "cross_street": "Beaubien",
                        "formatted_address": "6500 Christophe-Colomb Ave (Beaubien), Montr\u00e9al QC H2S 2G8",
                        "locality": "Montreal",
                        "postcode": "H2S 2G8",
                        "region": "QC"
                  },
                  "name": "Automne Boulangerie",
                  "popularity": 0.9466431680545042,
                  "price": 1,
                  "rating": 8.7
            },
            {
                  "distance": 779,
                  "location": {
                        "address": "6696 Rue de Saint-Vallier",
                        "country": "CA",
                        "cross_street": "Saint-Zotique",
                        "formatted_address": "6696 Rue de Saint-Vallier (Saint-Zotique), Montr\u00e9al QC H2S 2P7",
                        "locality": "Montreal",
                        "postcode": "H2S 2P7",
                        "region": "QC"
                  },
                  "name": "Restaurant Santa Barbara",
                  "popularity": 0.9257901211203634,
                  "price": 3,
                  "rating": 8.7
            },
            {
                  "distance": 896,
                  "location": {
                        "address": "378 Saint-Zotique Rue E",
                        "country": "CA",
                        "cross_street": "",
                        "formatted_address": "378 Saint-Zotique Rue E, Montr\u00e9al QC H2S 1L7",
                        "locality": "Montreal",
                        "postcode": "H2S 1L7",
                        "region": "QC"
                  },
                  "name": "La Brume Dans Mes Lunettes",
                  "popularity": 0.9542605034065103,
                  "price": 1,
                  "rating": 8.6
            },
            {
                  "distance": 791,
                  "location": {
                        "address": "6414 Saint-Denis Rue",
                        "country": "CA",
                        "cross_street": "Rue Beaubien",
                        "formatted_address": "6414 Saint-Denis Rue (Rue Beaubien), Montr\u00e9al QC H2S 2R7",
                        "locality": "Montreal",
                        "postcode": "H2S 2R7",
                        "region": "QC"
                  },
                  "name": "Restaurant Pho Tay Ho",
                  "popularity": 0.944525927327782,
                  "price": 1,
                  "rating": 8.5
            },
            {
                  "distance": 25,
                  "location": {
                        "address": "1290 Beaubien Rue E",
                        "country": "CA",
                        "cross_street": "",
                        "formatted_address": "1290 Beaubien Rue E, Montr\u00e9al QC H2S 1T9",
                        "locality": "Montreal",
                        "postcode": "H2S 1T9",
                        "region": "QC"
                  },
                  "name": "Vinvinvin",
                  "popularity": 0.9328751892505678,
                  "price": 2,
                  "rating": 8.4
            },
            {
                  "distance": 646,
                  "location": {
                        "address": "520 Beaubien Rue E",
                        "country": "CA",
                        "cross_street": "De Chateaubriand",
                        "formatted_address": "520 Beaubien Rue E (De Chateaubriand), Montr\u00e9al QC H2S 1S5",
                        "locality": "Montreal",
                        "postcode": "H2S 1S5",
                        "region": "QC"
                  },
                  "name": "Restaurant El Chalateco",
                  "popularity": 0.9479679220287661,
                  "rating": 8.2
            },
            {
                  "distance": 345,
                  "location": {
                        "address": "1309 Saint-Zotique Rue E",
                        "country": "CA",
                        "cross_street": "coin Chambord",
                        "formatted_address": "1309 Saint-Zotique Rue E (coin Chambord), Montr\u00e9al QC H2G 1G6",
                        "locality": "Montreal",
                        "postcode": "H2G 1G6",
                        "region": "QC"
                  },
                  "name": "Bar le Jockey",
                  "popularity": 0.9420538417865254,
                  "price": 2,
                  "rating": 8.2
            },
            {
                  "distance": 573,
                  "location": {
                        "address": "1898 Beaubien Rue E",
                        "country": "CA",
                        "cross_street": "Chabot",
                        "formatted_address": "1898 Beaubien Rue E (Chabot), Montr\u00e9al QC H2G 1L9",
                        "locality": "Montreal",
                        "postcode": "H2G 1L9",
                        "region": "QC"
                  },
                  "name": "Sushi Itamea",
                  "popularity": 0.9421366389099167,
                  "price": 2,
                  "rating": 8.0
            },
            {
                  "distance": 673,
                  "location": {
                        "address": "5938 Saint-Hubert Rue",
                        "country": "CA",
                        "cross_street": "",
                        "formatted_address": "5938 Saint-Hubert Rue, Montr\u00e9al QC H2S 2L7",
                        "locality": "Montreal",
                        "postcode": "H2S 2L7",
                        "region": "QC"
                  },
                  "name": "Restaurant Casa Alentejo",
                  "popularity": 0.9143522899318698,
                  "price": 2,
                  "rating": 7.9
            },
            {
                  "distance": 910,
                  "location": {
                        "address": "351 Rue de Bellechasse",
                        "country": "CA",
                        "cross_street": "btwn Drolet & St-Denis",
                        "formatted_address": "351 Rue de Bellechasse (btwn Drolet & St-Denis), Montr\u00e9al QC H2S 1X1",
                        "locality": "Montreal",
                        "postcode": "H2S 1X1",
                        "region": "QC"
                  },
                  "name": "Elio Pizzeria",
                  "popularity": 0.9754683951551855,
                  "price": 1,
                  "rating": 7.9
            },
            {
                  "distance": 432,
                  "location": {
                        "address": "913 Beaubien Rue E",
                        "country": "CA",
                        "cross_street": "coin Saint-Andr\u00e9",
                        "formatted_address": "913 Beaubien Rue E (coin Saint-Andr\u00e9), Montr\u00e9al QC H2S 1T2",
                        "locality": "Montreal",
                        "postcode": "H2S 1T2",
                        "region": "QC"
                  },
                  "name": "Nacho Libre",
                  "popularity": 0.9517765897047691,
                  "price": 2,
                  "rating": 7.9
            },
            {
                  "distance": 527,
                  "location": {
                        "address": "6289 Saint-Hubert Rue",
                        "country": "CA",
                        "cross_street": "",
                        "formatted_address": "6289 Saint-Hubert Rue, Montr\u00e9al QC H2S 2L9",
                        "locality": "Montreal",
                        "postcode": "H2S 2L9",
                        "region": "QC"
                  },
                  "name": "Nestor",
                  "popularity": 0.931160105980318,
                  "price": 2,
                  "rating": 7.8
            },
            {
                  "distance": 830,
                  "location": {
                        "address": "414 Saint-Zotique Rue E",
                        "country": "CA",
                        "cross_street": "St-Denis",
                        "formatted_address": "414 Saint-Zotique Rue E (St-Denis), Montr\u00e9al QC H2S 1L9",
                        "locality": "Montreal",
                        "postcode": "H2S 1L9",
                        "region": "QC"
                  },
                  "name": "Beaufort - Bistro",
                  "popularity": 0.9029144587433763,
                  "price": 2,
                  "rating": 7.7
            },
            {
                  "distance": 930,
                  "location": {
                        "address": "2316 Beaubien Rue E",
                        "country": "CA",
                        "cross_street": "Louis-H\u00e9mon",
                        "formatted_address": "2316 Beaubien Rue E (Louis-H\u00e9mon), Montr\u00e9al QC H2G 1M9",
                        "locality": "Montreal",
                        "postcode": "H2G 1M9",
                        "region": "QC"
                  },
                  "name": "Bistro Chez Roger",
                  "popularity": 0.9417817940953823,
                  "price": 2,
                  "rating": 7.7
            },
            {
                  "distance": 616,
                  "location": {
                        "address": "6705 Saint-Hubert Rue",
                        "country": "CA",
                        "cross_street": "",
                        "formatted_address": "6705 Saint-Hubert Rue, Montr\u00e9al QC H2S 2M7",
                        "locality": "Montreal",
                        "postcode": "H2S 2M7",
                        "region": "QC"
                  },
                  "name": "Le Roi du Smoked Meat",
                  "popularity": 0.9673069644208933,
                  "price": 1,
                  "rating": 7.6
            },
            {
                  "distance": 166,
                  "location": {
                        "address": "1404 Beaubien Rue E",
                        "country": "CA",
                        "cross_street": "",
                        "formatted_address": "1404 Beaubien Rue E, Montr\u00e9al QC H2G 1K9",
                        "locality": "Montreal",
                        "postcode": "H2G 1K9",
                        "region": "QC"
                  },
                  "name": "Caf\u00e9 Chiado28",
                  "popularity": 0.9532551097653293,
                  "price": 1,
                  "rating": 7.5
            },
            {
                  "distance": 609,
                  "location": {
                        "address": "5800 rue de la Roche",
                        "country": "CA",
                        "cross_street": "coin Rosemont",
                        "formatted_address": "5800 rue de la Roche (coin Rosemont), Montr\u00e9al QC H2S 2C7",
                        "locality": "Montreal",
                        "postcode": "H2S 2C7",
                        "region": "QC"
                  },
                  "name": "Le North End",
                  "popularity": 0.8863077214231643,
                  "price": 3,
                  "rating": 7.2
            },
            {
                  "distance": 940,
                  "location": {
                        "address": "350 Saint-Zotique Rue E",
                        "country": "CA",
                        "formatted_address": "350 Saint-Zotique Rue E, Montr\u00e9al QC H2S 1L7",
                        "locality": "Montreal",
                        "postcode": "H2S 1L7",
                        "region": "QC"
                  },
                  "name": "Restaurant la Carreta",
                  "popularity": 0.9261567940953823,
                  "rating": 7.1
            },
            {
                  "distance": 822,
                  "location": {
                        "address": "2200 Beaubien Rue E",
                        "country": "CA",
                        "cross_street": "At Des Erables",
                        "formatted_address": "2200 Beaubien Rue E (At Des Erables), Montr\u00e9al QC H2G 1M7",
                        "locality": "Montreal",
                        "postcode": "H2G 1M7",
                        "region": "QC"
                  },
                  "name": "Nouveau Canada",
                  "popularity": 0.9369677327781983,
                  "price": 1,
                  "rating": 7.1
            },
            {
                  "distance": 634,
                  "location": {
                        "address": "1991 Beaubien Rue E",
                        "country": "CA",
                        "cross_street": "Bordeaux",
                        "formatted_address": "1991 Beaubien Rue E (Bordeaux), Montr\u00e9al QC H2G 1M2",
                        "locality": "Montreal",
                        "postcode": "H2G 1M2",
                        "region": "QC"
                  },
                  "name": "Caf\u00e9 l'\u00c9tincelle",
                  "popularity": 0.9640660484481454,
                  "price": 1,
                  "rating": 6.9
            },
            {
                  "distance": 654,
                  "location": {
                        "address": "5363 St Zotique E",
                        "country": "CA",
                        "cross_street": "",
                        "formatted_address": "5363 St Zotique E, Montr\u00e9al QC",
                        "locality": "Montreal",
                        "region": "QC"
                  },
                  "name": "Amir",
                  "popularity": 0.9322482967448902,
                  "price": 2,
                  "rating": 6.5
            },
            {
                  "distance": 629,
                  "location": {
                        "address": "5800 Christophe-Colomb Ave",
                        "country": "CA",
                        "cross_street": "Boulevard Rosemont",
                        "formatted_address": "5800 Christophe-Colomb Ave (Boulevard Rosemont), Montr\u00e9al QC H2S 2G2",
                        "locality": "Montreal",
                        "postcode": "H2S 2G2",
                        "region": "QC"
                  },
                  "name": "Tim Hortons",
                  "popularity": 0.8799559992429977,
                  "price": 1,
                  "rating": 6.3
            },
            {
                  "distance": 562,
                  "location": {
                        "address": "1275 Rosemont Blvd",
                        "country": "CA",
                        "formatted_address": "1275 Rosemont Blvd, Montr\u00e9al QC H2S 3L9",
                        "locality": "Montreal",
                        "postcode": "H2S 3L9",
                        "region": "QC"
                  },
                  "name": "McDonald's",
                  "popularity": 0.9897449848599545,
                  "price": 1,
                  "rating": 5.4,
                  "store_id": "2964"
            },
            {
                  "distance": 64,
                  "location": {
                        "address": "1335 Beaubien Rue E",
                        "country": "CA",
                        "cross_street": "",
                        "formatted_address": "1335 Beaubien Rue E, Montr\u00e9al QC H2G 1K7",
                        "locality": "Montreal",
                        "postcode": "H2G 1K7",
                        "region": "QC"
                  },
                  "name": "La Belle Tonki",
                  "popularity": 0.9382806585919757,
                  "price": 2
            },
            {
                  "distance": 414,
                  "location": {
                        "address": "6442 Papineau Ave",
                        "country": "CA",
                        "cross_street": "Beaubien",
                        "formatted_address": "6442 Papineau Ave (Beaubien), Montr\u00e9al QC H2G 2W9",
                        "locality": "Montreal",
                        "postcode": "H2G 2W9",
                        "region": "QC"
                  },
                  "name": "Bar Paspebiac",
                  "popularity": 0.8786549015897047,
                  "price": 2
            },
            {
                  "distance": 455,
                  "location": {
                        "address": "810 Beaubien Rue E",
                        "country": "CA",
                        "cross_street": "",
                        "formatted_address": "810 Beaubien Rue E, Montr\u00e9al QC H2S 1S9",
                        "locality": "Montreal",
                        "postcode": "H2S 1S9",
                        "region": "QC"
                  },
                  "name": "Sushi Kuru",
                  "popularity": 0.9504754920514762,
                  "price": 2
            },
            {
                  "distance": 524,
                  "location": {
                        "address": "6514 Saint-Hubert Rue",
                        "country": "CA",
                        "cross_street": "",
                        "formatted_address": "6514 Saint-Hubert Rue, Montr\u00e9al QC H2S 2M3",
                        "locality": "Montreal",
                        "postcode": "H2S 2M3",
                        "region": "QC"
                  },
                  "name": "Boustan",
                  "popularity": 0.9494700984102953,
                  "price": 2
            },
            {
                  "distance": 526,
                  "location": {
                        "address": "6388 Saint Hubert Rue",
                        "country": "CA",
                        "cross_street": "",
                        "formatted_address": "6388 Saint Hubert Rue, Montr\u00e9al QC H2S 2M2",
                        "locality": "Montreal",
                        "postcode": "H2S 2M2",
                        "region": "QC"
                  },
                  "name": "Snowbird Tiki Room",
                  "popularity": 0.9359150264950795,
                  "price": 3
            }
      ],
      "context": {
            "geo_bounds": {
                  "circle": {
                        "center": {
                              "latitude": 45.53990025,
                              "longitude": -73.59936208
                        },
                        "radius": 1000
                  }
            }
      }
}