{
      "results": [
            {
                  "distance": 671,
                  "location": {
                        "address": "8870 Lajeunesse Rue",
                        "country": "CA",
                        "cross_street": "Ave Emile-Journault",
                        "formatted_address": "8870 Lajeunesse Rue (Ave Emile-Journault), Montr\u00e9al QC H2M 1R6",
                        "locality": "Montreal",
                        "postcode": "H2M 1R6",
                        "region": "QC"
                  },
                  "name": "Auberge du Dragon Rouge",
                  "popularity": 0.9823760408781226,
                  "price": 2,
                  "rating": 8.0
            },
            {
                  "distance": 811,
                  "location": {
                        "address": "9245 Lajeunesse Rue",
                        "country": "CA",
                        "cross_street": "",
                        "formatted_address": "9245 Lajeunesse Rue, Montreal QC H2M 1S3",
                        "locality": "Montreal",
                        "postcode": "H2M 1S3",
                        "region": "QC"
                  },
                  "name": "Restaurant Georgina",
                  "popularity": 0.9557745079485238,
                  "price": 1,
                  "rating": 7.8
            },
            {
                  "distance": 491,
                  "location": {
                        "address": "755 Cremazie Blvd E",
                        "country": "CA",
                        "cross_street": "Chateaubriand",
                        "formatted_address": "755 Cremazie Blvd E (Chateaubriand), Montr\u00e9al QC H2M 1M1",
                        "locality": "Montreal",
                        "postcode": "H2M 1M1",
                        "region": "QC"
                  },
                  "name": "Patate Rouge",
                  "popularity": 0.9723812452687358,
                  "price": 1,
                  "rating": 7.7
            },
            {
                  "distance": 996,
                  "location": {
                        "address": "8500 Saint-Denis Rue",
                        "country": "CA",
                        "cross_street": "coin Li\u00e8ge",
                        "formatted_address": "8500 Saint-Denis Rue (coin Li\u00e8ge), Montr\u00e9al QC H2P 2H2",
                        "locality": "Montreal",
                        "postcode": "H2P 2H2",
                        "region": "QC"
                  },
                  "name": "Caf\u00e9 in",
                  "popularity": 0.83736279333838,
                  "price": 1,
                  "rating": 7.0
            },
            {
                  "distance": 1035,
                  "location": {
                        "address": "9481 Lajeunesse Rue",
                        "country": "CA",
                        "cross_street": "coin Louvain",
                        "formatted_address": "9481 Lajeunesse Rue (coin Louvain), Montr\u00e9al QC H2M 1S5",
                        "locality": "Montreal",
                        "postcode": "H2M 1S5",
                        "region": "QC"
                  },
                  "name": "Martini Pizzeria",
                  "popularity": 0.9776211203633611,
                  "price": 1,
                  "rating": 6.8
            },
            {
                  "distance": 571,
                  "location": {
                        "address": "790 Cremazie Blvd E",
                        "country": "CA",
                        "cross_street": "coin avenue de Ch\u00e2teaubriand",
                        "formatted_address": "790 Cremazie Blvd E (coin avenue de Ch\u00e2teaubriand), Montr\u00e9al QC H2P 1G3",
                        "locality": "Montreal",
                        "postcode": "H2P 1G3",
                        "region": "QC"
                  },
                  "name": "Tim Hortons",
                  "popularity": 0.9834760598031794,
                  "price": 1,
                  "rating": 6.8
            },
            {
                  "distance": 682,
                  "location": {
                        "address": "8779 Lajeunesse Rue",
                        "country": "CA",
                        "cross_street": "at boul. Cr\u00e9mazie E",
                        "formatted_address": "8779 Lajeunesse Rue (at boul. Cr\u00e9mazie E), Montr\u00e9al QC H2M 1R7",
                        "locality": "Montreal",
                        "postcode": "H2M 1R7",
                        "region": "QC"
                  },
                  "name": "Sushi Naniyori",
                  "popularity": 0.8812452687358062,
                  "price": 2,
                  "rating": 6.6
            },
            {
                  "distance": 792,
                  "location": {
                        "address": "8400 Christophe-Colomb Ave",
                        "country": "CA",
                        "cross_street": "",
                        "formatted_address": "8400 Christophe-Colomb Ave, Montr\u00e9al QC H2P 1X3",
                        "locality": "Montreal",
                        "postcode": "H2P 1X3",
                        "region": "QC"
                  },
                  "name": "A&W Restaurant",
                  "popularity": 0.9881600113550341,
                  "price": 1,
                  "rating": 6.5,
                  "store_id": "5346"
            },
            {
                  "distance": 699,
                  "location": {
                        "address": "8753 Lajeunesse Rue",
                        "country": "CA",
                        "cross_street": "Cr\u00e9mazie",
                        "formatted_address": "8753 Lajeunesse Rue (Cr\u00e9mazie), Montr\u00e9al QC H2M 1R7",
                        "locality": "Montreal",
                        "postcode": "H2M 1R7",
                        "region": "QC"
                  },
                  "name": "Brasserie du M\u00e9tro",
                  "popularity": 0.9003004352763059,
                  "price": 1,
                  "rating": 6.5
            },
            {
                  "distance": 737,
                  "location": {
                        "address": "545 Cremazie Blvd E",
                        "country": "CA",
                        "cross_street": "coin Lajeunesse",
                        "formatted_address": "545 Cremazie Blvd E (coin Lajeunesse), Montr\u00e9al QC H2M 2V1",
                        "locality": "Montreal",
                        "postcode": "H2M 2V1",
                        "region": "QC"
                  },
                  "name": "Van Houtte",
                  "popularity": 0.9684424678274035,
                  "price": 1,
                  "rating": 5.5
            },
            {
                  "distance": 430,
                  "location": {
                        "address": "795 Legendre Rue E",
                        "country": "CA",
                        "cross_street": "",
                        "formatted_address": "795 Legendre Rue E, Montr\u00e9al QC H2M 1H1",
                        "locality": "Montreal",
                        "postcode": "H2M 1H1",
                        "region": "QC"
                  },
                  "name": "Boulangerie P\u00e2tisserie C Chaud",
                  "popularity": 0.1991625662376987,
                  "price": 2
            },
            {
                  "distance": 437,
                  "location": {
                        "address": "769 Legendre Rue E",
                        "country": "CA",
                        "cross_street": "Rue Saint-Hubert",
                        "formatted_address": "769 Legendre Rue E (Rue Saint-Hubert), Montr\u00e9al QC H2M 1H1",
                        "locality": "Montreal",
                        "postcode": "H2M 1H1",
                        "region": "QC"
                  },
                  "name": "Casa Cr\u00e9ole Inc",
                  "popularity": 0.3330336866010598,
                  "price": 2
            },
            {
                  "distance": 605,
                  "location": {
                        "address": "1420 Legendre Rue E",
                        "country": "CA",
                        "cross_street": "Andre-Grasset",
                        "formatted_address": "1420 Legendre Rue E (Andre-Grasset), Montr\u00e9al QC H2M 1H5",
                        "locality": "Montreal",
                        "postcode": "H2M 1H5",
                        "region": "QC"
                  },
                  "name": "Petit Nguyen",
                  "popularity": 0.966514477668433,
                  "price": 2
            },
            {
                  "distance": 677,
                  "location": {
                        "address": "8762 Lajeunesse Rue",
                        "country": "CA",
                        "formatted_address": "8762 Lajeunesse Rue, Montr\u00e9al QC H2M 1R6",
                        "locality": "Montreal",
                        "postcode": "H2M 1R6",
                        "region": "QC"
                  },
                  "name": "Restaurant Da Remo",
                  "popularity": 0.14357021196063588
            },
            {
                  "distance": 711,
                  "location": {
                        "address": "9100 Lajeunesse Rue",
                        "country": "CA",
                        "cross_street": "Legendre",
                        "formatted_address": "9100 Lajeunesse Rue (Legendre), Montr\u00e9al QC",
                        "locality": "Montreal",
                        "region": "QC"
                  },
                  "name": "Ono Sushi",
                  "popularity": 0.9068295798637396,
                  "price": 2
            },
            {
                  "distance": 715,
                  "location": {
                        "address": "8899 Berri Rue",
                        "country": "CA",
                        "cross_street": "",
                        "formatted_address": "8899 Berri Rue, Montr\u00e9al QC H2M 1P5",
                        "locality": "Montreal",
                        "postcode": "H2M 1P5",
                        "region": "QC"
                  },
                  "name": "Tasty",
                  "popularity": 0.9246309613928841,
                  "price": 1
            },
            {
                  "distance": 998,
                  "location": {
                        "country": "CA",
                        "cross_street": "",
                        "formatted_address": "Montr\u00e9al QC",
                        "locality": "Montreal",
                        "region": "QC"
                  },
                  "name": "Le Off Miss Villeray",
                  "popularity": 0.8105246971990916,
                  "price": 3
            },
            {
                  "distance": 442,
                  "location": {
                        "address": "757 Legendre Rue E",
                        "country": "CA",
                        "formatted_address": "757 Legendre Rue E, Montreal QC H2M 1H1",
                        "locality": "Montreal",
                        "postcode": "H2M 1H1",
                        "region": "QC"
                  },
                  "name": "Sushi Prestige"
            },
            {
                  "distance": 667,
                  "location": {
                        "address": "9005 Lajeunesse Rue",
                        "country": "CA",
                        "formatted_address": "9005 Lajeunesse Rue, Montreal QC H2M 1S1",
                        "locality": "Montreal",
                        "postcode": "H2M 1S1",
                        "region": "QC"
                  },
                  "name": "Lam"
            },
            {
                  "distance": 670,
                  "location": {
                        "address": "9031 Lajeunesse Rue",
                        "country": "CA",
                        "formatted_address": "9031 Lajeunesse Rue, Montreal QC H2M 1S1",
                        "locality": "Montreal",
                        "postcode": "H2M 1S1",
                        "region": "QC"
                  },
                  "name": "Escudo"
            },
            {
                  "distance": 683,
                  "location": {
                        "address": "8998 Lajeunesse Rue",
                        "country": "CA",
                        "formatted_address": "8998 Lajeunesse Rue, Montreal QC H2M 1R9",
                        "locality": "Montreal",
                        "postcode": "H2M 1R9",
                        "region": "QC"
                  },
                  "name": "Resto Bar Don Mario"
            },
            {
                  "distance": 782,
                  "location": {
                        "address": "9183 Lajeunesse Rue",
                        "country": "CA",
                        "formatted_address": "9183 Lajeunesse Rue, Montreal QC H2M 1S3",
                        "locality": "Montreal",
                        "postcode": "H2M 1S3",
                        "region": "QC"
                  },
                  "name": "Bistro Lajeunesse Inc"
            },
            {
                  "distance": 791,
                  "location": {
                        "address": "8400 Christophe-Colomb Ave",
                        "country": "CA",
                        "formatted_address": "8400 Christophe-Colomb Ave, Montreal QC H2P 1X3",
                        "locality": "Montreal",
                        "postcode": "H2P 1X3",
                        "region": "QC"
                  },
                  "name": "A & W Christophe Colomb"
            },
            {
                  "distance": 893,
                  "location": {
                        "address": "8591 Saint-Denis Rue",
                        "country": "CA",
                        "formatted_address": "8591 Saint-Denis Rue, Montreal QC H2P 2H4",
                        "locality": "Montreal",
                        "postcode": "H2P 2H4",
                        "region": "QC"
                  },
                  "name": "Damsar Inc"
            },
            {
                  "distance": 926,
                  "location": {
                        "address": "1501 Blvd Cr\u00e9mazie E",
                        "country": "CA",
                        "formatted_address": "1501 Blvd Cr\u00e9mazie E, Montreal QC H2M 2N9",
                        "locality": "Montreal",
                        "postcode": "H2M 2N9",
                        "region": "QC"
                  },
                  "name": "L'Oeufrier Cremazie"
            },
            {
                  "distance": 936,
                  "location": {
                        "address": "410 Chabanel Rue O",
                        "country": "CA",
                        "formatted_address": "410 Chabanel Rue O, Montreal QC H2N 1G7",
                        "locality": "Montreal",
                        "postcode": "H2N 1G7",
                        "region": "QC"
                  },
                  "name": "Fashion Bistro"
            }
      ],
      "context": {
            "geo_bounds": {
                  "circle": {
                        "center": {
                              "latitude": 45.55298555,
                              "longitude": -73.63864772
                        },
                        "radius": 1000
                  }
            }
      }
}