{
      "results": [
            {
                  "distance": 812,
                  "location": {
                        "address": "6180 Henri-Bourassa Blvd E",
                        "country": "CA",
                        "cross_street": "",
                        "formatted_address": "6180 Henri-Bourassa Blvd E, Montr\u00e9al QC H1G 5X3",
                        "locality": "Montreal",
                        "postcode": "H1G 5X3",
                        "region": "QC"
                  },
                  "name": "D\u00e9jeuner Eggcetera",
                  "popularity": 0.951504542013626,
                  "price": 1,
                  "rating": 6.3
            },
            {
                  "distance": 727,
                  "location": {
                        "address": "6150 Henri-Bourassa Blvd E",
                        "country": "CA",
                        "formatted_address": "6150 Henri-Bourassa Blvd E, Montreal-Nord QC H1G 5X3",
                        "locality": "Montr\u00e9al-Nord",
                        "postcode": "H1G 5X3",
                        "region": "QC"
                  },
                  "name": "Burger King",
                  "popularity": 0.9811932248296745,
                  "price": 1,
                  "rating": 6.1,
                  "store_id": "8667"
            },
            {
                  "distance": 999,
                  "location": {
                        "address": "6140 Henri-Bourassa Blvd E",
                        "country": "CA",
                        "cross_street": "",
                        "formatted_address": "6140 Henri-Bourassa Blvd E, Montreal-Nord QC H1G 5X3",
                        "locality": "Montr\u00e9al-Nord",
                        "postcode": "H1G 5X3",
                        "region": "QC"
                  },
                  "name": "McDonald's",
                  "popularity": 0.9731737320211961,
                  "price": 1,
                  "rating": 5.8,
                  "store_id": "29710"
            },
            {
                  "distance": 559,
                  "location": {
                        "address": "7000 Maurice du Plessis Blvd",
                        "country": "CA",
                        "cross_street": "Coin Albert-Hudon",
                        "formatted_address": "7000 Maurice du Plessis Blvd (Coin Albert-Hudon), Montr\u00e9al QC H1G 0A1",
                        "locality": "Montreal",
                        "postcode": "H1G 0A1",
                        "region": "QC"
                  },
                  "name": "Resto Capucine",
                  "popularity": 0.9956472369417109,
                  "price": 2
            },
            {
                  "distance": 609,
                  "location": {
                        "address": "7000 Marie-Victorin Rue",
                        "country": "CA",
                        "cross_street": "",
                        "formatted_address": "7000 Marie-Victorin Rue, Montr\u00e9al QC H1G 2J6",
                        "locality": "Montreal",
                        "postcode": "H1G 2J6",
                        "region": "QC"
                  },
                  "name": "Caf\u00e9 l'Exil",
                  "popularity": 0.8845926381529144,
                  "price": 1
            },
            {
                  "distance": 661,
                  "location": {
                        "address": "6035 Henri-Bourassa Blvd E",
                        "country": "CA",
                        "cross_street": "",
                        "formatted_address": "6035 Henri-Bourassa Blvd E, Montr\u00e9al QC H1G 2V2",
                        "locality": "Montreal",
                        "postcode": "H1G 2V2",
                        "region": "QC"
                  },
                  "name": "KFC",
                  "popularity": 0.3406746782740348,
                  "price": 1
            },
            {
                  "distance": 787,
                  "location": {
                        "address": "6057 Henri-Bourassa Blvd E",
                        "country": "CA",
                        "cross_street": "Henri-Bourassa",
                        "formatted_address": "6057 Henri-Bourassa Blvd E (Henri-Bourassa), Montreal-Nord QC H1G 2V2",
                        "locality": "Montr\u00e9al-Nord",
                        "postcode": "H1G 2V2",
                        "region": "QC"
                  },
                  "name": "Domino's Pizza",
                  "popularity": 0.9616412755488266,
                  "price": 1,
                  "store_id": "10716"
            },
            {
                  "distance": 818,
                  "location": {
                        "address": "6061 Henri-Bourassa Blvd E",
                        "country": "CA",
                        "cross_street": "at Blvd. Rolland",
                        "formatted_address": "6061 Henri-Bourassa Blvd E (at Blvd. Rolland), Montr\u00e9al QC H1G 2V2",
                        "locality": "Montreal",
                        "postcode": "H1G 2V2",
                        "region": "QC"
                  },
                  "name": "Yori Sushi",
                  "popularity": 0.9793598599545799,
                  "price": 2
            },
            {
                  "distance": 848,
                  "location": {
                        "address": "6033 Henri-Bourassa Blvd E",
                        "country": "CA",
                        "cross_street": "",
                        "formatted_address": "6033 Henri-Bourassa Blvd E, Montr\u00e9al QC H1G 2V2",
                        "locality": "Montreal",
                        "postcode": "H1G 2V2",
                        "region": "QC"
                  },
                  "name": "Patisserie la Saveur",
                  "popularity": 0.6260527062831188,
                  "price": 1
            },
            {
                  "distance": 901,
                  "location": {
                        "address": "6144 Henri-Bourassa Blvd E",
                        "country": "CA",
                        "cross_street": "",
                        "formatted_address": "6144 Henri-Bourassa Blvd E, Montreal-Nord QC H1G 5X3",
                        "locality": "Montreal-Nord",
                        "postcode": "H1G 5X3",
                        "region": "QC"
                  },
                  "name": "La Belle Province",
                  "popularity": 0.7623485995457986,
                  "price": 1
            },
            {
                  "distance": 907,
                  "location": {
                        "address": "12275 Rolland Blvd",
                        "country": "CA",
                        "cross_street": "Rue Pierre",
                        "formatted_address": "12275 Rolland Blvd (Rue Pierre), Montreal-Nord QC H1G 6A1",
                        "locality": "Montr\u00e9al-Nord",
                        "postcode": "H1G 6A1",
                        "region": "QC"
                  },
                  "name": "Ice et Tacos",
                  "popularity": 0.22669852384557154,
                  "price": 2
            },
            {
                  "distance": 312,
                  "location": {
                        "address": "6365 rue de Dijon",
                        "country": "CA",
                        "formatted_address": "6365 rue de Dijon, Montreal-Nord QC H1G 2L9",
                        "locality": "Montreal-Nord",
                        "postcode": "H1G 2L9",
                        "region": "QC"
                  },
                  "name": "Restaurant Fuzion"
            },
            {
                  "distance": 318,
                  "location": {
                        "address": "11810 Langelier Blvd",
                        "country": "CA",
                        "formatted_address": "11810 Langelier Blvd, Montreal-Nord QC H1G 3M3",
                        "locality": "Montreal-Nord",
                        "postcode": "H1G 3M3",
                        "region": "QC"
                  },
                  "name": "Mon Ami Drive in"
            },
            {
                  "distance": 336,
                  "location": {
                        "address": "6365 Rue de Dijon",
                        "country": "CA",
                        "formatted_address": "6365 Rue de Dijon, Montreal-Nord QC H1G 2L9",
                        "locality": "Montreal-Nord",
                        "postcode": "H1G 2L9",
                        "region": "QC"
                  },
                  "name": "Resto Celta"
            },
            {
                  "distance": 341,
                  "location": {
                        "address": "11835 Langelier Blvd",
                        "country": "CA",
                        "formatted_address": "11835 Langelier Blvd, Montreal-Nord QC H1G 6G6",
                        "locality": "Montreal-Nord",
                        "postcode": "H1G 6G6",
                        "region": "QC"
                  },
                  "name": "Hollywood Diner"
            },
            {
                  "distance": 355,
                  "location": {
                        "address": "6353 Rue de Dijon",
                        "country": "CA",
                        "formatted_address": "6353 Rue de Dijon, Montreal-Nord QC H1G 2L9",
                        "locality": "Montreal-Nord",
                        "postcode": "H1G 2L9",
                        "region": "QC"
                  },
                  "name": "Pizzeria Migusto"
            },
            {
                  "distance": 464,
                  "location": {
                        "address": "6711 Henri Bourassa Blvd Est N",
                        "country": "CA",
                        "formatted_address": "6711 Henri Bourassa Blvd Est N, Montreal-Nord QC H1G 2V6",
                        "locality": "Montreal-Nord",
                        "postcode": "H1G 2V6",
                        "region": "QC"
                  },
                  "name": "Piano Bar la Belle Epoque"
            },
            {
                  "distance": 531,
                  "location": {
                        "address": "6363 Henri-Bourassa Blvd E",
                        "country": "CA",
                        "formatted_address": "6363 Henri-Bourassa Blvd E, Montreal-Nord QC H1G 2V5",
                        "locality": "Montreal-Nord",
                        "postcode": "H1G 2V5",
                        "region": "QC"
                  },
                  "name": "La Veranda"
            },
            {
                  "distance": 536,
                  "location": {
                        "address": "6767 Henri-Bourassa Blvd E",
                        "country": "CA",
                        "formatted_address": "6767 Henri-Bourassa Blvd E, Montreal-Nord QC H1G 2V6",
                        "locality": "Montreal-Nord",
                        "postcode": "H1G 2V6",
                        "region": "QC"
                  },
                  "name": "Ecaf\u00e9"
            },
            {
                  "distance": 554,
                  "location": {
                        "address": "7000 Maurice-Duplessis Blvd",
                        "country": "CA",
                        "formatted_address": "7000 Maurice-Duplessis Blvd, Montreal QC",
                        "locality": "Montreal",
                        "region": "QC"
                  },
                  "name": "Resto-bar Capucine - Nord-Est de Montr\u00e9al"
            },
            {
                  "distance": 629,
                  "location": {
                        "address": "6227 Henri-Bourassa Blvd E",
                        "country": "CA",
                        "formatted_address": "6227 Henri-Bourassa Blvd E, Montreal-Nord QC H1G 2V2",
                        "locality": "Montreal-Nord",
                        "postcode": "H1G 2V2",
                        "region": "QC"
                  },
                  "name": "Cafe Motta"
            },
            {
                  "distance": 701,
                  "location": {
                        "address": "6101 Henri-Bourassa Blvd E",
                        "country": "CA",
                        "formatted_address": "6101 Henri-Bourassa Blvd E, Montreal-Nord QC H1G 2V2",
                        "locality": "Montreal-Nord",
                        "postcode": "H1G 2V2",
                        "region": "QC"
                  },
                  "name": "Casse-Cro\u00fbte D\u00e9lices Antillais"
            },
            {
                  "distance": 791,
                  "location": {
                        "address": "6047 Henri-Bourassa Blvd E",
                        "country": "CA",
                        "formatted_address": "6047 Henri-Bourassa Blvd E, Montreal-Nord QC H1G 2V2",
                        "locality": "Montreal-Nord",
                        "postcode": "H1G 2V2",
                        "region": "QC"
                  },
                  "name": "French Takos"
            },
            {
                  "distance": 792,
                  "location": {
                        "address": "6130 Henri Bourassa Blvd E",
                        "country": "CA",
                        "formatted_address": "6130 Henri Bourassa Blvd E, Montreal-Nord QC H1G 5X3",
                        "locality": "Montreal-Nord",
                        "postcode": "H1G 5X3",
                        "region": "QC"
                  },
                  "name": "Tim Hortons"
            },
            {
                  "distance": 828,
                  "location": {
                        "address": "6057 Henri-Bourassa Blvd E",
                        "country": "CA",
                        "formatted_address": "6057 Henri-Bourassa Blvd E, Montreal-Nord QC H1G 2V2",
                        "locality": "Montreal-Nord",
                        "postcode": "H1G 2V2",
                        "region": "QC"
                  },
                  "name": "9318-4232Quebec Inc"
            },
            {
                  "distance": 881,
                  "location": {
                        "address": "12265 Rolland Blvd",
                        "country": "CA",
                        "formatted_address": "12265 Rolland Blvd, Montreal-Nord QC H1G 6A1",
                        "locality": "Montreal-Nord",
                        "postcode": "H1G 6A1",
                        "region": "QC"
                  },
                  "name": "Restaurant Chez Mamie"
            },
            {
                  "distance": 900,
                  "location": {
                        "address": "12265 Rolland Blvd",
                        "country": "CA",
                        "formatted_address": "12265 Rolland Blvd, Montreal-Nord QC H1G 6A1",
                        "locality": "Montreal-Nord",
                        "postcode": "H1G 6A1",
                        "region": "QC"
                  },
                  "name": "Restaurant la Citadelle du Cap"
            },
            {
                  "distance": 912,
                  "location": {
                        "address": "6000 Henri-Bourassa Blvd E",
                        "address_extended": "# 106",
                        "country": "CA",
                        "formatted_address": "6000 Henri-Bourassa Blvd E, Montreal-Nord QC H1G 2T6",
                        "locality": "Montreal-Nord",
                        "postcode": "H1G 2T6",
                        "region": "QC"
                  },
                  "name": "Pizza 7 Etoiles"
            },
            {
                  "distance": 921,
                  "location": {
                        "address": "12275 Rolland Blvd",
                        "country": "CA",
                        "formatted_address": "12275 Rolland Blvd, Montreal-Nord QC H1G 6A1",
                        "locality": "Montreal-Nord",
                        "postcode": "H1G 6A1",
                        "region": "QC"
                  },
                  "name": "9319-7853 Qu\u00e9bec Inc"
            },
            {
                  "distance": 980,
                  "location": {
                        "address": "5815 Henri-Bourassa Blvd E",
                        "country": "CA",
                        "formatted_address": "5815 Henri-Bourassa Blvd E, Montreal-Nord QC H1G 2V1",
                        "locality": "Montreal-Nord",
                        "postcode": "H1G 2V1",
                        "region": "QC"
                  },
                  "name": "Harvey's"
            }
      ],
      "context": {
            "geo_bounds": {
                  "circle": {
                        "center": {
                              "latitude": 45.61451982,
                              "longitude": -73.61187458
                        },
                        "radius": 1000
                  }
            }
      }
}