{
      "results": [
            {
                  "distance": 121,
                  "location": {
                        "address": "5185 Rue de Charleroi",
                        "country": "CA",
                        "cross_street": "",
                        "formatted_address": "5185 Rue de Charleroi, Montreal-Nord QC H1G 3A2",
                        "locality": "Montr\u00e9al-Nord",
                        "postcode": "H1G 3A2",
                        "region": "QC"
                  },
                  "name": "Da Bologna",
                  "popularity": 0.9846588758516276,
                  "price": 2,
                  "rating": 7.5
            },
            {
                  "distance": 608,
                  "location": {
                        "address": "H1G MONTR\u00e9AL",
                        "country": "CA",
                        "formatted_address": "H1G MONTR\u00e9AL, Montr\u00e9al QC H1G 2T1",
                        "locality": "Montreal",
                        "postcode": "H1G 2T1",
                        "region": "QC"
                  },
                  "name": "Buona Sera",
                  "popularity": 0.9930805261165784,
                  "price": 2,
                  "rating": 7.3
            },
            {
                  "distance": 963,
                  "location": {
                        "address": "9375 Lacordaire Blvd",
                        "country": "CA",
                        "cross_street": "Couture",
                        "formatted_address": "9375 Lacordaire Blvd (Couture), Montr\u00e9al QC H1R 2B6",
                        "locality": "Montreal",
                        "postcode": "H1R 2B6",
                        "region": "QC"
                  },
                  "name": "McDonald's",
                  "popularity": 0.9983085730507192,
                  "price": 1,
                  "rating": 6.7,
                  "store_id": "40522"
            },
            {
                  "distance": 415,
                  "location": {
                        "address": "4960 Rue de Charleroi",
                        "country": "CA",
                        "cross_street": "",
                        "formatted_address": "4960 Rue de Charleroi, Montr\u00e9al QC H1G 2Z1",
                        "locality": "Montreal",
                        "postcode": "H1G 2Z1",
                        "region": "QC"
                  },
                  "name": "Double Pizza",
                  "popularity": 0.9755157077971234,
                  "price": 1
            },
            {
                  "distance": 539,
                  "location": {
                        "address": "4880 rue de Charleroi",
                        "country": "CA",
                        "cross_street": "",
                        "formatted_address": "4880 rue de Charleroi, Montreal-Nord QC H1G 2Y7",
                        "locality": "Montr\u00e9al-Nord",
                        "postcode": "H1G 2Y7",
                        "region": "QC"
                  },
                  "name": "Trattoria Del Sud",
                  "popularity": 0.8094956472369417,
                  "price": 2
            },
            {
                  "distance": 624,
                  "location": {
                        "address": "10848 Moisan Ave",
                        "country": "CA",
                        "cross_street": "",
                        "formatted_address": "10848 Moisan Ave, Montreal-Nord QC H1G 4N7",
                        "locality": "Montr\u00e9al-Nord",
                        "postcode": "H1G 4N7",
                        "region": "QC"
                  },
                  "name": "Caf\u00e9 Brossard",
                  "popularity": 0.6359528766086299,
                  "price": 1
            },
            {
                  "distance": 662,
                  "location": {
                        "address": "5195 Henri-Bourassa Blvd E",
                        "country": "CA",
                        "cross_street": "",
                        "formatted_address": "5195 Henri-Bourassa Blvd E, Montr\u00e9al QC H1G 2S7",
                        "locality": "Montreal",
                        "postcode": "H1G 2S7",
                        "region": "QC"
                  },
                  "name": "Queues de Castor",
                  "popularity": 0.2775359576078728,
                  "price": 1
            },
            {
                  "distance": 698,
                  "location": {
                        "address": "4741 rue de Charleroi",
                        "country": "CA",
                        "formatted_address": "4741 rue de Charleroi, Montreal-Nord QC H1H 1V3",
                        "locality": "Montr\u00e9al-Nord",
                        "postcode": "H1H 1V3",
                        "region": "QC"
                  },
                  "name": "Bar Lindberg",
                  "popularity": 0.907551097653293,
                  "price": 2
            },
            {
                  "distance": 762,
                  "location": {
                        "address": "11245 Lacordaire Blvd",
                        "country": "CA",
                        "cross_street": "Boul Lacordaire",
                        "formatted_address": "11245 Lacordaire Blvd (Boul Lacordaire), Montreal-Nord QC H1G 4J7",
                        "locality": "Montr\u00e9al-Nord",
                        "postcode": "H1G 4J7",
                        "region": "QC"
                  },
                  "name": "Harvey's",
                  "popularity": 0.9366247161241483,
                  "price": 2,
                  "store_id": "2675"
            },
            {
                  "distance": 946,
                  "location": {
                        "address": "9374 Lacordaire Blvd",
                        "country": "CA",
                        "cross_street": "",
                        "formatted_address": "9374 Lacordaire Blvd, Montr\u00e9al QC H1R 2B7",
                        "locality": "Montreal",
                        "postcode": "H1R 2B7",
                        "region": "QC"
                  },
                  "name": "Restaurant la Belle Province",
                  "popularity": 0.9807200984102953,
                  "price": 1
            },
            {
                  "distance": 126,
                  "location": {
                        "address": "5185 Rue de Charleroi -Nord",
                        "country": "CA",
                        "formatted_address": "5185 Rue de Charleroi -Nord, Montreal-Nord QC H1G 3A2",
                        "locality": "Montreal-Nord",
                        "postcode": "H1G 3A2",
                        "region": "QC"
                  },
                  "name": "Pizzeria Da Bologna"
            },
            {
                  "distance": 401,
                  "location": {
                        "address": "4979 rue de Charleroi",
                        "country": "CA",
                        "formatted_address": "4979 rue de Charleroi, Montreal-Nord QC H1G 2Z2",
                        "locality": "Montreal-Nord",
                        "postcode": "H1G 2Z2",
                        "region": "QC"
                  },
                  "name": "Caf\u00e9 et P\u00e2tisserie Guloglu Baklava"
            },
            {
                  "distance": 471,
                  "location": {
                        "address": "5700 Industriel Blvd",
                        "country": "CA",
                        "formatted_address": "5700 Industriel Blvd, Montreal-Nord QC H1G 3H9",
                        "locality": "Montreal-Nord",
                        "postcode": "H1G 3H9",
                        "region": "QC"
                  },
                  "name": "Brasserie Bourget 2000"
            },
            {
                  "distance": 582,
                  "location": {
                        "address": "5158 Henri-Bourassa Blvd E",
                        "country": "CA",
                        "formatted_address": "5158 Henri-Bourassa Blvd E, Montreal-Nord QC",
                        "locality": "Montreal-Nord",
                        "region": "QC"
                  },
                  "name": "Restaurant Trouvaille Creole"
            },
            {
                  "distance": 592,
                  "location": {
                        "address": "5158 Henri-Bourassa Blvd E",
                        "country": "CA",
                        "formatted_address": "5158 Henri-Bourassa Blvd E, Montreal-Nord QC H1G 2S6",
                        "locality": "Montreal-Nord",
                        "postcode": "H1G 2S6",
                        "region": "QC"
                  },
                  "name": "Phat Grill Resto-Bar"
            },
            {
                  "distance": 595,
                  "location": {
                        "address": "11442 Lamoureux Ave",
                        "country": "CA",
                        "formatted_address": "11442 Lamoureux Ave, Montreal-Nord QC H1G 5M2",
                        "locality": "Montreal-Nord",
                        "postcode": "H1G 5M2",
                        "region": "QC"
                  },
                  "name": "Faivre Italian Restaurant"
            },
            {
                  "distance": 654,
                  "location": {
                        "address": "5337 Henri-Bourassa Blvd E",
                        "country": "CA",
                        "formatted_address": "5337 Henri-Bourassa Blvd E, Montreal-Nord QC H1G 2T1",
                        "locality": "Montreal-Nord",
                        "postcode": "H1G 2T1",
                        "region": "QC"
                  },
                  "name": "Restaurant Buona Sera Pizza Restrnt"
            },
            {
                  "distance": 685,
                  "location": {
                        "address": "9468 Lacordaire Blvd",
                        "country": "CA",
                        "formatted_address": "9468 Lacordaire Blvd, Saint-Leonard QC H1R 0C4",
                        "locality": "Saint-Leonard",
                        "postcode": "H1R 0C4",
                        "region": "QC"
                  },
                  "name": "Ojo Sushi"
            },
            {
                  "distance": 704,
                  "location": {
                        "address": "4741 Rue de Charleroi -Nord",
                        "country": "CA",
                        "formatted_address": "4741 Rue de Charleroi -Nord, Montreal-Nord QC H1H 1V3",
                        "locality": "Montreal-Nord",
                        "postcode": "H1H 1V3",
                        "region": "QC"
                  },
                  "name": "Brasserie Charleroi"
            },
            {
                  "distance": 712,
                  "location": {
                        "address": "10701 Bellevois Ave",
                        "country": "CA",
                        "formatted_address": "10701 Bellevois Ave, Montreal-Nord QC H1H 3C7",
                        "locality": "Montreal-Nord",
                        "postcode": "H1H 3C7",
                        "region": "QC"
                  },
                  "name": "Resto la Spirale"
            },
            {
                  "distance": 713,
                  "location": {
                        "address": "5047 Henri-Bourassa Blvd E",
                        "country": "CA",
                        "formatted_address": "5047 Henri-Bourassa Blvd E, Montreal-Nord QC H1G 2S1",
                        "locality": "Montreal-Nord",
                        "postcode": "H1G 2S1",
                        "region": "QC"
                  },
                  "name": "Restaurant Nouveau Kum Mon Inc"
            },
            {
                  "distance": 805,
                  "location": {
                        "address": "4668 Rue de Charleroi",
                        "country": "CA",
                        "formatted_address": "4668 Rue de Charleroi, Montreal-Nord QC H1H 1T7",
                        "locality": "Montreal-Nord",
                        "postcode": "H1H 1T7",
                        "region": "QC"
                  },
                  "name": "Restaurant Granada"
            },
            {
                  "distance": 812,
                  "location": {
                        "address": "5626 Henri-Bourassa Blvd E",
                        "country": "CA",
                        "formatted_address": "5626 Henri-Bourassa Blvd E, Montreal-Nord QC H1G 2T2",
                        "locality": "Montreal-Nord",
                        "postcode": "H1G 2T2",
                        "region": "QC"
                  },
                  "name": "Belle Province"
            },
            {
                  "distance": 820,
                  "location": {
                        "address": "5695 des Grandes Prairies Blvd",
                        "country": "CA",
                        "formatted_address": "5695 des Grandes Prairies Blvd, Saint-Leonard QC H1R 1B3",
                        "locality": "Saint-Leonard",
                        "postcode": "H1R 1B3",
                        "region": "QC"
                  },
                  "name": "Delicouki"
            },
            {
                  "distance": 832,
                  "location": {
                        "address": "4711 d'Amiens Rue",
                        "country": "CA",
                        "formatted_address": "4711 d'Amiens Rue, Montreal-Nord QC H1H 2H9",
                        "locality": "Montreal-Nord",
                        "postcode": "H1H 2H9",
                        "region": "QC"
                  },
                  "name": "Via Pizza"
            },
            {
                  "distance": 878,
                  "location": {
                        "address": "5505 des Grandes-Prairies Blvd",
                        "country": "CA",
                        "formatted_address": "5505 des Grandes-Prairies Blvd, Saint-Leonard QC H1R 1B3",
                        "locality": "Saint-Leonard",
                        "postcode": "H1R 1B3",
                        "region": "QC"
                  },
                  "name": "Mpm Wharehousing & Dist"
            },
            {
                  "distance": 930,
                  "location": {
                        "address": "5815 Henri-Bourassa Blvd E",
                        "country": "CA",
                        "formatted_address": "5815 Henri-Bourassa Blvd E, Montreal-Nord QC H1G 2V1",
                        "locality": "Montreal-Nord",
                        "postcode": "H1G 2V1",
                        "region": "QC"
                  },
                  "name": "Harvey's"
            },
            {
                  "distance": 985,
                  "location": {
                        "address": "6000 Henri-Bourassa Blvd E",
                        "address_extended": "# 106",
                        "country": "CA",
                        "formatted_address": "6000 Henri-Bourassa Blvd E, Montreal-Nord QC H1G 2T6",
                        "locality": "Montreal-Nord",
                        "postcode": "H1G 2T6",
                        "region": "QC"
                  },
                  "name": "Pizza 7 Etoiles"
            }
      ],
      "context": {
            "geo_bounds": {
                  "circle": {
                        "center": {
                              "latitude": 45.59953472,
                              "longitude": -73.62360254
                        },
                        "radius": 1000
                  }
            }
      }
}