{
      "results": [
            {
                  "distance": 384,
                  "location": {
                        "address": "3353 Masson Rue",
                        "country": "CA",
                        "cross_street": "",
                        "formatted_address": "3353 Masson Rue, Montr\u00e9al QC H1X 1R5",
                        "locality": "Montreal",
                        "postcode": "H1X 1R5",
                        "region": "QC"
                  },
                  "name": "Maesmi",
                  "popularity": 0.9623154806964421,
                  "price": 1,
                  "rating": 8.9
            },
            {
                  "distance": 878,
                  "location": {
                        "address": "2440 Rosemont Blvd",
                        "country": "CA",
                        "cross_street": "",
                        "formatted_address": "2440 Rosemont Blvd, Montr\u00e9al QC H2G 1V2",
                        "locality": "Montreal",
                        "postcode": "H2G 1V2",
                        "region": "QC"
                  },
                  "name": "Pub Rosemont",
                  "popularity": 0.9464539174867524,
                  "price": 3,
                  "rating": 8.2
            },
            {
                  "distance": 290,
                  "location": {
                        "address": "3188 Masson Rue",
                        "country": "CA",
                        "cross_street": "coin 10e avenue",
                        "formatted_address": "3188 Masson Rue (coin 10e avenue), Montr\u00e9al QC H1Y 1Y1",
                        "locality": "Montreal",
                        "postcode": "H1Y 1Y1",
                        "region": "QC"
                  },
                  "name": "La Succursale",
                  "popularity": 0.9643262679788039,
                  "price": 2,
                  "rating": 8.2
            },
            {
                  "distance": 449,
                  "location": {
                        "address": "2656 Masson Rue",
                        "country": "CA",
                        "cross_street": "coin 2e Avenue",
                        "formatted_address": "2656 Masson Rue (coin 2e Avenue), Montr\u00e9al QC H1Y 1W2",
                        "locality": "Montreal",
                        "postcode": "H1Y 1W2",
                        "region": "QC"
                  },
                  "name": "La Distillerie No 3",
                  "popularity": 0.9212007948523846,
                  "price": 2,
                  "rating": 8.1
            },
            {
                  "distance": 510,
                  "location": {
                        "address": "2618 Masson Rue",
                        "country": "CA",
                        "cross_street": "",
                        "formatted_address": "2618 Masson Rue, Montr\u00e9al QC H1Y 3E5",
                        "locality": "Montreal",
                        "postcode": "H1Y 3E5",
                        "region": "QC"
                  },
                  "name": "La Cr\u00e9mi\u00e8re",
                  "popularity": 0.8805474072672218,
                  "price": 1,
                  "rating": 7.7
            },
            {
                  "distance": 237,
                  "location": {
                        "address": "5405 9e Ave",
                        "country": "CA",
                        "cross_street": "coin Masson",
                        "formatted_address": "5405 9e Ave (coin Masson), Montr\u00e9al QC H1Y 2J7",
                        "locality": "Montreal",
                        "postcode": "H1Y 2J7",
                        "region": "QC"
                  },
                  "name": "Frite Alors",
                  "popularity": 0.9371096707040121,
                  "price": 1,
                  "rating": 7.5
            },
            {
                  "distance": 261,
                  "location": {
                        "address": "3001 Masson Rue",
                        "country": "CA",
                        "formatted_address": "3001 Masson Rue, Montr\u00e9al QC H1Y 1X7",
                        "locality": "Montreal",
                        "postcode": "H1Y 1X7",
                        "region": "QC"
                  },
                  "name": "Boulangerie Premi\u00e8re Moisson",
                  "popularity": 0.8898206850870553,
                  "price": 1,
                  "rating": 7.4
            },
            {
                  "distance": 261,
                  "location": {
                        "address": "3014 Masson Rue",
                        "country": "CA",
                        "cross_street": "coin 7e avenue",
                        "formatted_address": "3014 Masson Rue (coin 7e avenue), Montr\u00e9al QC H1Y 1X6",
                        "locality": "Montreal",
                        "postcode": "H1Y 1X6",
                        "region": "QC"
                  },
                  "name": "Chez Baptiste Sur Masson",
                  "popularity": 0.9593347842543528,
                  "price": 2,
                  "rating": 7.3
            },
            {
                  "distance": 378,
                  "location": {
                        "address": "2732 Masson Rue",
                        "country": "CA",
                        "cross_street": "coin 4e ave.",
                        "formatted_address": "2732 Masson Rue (coin 4e ave.), Montr\u00e9al QC H1Y 1W5",
                        "locality": "Montreal",
                        "postcode": "H1Y 1W5",
                        "region": "QC"
                  },
                  "name": "Planet Oeuf",
                  "popularity": 0.843087623012869,
                  "price": 1,
                  "rating": 6.6
            },
            {
                  "distance": 751,
                  "location": {
                        "address": "2460 Dandurand Rue",
                        "country": "CA",
                        "formatted_address": "2460 Dandurand Rue, Montr\u00e9al QC H2G 2A3",
                        "locality": "Montreal",
                        "postcode": "H2G 2A3",
                        "region": "QC"
                  },
                  "name": "Tim Hortons",
                  "popularity": 0.9830857305071915,
                  "price": 1,
                  "rating": 6.5
            },
            {
                  "distance": 817,
                  "location": {
                        "address": "2475 Rosemont Blvd",
                        "country": "CA",
                        "cross_street": "d'Iberville",
                        "formatted_address": "2475 Rosemont Blvd (d'Iberville), Montr\u00e9al QC H2G 1V3",
                        "locality": "Montreal",
                        "postcode": "H2G 1V3",
                        "region": "QC"
                  },
                  "name": "Restaurant Delitheque Rosemont",
                  "popularity": 0.9508539931869796,
                  "price": 1,
                  "rating": 6.0
            },
            {
                  "distance": 312,
                  "location": {
                        "address": "5228 d'Iberville Rue",
                        "country": "CA",
                        "cross_street": "coin Masson",
                        "formatted_address": "5228 d'Iberville Rue (coin Masson), Montr\u00e9al QC H2G 2A8",
                        "locality": "Montreal",
                        "postcode": "H2G 2A8",
                        "region": "QC"
                  },
                  "name": "Bar Sel et Poivre",
                  "popularity": 0.9735758894776685,
                  "rating": 5.9
            },
            {
                  "distance": 458,
                  "location": {
                        "address": "3255 Rosemont Blvd",
                        "country": "CA",
                        "formatted_address": "3255 Rosemont Blvd, Montr\u00e9al QC H1X 1K1",
                        "locality": "Montreal",
                        "postcode": "H1X 1K1",
                        "region": "QC"
                  },
                  "name": "Restaurant le Petit Quebec",
                  "popularity": 0.9626703255109765,
                  "price": 1,
                  "rating": 5.2
            },
            {
                  "distance": 755,
                  "location": {
                        "address": "2530 Masson Rue",
                        "country": "CA",
                        "cross_street": "coin Iberville",
                        "formatted_address": "2530 Masson Rue (coin Iberville), Montr\u00e9al QC H1Y 1V8",
                        "locality": "Montreal",
                        "postcode": "H1Y 1V8",
                        "region": "QC"
                  },
                  "name": "McDonald's",
                  "popularity": 0.9850965177895533,
                  "price": 1,
                  "rating": 5.1,
                  "store_id": "5336"
            },
            {
                  "distance": 194,
                  "location": {
                        "address": "3240 Dandurand Rue",
                        "country": "CA",
                        "cross_street": "coin St-Michel",
                        "formatted_address": "3240 Dandurand Rue (coin St-Michel), Montr\u00e9al QC H1Y 1V5",
                        "locality": "Montreal",
                        "postcode": "H1Y 1V5",
                        "region": "QC"
                  },
                  "name": "Gariepy & Fils Fins Gourmets",
                  "popularity": 0.9137372255866768
            },
            {
                  "distance": 248,
                  "location": {
                        "address": "3135 Masson Rue",
                        "country": "CA",
                        "cross_street": "",
                        "formatted_address": "3135 Masson Rue, Montr\u00e9al QC H1Y 1X9",
                        "locality": "Montreal",
                        "postcode": "H1Y 1X9",
                        "region": "QC"
                  },
                  "name": "Billy Buck",
                  "popularity": 0.30010408781226344,
                  "price": 1
            },
            {
                  "distance": 252,
                  "location": {
                        "address": "3127 Masson Rue",
                        "country": "CA",
                        "cross_street": "",
                        "formatted_address": "3127 Masson Rue, Montr\u00e9al QC H1Y 1X9",
                        "locality": "Montreal",
                        "postcode": "H1Y 1X9",
                        "region": "QC"
                  },
                  "name": "Mojito & Margarita",
                  "popularity": 0.880429125662377,
                  "price": 1
            },
            {
                  "distance": 254,
                  "location": {
                        "address": "3036 Masson Rue",
                        "country": "CA",
                        "cross_street": "",
                        "formatted_address": "3036 Masson Rue, Montr\u00e9al QC H1Y 1X6",
                        "locality": "Montreal",
                        "postcode": "H1Y 1X6",
                        "region": "QC"
                  },
                  "name": "Joyo Burger",
                  "popularity": 0.9241223504920515,
                  "price": 1
            },
            {
                  "distance": 260,
                  "location": {
                        "address": "2931 Masson Rue",
                        "country": "CA",
                        "cross_street": "",
                        "formatted_address": "2931 Masson Rue, Montr\u00e9al QC H1Y 1X5",
                        "locality": "Montreal",
                        "postcode": "H1Y 1X5",
                        "region": "QC"
                  },
                  "name": "Elvita's Latin Fusion Cuisine",
                  "popularity": 0.9454721801665406,
                  "price": 2
            },
            {
                  "distance": 266,
                  "location": {
                        "address": "3150 Masson Rue",
                        "country": "CA",
                        "cross_street": "coin 9e avenue",
                        "formatted_address": "3150 Masson Rue (coin 9e avenue), Montr\u00e9al QC H1Y 1Y1",
                        "locality": "Montreal",
                        "postcode": "H1Y 1Y1",
                        "region": "QC"
                  },
                  "name": "Restaurant Basha",
                  "popularity": 0.9222298448145344,
                  "price": 1
            },
            {
                  "distance": 308,
                  "location": {
                        "address": "2874 Masson Rue",
                        "country": "CA",
                        "cross_street": "",
                        "formatted_address": "2874 Masson Rue, Montr\u00e9al QC H1Y 1W9",
                        "locality": "Montreal",
                        "postcode": "H1Y 1W9",
                        "region": "QC"
                  },
                  "name": "Le Pok\u00e9 Station",
                  "popularity": 0.8739236373959122
            },
            {
                  "distance": 330,
                  "location": {
                        "address": "3251 Masson Rue",
                        "country": "CA",
                        "cross_street": "Coin boulevard Saint-Michel",
                        "formatted_address": "3251 Masson Rue (Coin boulevard Saint-Michel), Montr\u00e9al QC H1X 1R3",
                        "locality": "Montreal",
                        "postcode": "H1X 1R3",
                        "region": "QC"
                  },
                  "name": "Bar Monaco",
                  "popularity": 0.6515069076457229,
                  "price": 2
            },
            {
                  "distance": 332,
                  "location": {
                        "address": "3244 Masson Rue",
                        "country": "CA",
                        "cross_street": "",
                        "formatted_address": "3244 Masson Rue, Montr\u00e9al QC H1Y 1Y3",
                        "locality": "Montreal",
                        "postcode": "H1Y 1Y3",
                        "region": "QC"
                  },
                  "name": "A&W Restaurant",
                  "popularity": 0.9042273845571537,
                  "price": 1,
                  "store_id": "5903"
            },
            {
                  "distance": 399,
                  "location": {
                        "address": "3224 Rosemont Blvd",
                        "country": "CA",
                        "cross_street": "",
                        "formatted_address": "3224 Rosemont Blvd, Montr\u00e9al QC H1Y 1M7",
                        "locality": "Montreal",
                        "postcode": "H1Y 1M7",
                        "region": "QC"
                  },
                  "name": "Poulet 3 Pattes",
                  "popularity": 0.8786430734292203,
                  "price": 2
            },
            {
                  "distance": 525,
                  "location": {
                        "address": "2609 Masson Rue",
                        "country": "CA",
                        "cross_street": "",
                        "formatted_address": "2609 Masson Rue, Montreal QC H1Y 1W1",
                        "locality": "Montreal",
                        "postcode": "H1Y 1W1",
                        "region": "QC"
                  },
                  "name": "Broue Bar Gasp\u00e9",
                  "popularity": 0.06894634746404239,
                  "price": 2
            },
            {
                  "distance": 580,
                  "location": {
                        "address": "2581 Masson Rue",
                        "country": "CA",
                        "cross_street": "1\u00e8re avenue",
                        "formatted_address": "2581 Masson Rue (1\u00e8re avenue), Montr\u00e9al QC H1Y 1V7",
                        "locality": "Montreal",
                        "postcode": "H1Y 1V7",
                        "region": "QC"
                  },
                  "name": "Bar Chez Tzina",
                  "popularity": 0.9494227857683573,
                  "price": 1
            },
            {
                  "distance": 607,
                  "location": {
                        "address": "3560 Masson Rue",
                        "country": "CA",
                        "cross_street": "15e Ave",
                        "formatted_address": "3560 Masson Rue (15e Ave), Montr\u00e9al QC H1X 1R9",
                        "locality": "Montreal",
                        "postcode": "H1X 1R9",
                        "region": "QC"
                  },
                  "name": "Bar U-Turn",
                  "popularity": 0.8883776495079485,
                  "price": 2
            },
            {
                  "distance": 631,
                  "location": {
                        "address": "3641A Dandurand Rue",
                        "country": "CA",
                        "cross_street": "16e avenue",
                        "formatted_address": "3641A Dandurand Rue (16e avenue), Montreal QC H1X 1N5",
                        "locality": "Mont\u00e9r\u00e9gie",
                        "postcode": "H1X 1N5",
                        "region": "QC"
                  },
                  "name": "La Bo\u00eete \u00e0 Vins",
                  "popularity": 0.10760077592732778,
                  "price": 1
            },
            {
                  "distance": 773,
                  "location": {
                        "address": "3756 Masson Rue",
                        "country": "CA",
                        "cross_street": "17eme avenue",
                        "formatted_address": "3756 Masson Rue (17eme avenue), Montr\u00e9al QC H1X 1S6",
                        "locality": "Montreal",
                        "postcode": "H1X 1S6",
                        "region": "QC"
                  },
                  "name": "La Tasse Rouge",
                  "popularity": 0.8086321915215746,
                  "price": 1
            },
            {
                  "distance": 778,
                  "location": {
                        "address": "3738 Masson Rue",
                        "country": "CA",
                        "cross_street": "17e",
                        "formatted_address": "3738 Masson Rue (17e), Montr\u00e9al QC H1X 1S6",
                        "locality": "Montreal",
                        "postcode": "H1X 1S6",
                        "region": "QC"
                  },
                  "name": "Les Plats Cuisin\u00e9s B.V.M",
                  "popularity": 0.37813446252838756,
                  "price": 1
            },
            {
                  "distance": 792,
                  "location": {
                        "address": "5416 d'Iberville Rue",
                        "country": "CA",
                        "cross_street": "Masson",
                        "formatted_address": "5416 d'Iberville Rue (Masson), Montr\u00e9al QC",
                        "locality": "Montreal",
                        "region": "QC"
                  },
                  "name": "Kool Cafe Inc",
                  "popularity": 0.15313919379258137,
                  "price": 2
            },
            {
                  "distance": 891,
                  "location": {
                        "address": "3124 Beaubien Rue E",
                        "country": "CA",
                        "cross_street": "",
                        "formatted_address": "3124 Beaubien Rue E, Montr\u00e9al QC H1Y 1H3",
                        "locality": "Montreal",
                        "postcode": "H1Y 1H3",
                        "region": "QC"
                  },
                  "name": "Bairrada",
                  "popularity": 0.6641157267221802,
                  "price": 1
            },
            {
                  "distance": 900,
                  "location": {
                        "address": "3350 Beaubien Rue E",
                        "country": "CA",
                        "cross_street": "",
                        "formatted_address": "3350 Beaubien Rue E, Montr\u00e9al QC H1X 1G6",
                        "locality": "Montreal",
                        "postcode": "H1X 1G6",
                        "region": "QC"
                  },
                  "name": "Zytynsky's",
                  "popularity": 0.9171555639666918,
                  "price": 2
            },
            {
                  "distance": 908,
                  "location": {
                        "address": "3251 Beaubien Rue E",
                        "country": "CA",
                        "cross_street": "",
                        "formatted_address": "3251 Beaubien Rue E, Montr\u00e9al QC H1X 1G4",
                        "locality": "Montreal",
                        "postcode": "H1X 1G4",
                        "region": "QC"
                  },
                  "name": "A&W Restaurant",
                  "popularity": 0.9718253217259651,
                  "price": 1,
                  "store_id": "5590"
            },
            {
                  "distance": 952,
                  "location": {
                        "address": "3240 Beaubien Rue E",
                        "country": "CA",
                        "cross_street": "",
                        "formatted_address": "3240 Beaubien Rue E, Montr\u00e9al QC H1Y 1H7",
                        "locality": "Montreal",
                        "postcode": "H1Y 1H7",
                        "region": "QC"
                  },
                  "name": "Caf\u00e9 Hologramme",
                  "popularity": 0.2952663701741105,
                  "price": 1
            }
      ],
      "context": {
            "geo_bounds": {
                  "circle": {
                        "center": {
                              "latitude": 45.55011355,
                              "longitude": -73.57722178
                        },
                        "radius": 1000
                  }
            }
      }
}