{
      "results": [
            {
                  "distance": 881,
                  "location": {
                        "address": "322 Ave du Mont-Royal Est",
                        "country": "CA",
                        "cross_street": "coin Drolet",
                        "formatted_address": "322 Ave du Mont-Royal Est (coin Drolet), Montr\u00e9al QC H2T 1P7",
                        "locality": "Montreal",
                        "postcode": "H2T 1P7",
                        "region": "QC"
                  },
                  "name": "Au Kouign-Amann",
                  "popularity": 0.9501206472369417,
                  "price": 2,
                  "rating": 9.2
            },
            {
                  "distance": 632,
                  "location": {
                        "address": "124 Saint- Viateur Rue O",
                        "country": "CA",
                        "cross_street": "coin Waverly",
                        "formatted_address": "124 Saint- Viateur Rue O (coin Waverly), Montr\u00e9al QC H2T 2L1",
                        "locality": "Montreal",
                        "postcode": "H2T 2L1",
                        "region": "QC"
                  },
                  "name": "Caf\u00e9 Olimpico",
                  "popularity": 0.9736468584405753,
                  "price": 1,
                  "rating": 9.2
            },
            {
                  "distance": 345,
                  "location": {
                        "address": "9 Fairmount Ave E",
                        "country": "CA",
                        "cross_street": "coin Fairmount",
                        "formatted_address": "9 Fairmount Ave E (coin Fairmount), Montr\u00e9al QC H2T 1C7",
                        "locality": "Montreal",
                        "postcode": "H2T 1C7",
                        "region": "QC"
                  },
                  "name": "Larry's",
                  "popularity": 0.9267955147615443,
                  "price": 2,
                  "rating": 9.2
            },
            {
                  "distance": 821,
                  "location": {
                        "address": "263 Saint- Viateur Rue O",
                        "country": "CA",
                        "cross_street": "entre Jeanne-Mance & du Parc",
                        "formatted_address": "263 Saint- Viateur Rue O (entre Jeanne-Mance & du Parc), Montr\u00e9al QC H2V 1Y1",
                        "locality": "Montreal",
                        "postcode": "H2V 1Y1",
                        "region": "QC"
                  },
                  "name": "St-Viateur Bagel",
                  "popularity": 0.9821986184708554,
                  "price": 1,
                  "rating": 9.1
            },
            {
                  "distance": 827,
                  "location": {
                        "address": "5357 Ave du Parc",
                        "country": "CA",
                        "cross_street": "entre St-Viateur & Fairmount",
                        "formatted_address": "5357 Ave du Parc (entre St-Viateur & Fairmount), Montr\u00e9al QC H2V 4G9",
                        "locality": "Montreal",
                        "postcode": "H2V 4G9",
                        "region": "QC"
                  },
                  "name": "Milos Restaurant",
                  "popularity": 0.9470098410295231,
                  "price": 4,
                  "rating": 9.1
            },
            {
                  "distance": 734,
                  "location": {
                        "address": "4627 Saint-Denis Rue",
                        "country": "CA",
                        "cross_street": "",
                        "formatted_address": "4627 Saint-Denis Rue, Montr\u00e9al QC H2J 2L4",
                        "locality": "Montreal",
                        "postcode": "H2J 2L4",
                        "region": "QC"
                  },
                  "name": "Caf\u00e9 Myriade - le Plateau",
                  "popularity": 0.9432603141559425,
                  "price": 1,
                  "rating": 9.1
            },
            {
                  "distance": 505,
                  "location": {
                        "address": "809 Laurier Ave E",
                        "country": "CA",
                        "formatted_address": "809 Laurier Ave E, Montr\u00e9al QC H2J 1G2",
                        "locality": "Montreal",
                        "postcode": "H2J 1G2",
                        "region": "QC"
                  },
                  "name": "Fous Desserts",
                  "popularity": 0.9535389856169568,
                  "rating": 9.0
            },
            {
                  "distance": 766,
                  "location": {
                        "address": "4631 Saint-Laurent Blvd",
                        "country": "CA",
                        "cross_street": "entre Mont-Royal & Villeneuve",
                        "formatted_address": "4631 Saint-Laurent Blvd (entre Mont-Royal & Villeneuve), Montr\u00e9al QC H2T 1R2",
                        "locality": "Montreal",
                        "postcode": "H2T 1R2",
                        "region": "QC"
                  },
                  "name": "Aux Vivres",
                  "popularity": 0.9429054693414081,
                  "price": 2,
                  "rating": 9.0
            },
            {
                  "distance": 628,
                  "location": {
                        "address": "5761 Saint-Laurent Blvd",
                        "country": "CA",
                        "cross_street": "coin Bernard",
                        "formatted_address": "5761 Saint-Laurent Blvd (coin Bernard), Montr\u00e9al QC H2T 1S9",
                        "locality": "Montreal",
                        "postcode": "H2T 1S9",
                        "region": "QC"
                  },
                  "name": "Pastel Rita",
                  "popularity": 0.9478141559424679,
                  "price": 1,
                  "rating": 8.9
            },
            {
                  "distance": 895,
                  "location": {
                        "address": "4524 Saint-Laurent Blvd",
                        "country": "CA",
                        "cross_street": "coin Mont-Royal",
                        "formatted_address": "4524 Saint-Laurent Blvd (coin Mont-Royal), Montr\u00e9al QC H2T 1R3",
                        "locality": "Montreal",
                        "postcode": "H2T 1R3",
                        "region": "QC"
                  },
                  "name": "Hof Kelsten",
                  "popularity": 0.9274578917486752,
                  "price": 2,
                  "rating": 8.8
            },
            {
                  "distance": 374,
                  "location": {
                        "address": "5605 Ave de Gasp\u00e9",
                        "country": "CA",
                        "cross_street": "coin St-Viateur Est",
                        "formatted_address": "5605 Ave de Gasp\u00e9 (coin St-Viateur Est), Montr\u00e9al QC H2T 2A4",
                        "locality": "Montreal",
                        "postcode": "H2T 2A4",
                        "region": "QC"
                  },
                  "name": "Caf\u00e9 Falco",
                  "popularity": 0.942952781983346,
                  "price": 2,
                  "rating": 8.7
            },
            {
                  "distance": 739,
                  "location": {
                        "address": "5836 Saint-Laurent Blvd",
                        "country": "CA",
                        "cross_street": "",
                        "formatted_address": "5836 Saint-Laurent Blvd, Montr\u00e9al QC H2T 1T3",
                        "locality": "Montreal",
                        "postcode": "H2T 1T3",
                        "region": "QC"
                  },
                  "name": "Le Butterblume",
                  "popularity": 0.9501443035579107,
                  "price": 1,
                  "rating": 8.6
            },
            {
                  "distance": 516,
                  "location": {
                        "address": "54 Saint-Viateur Rue O",
                        "country": "CA",
                        "cross_street": "",
                        "formatted_address": "54 Saint-Viateur Rue O, Montr\u00e9al QC H2T 2K8",
                        "locality": "Montreal",
                        "postcode": "H2T 2K8",
                        "region": "QC"
                  },
                  "name": "Falafel Yoni",
                  "popularity": 0.9097038228614686,
                  "price": 1,
                  "rating": 8.6
            },
            {
                  "distance": 513,
                  "location": {
                        "address": "52 Saint-Viateur Rue O",
                        "country": "CA",
                        "cross_street": "",
                        "formatted_address": "52 Saint-Viateur Rue O, Montr\u00e9al QC H2T 2K8",
                        "locality": "Montreal",
                        "postcode": "H2T 2K8",
                        "region": "QC"
                  },
                  "name": "Bishop & Bagg",
                  "popularity": 0.9365064345193036,
                  "price": 2,
                  "rating": 8.6
            },
            {
                  "distance": 932,
                  "location": {
                        "address": "5200 Hutchison Rue",
                        "country": "CA",
                        "cross_street": "coin Fairmount",
                        "formatted_address": "5200 Hutchison Rue (coin Fairmount), Montr\u00e9al QC H2V 4B3",
                        "locality": "Montreal",
                        "postcode": "H2V 4B3",
                        "region": "QC"
                  },
                  "name": "La Croissanterie Figaro",
                  "popularity": 0.9416398561695685,
                  "price": 1,
                  "rating": 8.6
            },
            {
                  "distance": 811,
                  "location": {
                        "address": "5240 Ave du Parc",
                        "country": "CA",
                        "cross_street": "Fairmount",
                        "formatted_address": "5240 Ave du Parc (Fairmount), Montr\u00e9al QC H2V 4G7",
                        "locality": "Montreal",
                        "postcode": "H2V 4G7",
                        "region": "QC"
                  },
                  "name": "Th\u00e9\u00e2tre Fairmount",
                  "popularity": 0.9877696820590461,
                  "rating": 8.6
            },
            {
                  "distance": 670,
                  "location": {
                        "address": "176 Saint Viateur Rue O",
                        "address_extended": "# 174",
                        "country": "CA",
                        "cross_street": "",
                        "formatted_address": "176 Saint Viateur Rue O, Montr\u00e9al QC H2T 2L3",
                        "locality": "Montreal",
                        "postcode": "H2T 2L3",
                        "region": "QC"
                  },
                  "name": "\u00cele Flottante",
                  "popularity": 0.891583080999243,
                  "price": 3,
                  "rating": 8.5
            },
            {
                  "distance": 878,
                  "location": {
                        "address": "1059 Gilford Rue",
                        "country": "CA",
                        "cross_street": "Christophe-Colomb",
                        "formatted_address": "1059 Gilford Rue (Christophe-Colomb), Montr\u00e9al QC H2J 1P7",
                        "locality": "Montreal",
                        "postcode": "H2J 1P7",
                        "region": "QC"
                  },
                  "name": "Restaurant la Raclette",
                  "popularity": 0.9396527252081757,
                  "price": 3,
                  "rating": 8.5
            },
            {
                  "distance": 867,
                  "location": {
                        "address": "351 Ave du Mont-Royal E",
                        "country": "CA",
                        "cross_street": "",
                        "formatted_address": "351 Ave du Mont-Royal E, Montr\u00e9al QC H2T 1R1",
                        "locality": "Montreal",
                        "postcode": "H2T 1R1",
                        "region": "QC"
                  },
                  "name": "Le Toledo",
                  "popularity": 0.9615111657834974,
                  "price": 1,
                  "rating": 8.4
            },
            {
                  "distance": 684,
                  "location": {
                        "address": "5788 Saint-Laurent Blvd",
                        "country": "CA",
                        "cross_street": "Bernard",
                        "formatted_address": "5788 Saint-Laurent Blvd (Bernard), Montr\u00e9al QC H2T 1S8",
                        "locality": "Montreal",
                        "postcode": "H2T 1S8",
                        "region": "QC"
                  },
                  "name": "Ping Pong Club",
                  "popularity": 0.9317869984859954,
                  "price": 2,
                  "rating": 8.4
            },
            {
                  "distance": 351,
                  "location": {
                        "address": "5207 Saint-Laurent Blvd",
                        "country": "CA",
                        "cross_street": "",
                        "formatted_address": "5207 Saint-Laurent Blvd, Montr\u00e9al QC H2T 1S4",
                        "locality": "Montreal",
                        "postcode": "H2T 1S4",
                        "region": "QC"
                  },
                  "name": "Tsukuyomi Ramen",
                  "popularity": 0.9078113171839516,
                  "rating": 8.3
            },
            {
                  "distance": 267,
                  "location": {
                        "address": "351 Laurier Ave E",
                        "country": "CA",
                        "cross_street": "coin Drolet",
                        "formatted_address": "351 Laurier Ave E (coin Drolet), Montr\u00e9al QC H2T 1G7",
                        "locality": "Montreal",
                        "postcode": "H2T 1G7",
                        "region": "QC"
                  },
                  "name": "Restaurant Chez Claudette",
                  "popularity": 0.9536454390613172,
                  "price": 1,
                  "rating": 8.3
            },
            {
                  "distance": 406,
                  "location": {
                        "address": "5150 St-Laurent Blvd",
                        "country": "CA",
                        "cross_street": "",
                        "formatted_address": "5150 St-Laurent Blvd, Montr\u00e9al QC H2T 1R8",
                        "locality": "Montreal",
                        "postcode": "H2T 1R8",
                        "region": "QC"
                  },
                  "name": "Cin\u00e9ma Moderne",
                  "popularity": 0.9271267032551098,
                  "price": 1,
                  "rating": 8.3
            },
            {
                  "distance": 704,
                  "location": {
                        "address": "180 Saint- Viateur Rue O",
                        "country": "CA",
                        "cross_street": "angle Esplanade",
                        "formatted_address": "180 Saint- Viateur Rue O (angle Esplanade), Montr\u00e9al QC H2T 2L3",
                        "locality": "Montreal",
                        "postcode": "H2T 2L3",
                        "region": "QC"
                  },
                  "name": "Club Social",
                  "popularity": 0.9385408781226343,
                  "price": 1,
                  "rating": 8.2
            },
            {
                  "distance": 893,
                  "location": {
                        "address": "354 Ave du Mont-Royal Est",
                        "country": "CA",
                        "cross_street": "entre Drolet & St-Denis",
                        "formatted_address": "354 Ave du Mont-Royal Est (entre Drolet & St-Denis), Montr\u00e9al QC H2T 1P9",
                        "locality": "Montreal",
                        "postcode": "H2T 1P9",
                        "region": "QC"
                  },
                  "name": "Bily Kun",
                  "popularity": 0.927327781983346,
                  "price": 2,
                  "rating": 8.2
            },
            {
                  "distance": 1005,
                  "location": {
                        "address": "93 Ave du Mont-Royal Ouest",
                        "country": "CA",
                        "cross_street": "coin St-Urbain",
                        "formatted_address": "93 Ave du Mont-Royal Ouest (coin St-Urbain), Montr\u00e9al QC H2T 2S5",
                        "locality": "Montreal",
                        "postcode": "H2T 2S5",
                        "region": "QC"
                  },
                  "name": "Beautys Luncheonette",
                  "popularity": 0.9646929409538229,
                  "price": 2,
                  "rating": 8.1
            },
            {
                  "distance": 434,
                  "location": {
                        "address": "34 Fairmount Ave O",
                        "country": "CA",
                        "cross_street": "coin Clark",
                        "formatted_address": "34 Fairmount Ave O (coin Clark), Montr\u00e9al QC H2T 2M1",
                        "locality": "Montreal",
                        "postcode": "H2T 2M1",
                        "region": "QC"
                  },
                  "name": "Wilensky's Light Lunch",
                  "popularity": 0.9229631907645723,
                  "price": 1,
                  "rating": 8.1
            },
            {
                  "distance": 901,
                  "location": {
                        "address": "5611 Ave du Parc",
                        "country": "CA",
                        "cross_street": "St-Viateur",
                        "formatted_address": "5611 Ave du Parc (St-Viateur), Montr\u00e9al QC H2V 4H2",
                        "locality": "Montreal",
                        "postcode": "H2V 4H2",
                        "region": "QC"
                  },
                  "name": "Ta Chido",
                  "popularity": 0.9069360333080999,
                  "price": 1,
                  "rating": 8.1
            },
            {
                  "distance": 982,
                  "location": {
                        "address": "4806 Ave du Parc",
                        "country": "CA",
                        "cross_street": "",
                        "formatted_address": "4806 Ave du Parc, Montr\u00e9al QC H2V 4E6",
                        "locality": "Montreal",
                        "postcode": "H2V 4E6",
                        "region": "QC"
                  },
                  "name": "Philinos Restaurant Bar",
                  "popularity": 0.9275406888720666,
                  "price": 2,
                  "rating": 8.1
            },
            {
                  "distance": 606,
                  "location": {
                        "address": "115 Laurier Ave O",
                        "country": "CA",
                        "cross_street": "entre St-Urbain & De l'Esplanade",
                        "formatted_address": "115 Laurier Ave O (entre St-Urbain & De l'Esplanade), Montr\u00e9al QC H2T 2N6",
                        "locality": "Montreal",
                        "postcode": "H2T 2N6",
                        "region": "QC"
                  },
                  "name": "Bar Henrietta",
                  "popularity": 0.9364591218773657,
                  "price": 2,
                  "rating": 8.1
            },
            {
                  "distance": 584,
                  "location": {
                        "address": "142 Fairmount Ave O",
                        "country": "CA",
                        "cross_street": "",
                        "formatted_address": "142 Fairmount Ave O, Montr\u00e9al QC H2T 2M5",
                        "locality": "Montreal",
                        "postcode": "H2T 2M5",
                        "region": "QC"
                  },
                  "name": "La Khaima",
                  "popularity": 0.9312310749432249,
                  "price": 2,
                  "rating": 8.0
            },
            {
                  "distance": 899,
                  "location": {
                        "address": "5000 Ave du Parc",
                        "country": "CA",
                        "cross_street": "",
                        "formatted_address": "5000 Ave du Parc, Montr\u00e9al QC H2V 4E8",
                        "locality": "Montreal",
                        "postcode": "H2V 4E8",
                        "region": "QC"
                  },
                  "name": "Farine & Vanille",
                  "popularity": 0.9133468962906889,
                  "price": 1,
                  "rating": 8.0
            },
            {
                  "distance": 572,
                  "location": {
                        "address": "4873 Saint-Laurent Blvd",
                        "country": "CA",
                        "cross_street": "entre Villeneuve & St-Joseph",
                        "formatted_address": "4873 Saint-Laurent Blvd (entre Villeneuve & St-Joseph), Montr\u00e9al QC H2T 1R6",
                        "locality": "Montreal",
                        "postcode": "H2T 1R6",
                        "region": "QC"
                  },
                  "name": "Casa del Popolo",
                  "popularity": 0.9028789742619228,
                  "price": 2,
                  "rating": 8.0
            },
            {
                  "distance": 592,
                  "location": {
                        "address": "104 Laurier Ave O",
                        "country": "CA",
                        "formatted_address": "104 Laurier Ave O, Montr\u00e9al QC H2T 2N7",
                        "locality": "Montreal",
                        "postcode": "H2T 2N7",
                        "region": "QC"
                  },
                  "name": "Restaurant la Chronique",
                  "popularity": 0.9418764193792581,
                  "price": 3,
                  "rating": 8.0
            },
            {
                  "distance": 879,
                  "location": {
                        "address": "327 Ave du Mont-Royal Est",
                        "country": "CA",
                        "cross_street": "entre Saint-Denis et Drolet",
                        "formatted_address": "327 Ave du Mont-Royal Est (entre Saint-Denis et Drolet), Montr\u00e9al QC H2T 1P8",
                        "locality": "Montreal",
                        "postcode": "H2T 1P8",
                        "region": "QC"
                  },
                  "name": "Bar Plan B",
                  "popularity": 0.9094199470098411,
                  "price": 2,
                  "rating": 8.0
            }
      ],
      "context": {
            "geo_bounds": {
                  "circle": {
                        "center": {
                              "latitude": 45.5270411,
                              "longitude": -73.59347057
                        },
                        "radius": 1000
                  }
            }
      }
}