{
      "results": [
            {
                  "distance": 771,
                  "location": {
                        "address": "5235 Belanger Rue",
                        "country": "CA",
                        "cross_street": "",
                        "formatted_address": "5235 Belanger Rue, Montr\u00e9al QC H1T 1E1",
                        "locality": "Montreal",
                        "postcode": "H1T 1E1",
                        "region": "QC"
                  },
                  "name": "Patisserie Di Bella",
                  "popularity": 0.9872255866767601,
                  "price": 1,
                  "rating": 8.6
            },
            {
                  "distance": 822,
                  "location": {
                        "address": "4526 Belanger Rue",
                        "country": "CA",
                        "cross_street": "",
                        "formatted_address": "4526 Belanger Rue, Montr\u00e9al QC H1T 1B6",
                        "locality": "Montreal",
                        "postcode": "H1T 1B6",
                        "region": "QC"
                  },
                  "name": "Poissonnerie Rayan",
                  "popularity": 0.9850018925056775,
                  "price": 3,
                  "rating": 7.8
            },
            {
                  "distance": 963,
                  "location": {
                        "address": "5040 Jean-Talon Rue E",
                        "address_extended": "Place Michelet",
                        "country": "CA",
                        "cross_street": "Boul. Viau",
                        "formatted_address": "5040 Jean-Talon Rue E (Boul. Viau), Saint-Leonard QC H1S 1K6",
                        "locality": "Saint-L\u00e9onard",
                        "postcode": "H1S 1K6",
                        "region": "QC"
                  },
                  "name": "Thai Express",
                  "popularity": 0.9278009084027252,
                  "price": 2,
                  "rating": 6.0,
                  "store_id": "205"
            },
            {
                  "distance": 993,
                  "location": {
                        "address": "4900 Jean-Talon Rue E",
                        "country": "CA",
                        "cross_street": "coin Viau",
                        "formatted_address": "4900 Jean-Talon Rue E (coin Viau), Saint-Leonard QC H1S 2V9",
                        "locality": "Saint-L\u00e9onard",
                        "postcode": "H1S 2V9",
                        "region": "QC"
                  },
                  "name": "McDonald's",
                  "popularity": 0.8837055261165784,
                  "price": 1,
                  "rating": 5.6
            },
            {
                  "distance": 86,
                  "location": {
                        "address": "4931 Beaubien Rue E",
                        "country": "CA",
                        "cross_street": "coin Viau",
                        "formatted_address": "4931 Beaubien Rue E (coin Viau), Montr\u00e9al QC H1T 1V1",
                        "locality": "Montreal",
                        "postcode": "H1T 1V1",
                        "region": "QC"
                  },
                  "name": "Sachi Sushi",
                  "popularity": 0.8922099735049205,
                  "price": 2
            },
            {
                  "distance": 443,
                  "location": {
                        "address": "5076 rue de Bellechasse",
                        "country": "CA",
                        "cross_street": "39e avenue",
                        "formatted_address": "5076 rue de Bellechasse (39e avenue), Montr\u00e9al QC H1T 2A2",
                        "locality": "Montreal",
                        "postcode": "H1T 2A2",
                        "region": "QC"
                  },
                  "name": "Une nuit \u00e0 Bangkok",
                  "popularity": 0.9431065480696442,
                  "price": 2
            },
            {
                  "distance": 444,
                  "location": {
                        "address": "5195 Beaubien Rue E",
                        "country": "CA",
                        "cross_street": "41ieme avenue",
                        "formatted_address": "5195 Beaubien Rue E (41ieme avenue), Montr\u00e9al QC H1T 1V9",
                        "locality": "Montreal",
                        "postcode": "H1T 1V9",
                        "region": "QC"
                  },
                  "name": "Restaurant St-Aubin",
                  "popularity": 0.8631718395155186,
                  "price": 1
            },
            {
                  "distance": 806,
                  "location": {
                        "address": "5290 Belanger Rue",
                        "country": "CA",
                        "cross_street": "",
                        "formatted_address": "5290 Belanger Rue, Montr\u00e9al QC H1T 1E2",
                        "locality": "Montreal",
                        "postcode": "H1T 1E2",
                        "region": "QC"
                  },
                  "name": "March\u00e9 Casse-Croute des Soeurs",
                  "popularity": 0.2636615253595761,
                  "price": 2
            },
            {
                  "distance": 812,
                  "location": {
                        "address": "4541 Belanger Rue",
                        "country": "CA",
                        "cross_street": "30th Ave",
                        "formatted_address": "4541 Belanger Rue (30th Ave), Montr\u00e9al QC H1T 1B7",
                        "locality": "Montreal",
                        "postcode": "H1T 1B7",
                        "region": "QC"
                  },
                  "name": "Akwaba",
                  "popularity": 0.9619842922028766,
                  "price": 2
            },
            {
                  "distance": 856,
                  "location": {
                        "address": "4444A Belanger Rue",
                        "country": "CA",
                        "cross_street": "",
                        "formatted_address": "4444A Belanger Rue, Montreal QC H1T 1B5",
                        "locality": "Montreal",
                        "postcode": "H1T 1B5",
                        "region": "QC"
                  },
                  "name": "Cornet Glac\u00e9",
                  "popularity": 0.10896101438304315,
                  "price": 1
            },
            {
                  "distance": 930,
                  "location": {
                        "address": "4111 Beaubien Rue E",
                        "country": "CA",
                        "cross_street": "",
                        "formatted_address": "4111 Beaubien Rue E, Montr\u00e9al QC H1T 1S3",
                        "locality": "Montreal",
                        "postcode": "H1T 1S3",
                        "region": "QC"
                  },
                  "name": "La Grotta del Mare",
                  "popularity": 0.30545041635124903,
                  "price": 2
            },
            {
                  "distance": 957,
                  "location": {
                        "address": "4201 Rosemont Blvd",
                        "country": "CA",
                        "cross_street": "23e avenue",
                        "formatted_address": "4201 Rosemont Blvd (23e avenue), Montr\u00e9al QC H1T 2C6",
                        "locality": "Montreal",
                        "postcode": "H1T 2C6",
                        "region": "QC"
                  },
                  "name": "Aux Sept Bonheurs Restaurant",
                  "popularity": 0.8941497918243755,
                  "price": 1
            },
            {
                  "distance": 992,
                  "location": {
                        "address": "7190 Michelet Rue",
                        "country": "CA",
                        "cross_street": "",
                        "formatted_address": "7190 Michelet Rue, Montreal QC H1S 2L9",
                        "locality": "Saint-L\u00e9onard",
                        "postcode": "H1S 2L9",
                        "region": "QC"
                  },
                  "name": "St-Hubert Express",
                  "popularity": 0.9727952308856926,
                  "price": 2,
                  "store_id": "100171"
            },
            {
                  "distance": 117,
                  "location": {
                        "address": "6510 Viau Rue",
                        "country": "CA",
                        "formatted_address": "6510 Viau Rue, Montreal QC H1T 2Y7",
                        "locality": "Montreal",
                        "postcode": "H1T 2Y7",
                        "region": "QC"
                  },
                  "name": "Meurtre et Mysteres"
            },
            {
                  "distance": 186,
                  "location": {
                        "address": "4975 Beaubien Rue E",
                        "country": "CA",
                        "formatted_address": "4975 Beaubien Rue E, Montreal QC H1T 1V3",
                        "locality": "Montreal",
                        "postcode": "H1T 1V3",
                        "region": "QC"
                  },
                  "name": "Brasserie Cannebiere Inc"
            },
            {
                  "distance": 360,
                  "location": {
                        "address": "5142 Beaubien Rue E",
                        "country": "CA",
                        "formatted_address": "5142 Beaubien Rue E, Montreal QC H1T 1V7",
                        "locality": "Montreal",
                        "postcode": "H1T 1V7",
                        "region": "QC"
                  },
                  "name": "Cafe Navaro"
            },
            {
                  "distance": 387,
                  "location": {
                        "address": "5152 Beaubien Rue E",
                        "country": "CA",
                        "formatted_address": "5152 Beaubien Rue E, Montreal QC H1T 1W1",
                        "locality": "Montreal",
                        "postcode": "H1T 1W1",
                        "region": "QC"
                  },
                  "name": "Rich Bistro Cafe Inc"
            },
            {
                  "distance": 443,
                  "location": {
                        "address": "4509 Beaubien Rue E",
                        "country": "CA",
                        "formatted_address": "4509 Beaubien Rue E, Montreal QC H1T 1T4",
                        "locality": "Montreal",
                        "postcode": "H1T 1T4",
                        "region": "QC"
                  },
                  "name": "Petit Ya Courtier"
            },
            {
                  "distance": 494,
                  "location": {
                        "address": "4933 Rosemont Blvd",
                        "country": "CA",
                        "formatted_address": "4933 Rosemont Blvd, Montreal QC H1T 2E6",
                        "locality": "Montreal",
                        "postcode": "H1T 2E6",
                        "region": "QC"
                  },
                  "name": "Dido Restaurant"
            },
            {
                  "distance": 501,
                  "location": {
                        "address": "4943 Rosemont Blvd",
                        "country": "CA",
                        "formatted_address": "4943 Rosemont Blvd, Montreal QC H1T 2E6",
                        "locality": "Montreal",
                        "postcode": "H1T 2E6",
                        "region": "QC"
                  },
                  "name": "Ryo Sushi"
            },
            {
                  "distance": 514,
                  "location": {
                        "address": "4457 Beaubien Rue E",
                        "country": "CA",
                        "formatted_address": "4457 Beaubien Rue E, Montreal QC H1T 1T3",
                        "locality": "Montreal",
                        "postcode": "H1T 1T3",
                        "region": "QC"
                  },
                  "name": "Lourdie Gourmandise"
            },
            {
                  "distance": 796,
                  "location": {
                        "address": "5241 Belanger Rue",
                        "country": "CA",
                        "formatted_address": "5241 Belanger Rue, Montreal QC H1T 1E1",
                        "locality": "Montreal",
                        "postcode": "H1T 1E1",
                        "region": "QC"
                  },
                  "name": "Caf\u00e9 Bar Padula"
            },
            {
                  "distance": 801,
                  "location": {
                        "address": "4524 Belanger Rue",
                        "country": "CA",
                        "formatted_address": "4524 Belanger Rue, Montreal QC H1T 1B6",
                        "locality": "Montreal",
                        "postcode": "H1T 1B6",
                        "region": "QC"
                  },
                  "name": "Patisserie Charcuterie"
            },
            {
                  "distance": 804,
                  "location": {
                        "address": "4579 Belanger Rue",
                        "country": "CA",
                        "formatted_address": "4579 Belanger Rue, Montreal QC H1T 1B8",
                        "locality": "Montreal",
                        "postcode": "H1T 1B8",
                        "region": "QC"
                  },
                  "name": "Boulangerie Monja Blanca"
            },
            {
                  "distance": 808,
                  "location": {
                        "address": "4551 Belanger Rue",
                        "country": "CA",
                        "formatted_address": "4551 Belanger Rue, Montreal QC H1T 1B8",
                        "locality": "Montreal",
                        "postcode": "H1T 1B8",
                        "region": "QC"
                  },
                  "name": "Cafe Portofino"
            },
            {
                  "distance": 818,
                  "location": {
                        "address": "5460 Beaubien Rue E",
                        "country": "CA",
                        "formatted_address": "5460 Beaubien Rue E, Montreal QC H1T 1W9",
                        "locality": "Montreal",
                        "postcode": "H1T 1W9",
                        "region": "QC"
                  },
                  "name": "Tora Sushi"
            },
            {
                  "distance": 832,
                  "location": {
                        "address": "4541 Belanger Rue",
                        "country": "CA",
                        "formatted_address": "4541 Belanger Rue, Montreal QC H1T 1B7",
                        "locality": "Montreal",
                        "postcode": "H1T 1B7",
                        "region": "QC"
                  },
                  "name": "Restaurant Akwaba Fine Cuisine Fusion Africaine et Grecque"
            },
            {
                  "distance": 952,
                  "location": {
                        "address": "4111 Beaubien Rue E",
                        "country": "CA",
                        "formatted_address": "4111 Beaubien Rue E, Montreal QC H1T 1S3",
                        "locality": "Montreal",
                        "postcode": "H1T 1S3",
                        "region": "QC"
                  },
                  "name": "Grotte de la Mer Inc"
            }
      ],
      "context": {
            "geo_bounds": {
                  "circle": {
                        "center": {
                              "latitude": 45.570081,
                              "longitude": -73.573047
                        },
                        "radius": 1000
                  }
            }
      }
}