{
      "results": [
            {
                  "distance": 499,
                  "location": {
                        "address": "1272 Sainte-Catherine Rue E",
                        "country": "CA",
                        "cross_street": "",
                        "formatted_address": "1272 Sainte-Catherine Rue E, Montr\u00e9al QC H2L 2H2",
                        "locality": "Montreal",
                        "postcode": "H2L 2H2",
                        "region": "QC"
                  },
                  "name": "Bar Renard",
                  "popularity": 0.9689274224072673,
                  "price": 2,
                  "rating": 9.0
            },
            {
                  "distance": 306,
                  "location": {
                        "address": "1700 Ontario Rue E",
                        "country": "CA",
                        "cross_street": "coin Papineau",
                        "formatted_address": "1700 Ontario Rue E (coin Papineau), Montr\u00e9al QC H2L 1S7",
                        "locality": "Montreal",
                        "postcode": "H2L 1S7",
                        "region": "QC"
                  },
                  "name": "La Fabrique Arhoma",
                  "popularity": 0.953420704012112,
                  "price": 1,
                  "rating": 8.9
            },
            {
                  "distance": 985,
                  "location": {
                        "address": "2021 Saint-Denis Rue",
                        "country": "CA",
                        "cross_street": "rue Ontario",
                        "formatted_address": "2021 Saint-Denis Rue (rue Ontario), Montr\u00e9al QC H2X 3K8",
                        "locality": "Montreal",
                        "postcode": "H2X 3K8",
                        "region": "QC"
                  },
                  "name": "Le 4e Mur",
                  "popularity": 0.9381860333080999,
                  "price": 3,
                  "rating": 8.6
            },
            {
                  "distance": 377,
                  "location": {
                        "address": "1310 Blvd de Maisonneuve Est",
                        "country": "CA",
                        "cross_street": "Visitation",
                        "formatted_address": "1310 Blvd de Maisonneuve Est (Visitation), Montr\u00e9al QC H2L 2A5",
                        "locality": "Montreal",
                        "postcode": "H2L 2A5",
                        "region": "QC"
                  },
                  "name": "Bistro le Passe Compose",
                  "popularity": 0.9547809424678274,
                  "price": 1,
                  "rating": 8.5
            },
            {
                  "distance": 553,
                  "location": {
                        "address": "1112 Blvd de Maisonneuve Est",
                        "country": "CA",
                        "cross_street": "btwn Amherst & Wolfe St.",
                        "formatted_address": "1112 Blvd de Maisonneuve Est (btwn Amherst & Wolfe St.), Montr\u00e9al QC H2L 1Z5",
                        "locality": "Montreal",
                        "postcode": "H2L 1Z5",
                        "region": "QC"
                  },
                  "name": "O'Thym",
                  "popularity": 0.9423613739591219,
                  "price": 3,
                  "rating": 8.5
            },
            {
                  "distance": 984,
                  "location": {
                        "address": "1749 Saint-Denis Rue",
                        "country": "CA",
                        "cross_street": "coin Ontario",
                        "formatted_address": "1749 Saint-Denis Rue (coin Ontario), Montr\u00e9al QC H2X 3K4",
                        "locality": "Montreal",
                        "postcode": "H2X 3K4",
                        "region": "QC"
                  },
                  "name": "Le Saint Bock",
                  "popularity": 0.9721565102195306,
                  "price": 2,
                  "rating": 8.4
            },
            {
                  "distance": 469,
                  "location": {
                        "address": "1301 Sainte-Catherine Rue E",
                        "country": "CA",
                        "cross_street": "coin De la Visitation",
                        "formatted_address": "1301 Sainte-Catherine Rue E (coin De la Visitation), Montr\u00e9al QC H2L 2H4",
                        "locality": "Montreal",
                        "postcode": "H2L 2H4",
                        "region": "QC"
                  },
                  "name": "Starbucks",
                  "popularity": 0.9795254542013626,
                  "price": 2,
                  "rating": 8.3,
                  "store_id": "830"
            },
            {
                  "distance": 632,
                  "location": {
                        "address": "1115 Sainte-Catherine Rue E",
                        "country": "CA",
                        "cross_street": "coin Wolfe",
                        "formatted_address": "1115 Sainte-Catherine Rue E (coin Wolfe), Montr\u00e9al QC H2L 2G6",
                        "locality": "Montreal",
                        "postcode": "H2L 2G6",
                        "region": "QC"
                  },
                  "name": "Cabaret Mado",
                  "popularity": 0.9138436790310371,
                  "price": 2,
                  "rating": 8.1
            },
            {
                  "distance": 998,
                  "location": {
                        "address": "1633 Saint-Denis Rue",
                        "country": "CA",
                        "cross_street": "",
                        "formatted_address": "1633 Saint-Denis Rue, Montr\u00e9al QC H2X 3K3",
                        "locality": "Montreal",
                        "postcode": "H2X 3K3",
                        "region": "QC"
                  },
                  "name": "Omnivore",
                  "popularity": 0.9007853898561695,
                  "price": 2,
                  "rating": 8.1
            },
            {
                  "distance": 459,
                  "location": {
                        "address": "1212 Blvd de Maisonneuve Est",
                        "country": "CA",
                        "cross_street": "",
                        "formatted_address": "1212 Blvd de Maisonneuve Est, Montr\u00e9al QC H2L 1Z9",
                        "locality": "Montreal",
                        "postcode": "H2L 1Z9",
                        "region": "QC"
                  },
                  "name": "En Couleur",
                  "popularity": 0.9447861468584405,
                  "rating": 8.0
            },
            {
                  "distance": 992,
                  "location": {
                        "address": "2049 Saint-Denis Rue",
                        "country": "CA",
                        "cross_street": "entre Ontario & Sherbrooke",
                        "formatted_address": "2049 Saint-Denis Rue (entre Ontario & Sherbrooke), Montr\u00e9al QC H2X 3K8",
                        "locality": "Montreal",
                        "postcode": "H2X 3K8",
                        "region": "QC"
                  },
                  "name": "Brasserie Artisanale l'Am\u00e8re a Boire Inc",
                  "popularity": 0.9146479939439819,
                  "price": 2,
                  "rating": 7.9
            },
            {
                  "distance": 995,
                  "location": {
                        "address": "1649 Saint-Denis Rue",
                        "country": "CA",
                        "cross_street": "entre Emery & Ontario",
                        "formatted_address": "1649 Saint-Denis Rue (entre Emery & Ontario), Montr\u00e9al QC H2X 3K4",
                        "locality": "Montreal",
                        "postcode": "H2X 3K4",
                        "region": "QC"
                  },
                  "name": "Pub l'Ile Noire",
                  "popularity": 0.9520841218773657,
                  "price": 2,
                  "rating": 7.9
            },
            {
                  "distance": 275,
                  "location": {
                        "address": "1690 Ontario Rue E",
                        "country": "CA",
                        "cross_street": "entre De Champlain & Papineau",
                        "formatted_address": "1690 Ontario Rue E (entre De Champlain & Papineau), Montr\u00e9al QC H2L 1S7",
                        "locality": "Montreal",
                        "postcode": "H2L 1S7",
                        "region": "QC"
                  },
                  "name": "Au Petit Extra",
                  "popularity": 0.9349924299772899,
                  "price": 4,
                  "rating": 7.9
            },
            {
                  "distance": 463,
                  "location": {
                        "address": "1315 Sainte-Catherine Rue E",
                        "country": "CA",
                        "cross_street": "entre Visitation et Panet",
                        "formatted_address": "1315 Sainte-Catherine Rue E (entre Visitation et Panet), Montr\u00e9al QC H2L 2H4",
                        "locality": "Montreal",
                        "postcode": "H2L 2H4",
                        "region": "QC"
                  },
                  "name": "Bar l'aigle Noir",
                  "popularity": 0.9607778198334594,
                  "price": 2,
                  "rating": 7.9
            },
            {
                  "distance": 251,
                  "location": {
                        "address": "1365 Ontario Rue E",
                        "country": "CA",
                        "formatted_address": "1365 Ontario Rue E, Montr\u00e9al QC H2L 1S2",
                        "locality": "Montreal",
                        "postcode": "H2L 1S2",
                        "region": "QC"
                  },
                  "name": "Poutineville",
                  "popularity": 0.9661241483724451,
                  "price": 2,
                  "rating": 7.9
            },
            {
                  "distance": 726,
                  "location": {
                        "address": "921 Sainte-Catherine Rue E",
                        "country": "CA",
                        "cross_street": "entre St-Andr\u00e9 & St-Timoth\u00e9e",
                        "formatted_address": "921 Sainte-Catherine Rue E (entre St-Andr\u00e9 & St-Timoth\u00e9e), Montr\u00e9al QC H2L 2E5",
                        "locality": "Montreal",
                        "postcode": "H2L 2E5",
                        "region": "QC"
                  },
                  "name": "La graine br\u00fbl\u00e9e",
                  "popularity": 0.9593584405753217,
                  "price": 1,
                  "rating": 7.8
            },
            {
                  "distance": 691,
                  "location": {
                        "address": "1030 Cherrier Rue",
                        "country": "CA",
                        "cross_street": "at Parc-Lafontaine Ave.",
                        "formatted_address": "1030 Cherrier Rue (at Parc-Lafontaine Ave.), Montr\u00e9al QC H2L 1H9",
                        "locality": "Montreal",
                        "postcode": "H2L 1H9",
                        "region": "QC"
                  },
                  "name": "Bistro T\u00f4t ou Tard",
                  "popularity": 0.9615821347464042,
                  "price": 1,
                  "rating": 7.7
            },
            {
                  "distance": 448,
                  "location": {
                        "address": "1812 Sainte-Catherine Rue E",
                        "country": "CA",
                        "cross_street": "Av Papineau",
                        "formatted_address": "1812 Sainte-Catherine Rue E (Av Papineau), Montr\u00e9al QC H2K 2H3",
                        "locality": "Montreal",
                        "postcode": "H2K 2H3",
                        "region": "QC"
                  },
                  "name": "Bar le Stud",
                  "popularity": 0.9814534443603331,
                  "price": 2,
                  "rating": 7.5
            },
            {
                  "distance": 943,
                  "location": {
                        "address": "3575 Berri Rue",
                        "country": "CA",
                        "formatted_address": "3575 Berri Rue, Montr\u00e9al QC H2L 4G3",
                        "locality": "Montreal",
                        "postcode": "H2L 4G3",
                        "region": "QC"
                  },
                  "name": "Patisserie St Louis de France",
                  "popularity": 0.9443366767600303,
                  "price": 1,
                  "rating": 7.5
            },
            {
                  "distance": 943,
                  "location": {
                        "address": "505 Sainte-Catherine Rue E",
                        "country": "CA",
                        "cross_street": "Rue Berri",
                        "formatted_address": "505 Sainte-Catherine Rue E (Rue Berri), Montr\u00e9al QC H2L 2C9",
                        "locality": "Montreal",
                        "postcode": "H2L 2C9",
                        "region": "QC"
                  },
                  "name": "Caf\u00e9 Van Houtte",
                  "popularity": 0.9991720287660864,
                  "price": 1,
                  "rating": 7.4
            },
            {
                  "distance": 857,
                  "location": {
                        "address": "2308 Ontario Rue E",
                        "country": "CA",
                        "cross_street": "",
                        "formatted_address": "2308 Ontario Rue E, Montr\u00e9al QC H2K 1W1",
                        "locality": "Montreal",
                        "postcode": "H2K 1W1",
                        "region": "QC"
                  },
                  "name": "Cr\u00e8merie Confiserie le Gourmandin",
                  "popularity": 0.8898679977289932,
                  "price": 1,
                  "rating": 7.4
            },
            {
                  "distance": 621,
                  "location": {
                        "address": "1111 Sainte-Catherine Rue E",
                        "country": "CA",
                        "cross_street": "",
                        "formatted_address": "1111 Sainte-Catherine Rue E, Montr\u00e9al QC H2L 2G6",
                        "locality": "Montreal",
                        "postcode": "H2L 2G6",
                        "region": "QC"
                  },
                  "name": "Campus",
                  "popularity": 0.9524271385314156,
                  "price": 3,
                  "rating": 7.3
            },
            {
                  "distance": 445,
                  "location": {
                        "address": "1333 Sainte-Catherine Rue E",
                        "country": "CA",
                        "cross_street": "coin Panet",
                        "formatted_address": "1333 Sainte-Catherine Rue E (coin Panet), Montr\u00e9al QC H2L 2H4",
                        "locality": "Montreal",
                        "postcode": "H2L 2H4",
                        "region": "QC"
                  },
                  "name": "Le Saloon Bistro Bar Inc",
                  "popularity": 0.9465721990915973,
                  "price": 2,
                  "rating": 7.3
            },
            {
                  "distance": 257,
                  "location": {
                        "address": "1652 Ontario Rue E",
                        "country": "CA",
                        "cross_street": "",
                        "formatted_address": "1652 Ontario Rue E, Montr\u00e9al QC H2L 1S7",
                        "locality": "Montreal",
                        "postcode": "H2L 1S7",
                        "region": "QC"
                  },
                  "name": "Dame Tartine D\u00e9jeuner et D\u00eener",
                  "popularity": 0.9304031037093111,
                  "price": 1,
                  "rating": 7.3
            },
            {
                  "distance": 971,
                  "location": {
                        "address": "405 Sherbrooke Rue E",
                        "country": "CA",
                        "cross_street": "St-Denis",
                        "formatted_address": "405 Sherbrooke Rue E (St-Denis), Montr\u00e9al QC H2L 1J9",
                        "locality": "Montreal",
                        "postcode": "H2L 1J9",
                        "region": "QC"
                  },
                  "name": "Takumi Sushi",
                  "popularity": 0.9657929598788796,
                  "price": 2,
                  "rating": 7.2
            },
            {
                  "distance": 371,
                  "location": {
                        "address": "1851 Ontario Rue E",
                        "country": "CA",
                        "cross_street": "Rue Cartier",
                        "formatted_address": "1851 Ontario Rue E (Rue Cartier), Montr\u00e9al QC H2K 1T6",
                        "locality": "Montreal",
                        "postcode": "H2K 1T6",
                        "region": "QC"
                  },
                  "name": "A Quinta",
                  "popularity": 0.9652488644965935,
                  "price": 2,
                  "rating": 7.0
            },
            {
                  "distance": 901,
                  "location": {
                        "address": "475 Blvd de Maisonneuve Est",
                        "country": "CA",
                        "cross_street": "Berri",
                        "formatted_address": "475 Blvd de Maisonneuve Est (Berri), Montreal QC H2L 5C4",
                        "locality": "Montreal",
                        "postcode": "H2L 5C4",
                        "region": "QC"
                  },
                  "name": "Le Parva caf\u00e9&bistro",
                  "popularity": 0.9762135692657078,
                  "price": 1,
                  "rating": 6.9
            },
            {
                  "distance": 659,
                  "location": {
                        "address": "1295 Atateken Rue",
                        "country": "CA",
                        "cross_street": "Coin Sainte-Catherine Est",
                        "formatted_address": "1295 Atateken Rue (Coin Sainte-Catherine Est), Montr\u00e9al QC H2L 3K9",
                        "locality": "Montreal",
                        "postcode": "H2L 3K9",
                        "region": "QC"
                  },
                  "name": "Taverne Normandie",
                  "popularity": 0.9363881529144588,
                  "price": 2,
                  "rating": 6.8
            },
            {
                  "distance": 487,
                  "location": {
                        "address": "1870 Sainte-Catherine Rue E",
                        "country": "CA",
                        "cross_street": "coin Cartier",
                        "formatted_address": "1870 Sainte-Catherine Rue E (coin Cartier), Montr\u00e9al QC H2K 2H5",
                        "locality": "Montreal",
                        "postcode": "H2K 2H5",
                        "region": "QC"
                  },
                  "name": "Lafayette Hot Dog",
                  "popularity": 0.9246191332323997,
                  "price": 1,
                  "rating": 6.8
            },
            {
                  "distance": 432,
                  "location": {
                        "address": "1365 Sainte Catherine Rue E",
                        "country": "CA",
                        "cross_street": "",
                        "formatted_address": "1365 Sainte Catherine Rue E, Montr\u00e9al QC H2L 2H7",
                        "locality": "Montreal",
                        "postcode": "H2L 2H7",
                        "region": "QC"
                  },
                  "name": "District Video Lounge",
                  "popularity": 0.9562712906888721,
                  "price": 3,
                  "rating": 6.7
            },
            {
                  "distance": 976,
                  "location": {
                        "address": "403 Ontario Rue E",
                        "country": "CA",
                        "cross_street": "coin St-Denis",
                        "formatted_address": "403 Ontario Rue E (coin St-Denis), Montr\u00e9al QC H2L 1N5",
                        "locality": "Montreal",
                        "postcode": "H2L 1N5",
                        "region": "QC"
                  },
                  "name": "Pub l'Abreuvoir Inc",
                  "popularity": 0.9483582513247539,
                  "price": 2,
                  "rating": 6.6
            },
            {
                  "distance": 535,
                  "location": {
                        "address": "1218 Sainte-Catherine Rue E",
                        "country": "CA",
                        "cross_street": "entre Beaudry et Montcalm",
                        "formatted_address": "1218 Sainte-Catherine Rue E (entre Beaudry et Montcalm), Montr\u00e9al QC H2L 2G9",
                        "locality": "Montreal",
                        "postcode": "H2L 2G9",
                        "region": "QC"
                  },
                  "name": "Le Date Karaok\u00e9",
                  "popularity": 0.9557508516275549,
                  "price": 2,
                  "rating": 6.6
            },
            {
                  "distance": 652,
                  "location": {
                        "address": "1019 Sainte-Catherine Rue E",
                        "country": "CA",
                        "cross_street": "coin  Amherst",
                        "formatted_address": "1019 Sainte-Catherine Rue E (coin  Amherst), Montr\u00e9al QC H2L 2G4",
                        "locality": "Montreal",
                        "postcode": "H2L 2G4",
                        "region": "QC"
                  },
                  "name": "R\u00f4tisserie St-Hubert",
                  "popularity": 0.9431775170325511,
                  "price": 2,
                  "rating": 6.5
            },
            {
                  "distance": 510,
                  "location": {
                        "address": "1663 Atateken Rue",
                        "country": "CA",
                        "cross_street": "",
                        "formatted_address": "1663 Atateken Rue, Montr\u00e9al QC H2L 3L4",
                        "locality": "Montreal",
                        "postcode": "H2L 3L4",
                        "region": "QC"
                  },
                  "name": "Restaurant Pho Viet",
                  "popularity": 0.9077048637395913,
                  "price": 2,
                  "rating": 6.5
            },
            {
                  "distance": 687,
                  "location": {
                        "address": "1001 Sainte-Catherine Rue E",
                        "country": "CA",
                        "cross_street": "coin rue Saint-Timoth\u00e9e",
                        "formatted_address": "1001 Sainte-Catherine Rue E (coin rue Saint-Timoth\u00e9e), Montr\u00e9al QC H2L 2G4",
                        "locality": "Montreal",
                        "postcode": "H2L 2G4",
                        "region": "QC"
                  },
                  "name": "Pizza Pizza",
                  "popularity": 0.9543078160484482,
                  "price": 1,
                  "rating": 6.5,
                  "store_id": "306"
            }
      ],
      "context": {
            "geo_bounds": {
                  "circle": {
                        "center": {
                              "latitude": 45.52330366,
                              "longitude": -73.55799973
                        },
                        "radius": 1000
                  }
            }
      }
}