{
      "results": [
            {
                  "distance": 893,
                  "location": {
                        "address": "350 Lebeau Blvd",
                        "country": "CA",
                        "cross_street": "",
                        "formatted_address": "350 Lebeau Blvd, Saint-Laurent QC H4N 1R5",
                        "locality": "Saint-Laurent",
                        "postcode": "H4N 1R5",
                        "region": "QC"
                  },
                  "name": "Boulangerie Andalos",
                  "popularity": 0.9985924489023467,
                  "price": 2,
                  "rating": 8.1
            },
            {
                  "distance": 629,
                  "location": {
                        "address": "740 Blvd de la cote-Vertu",
                        "address_extended": "Suite 159D",
                        "country": "CA",
                        "formatted_address": "740 Blvd de la cote-Vertu, Saint-Laurent QC H4L 5C8",
                        "locality": "Saint-Laurent",
                        "postcode": "H4L 5C8",
                        "region": "QC"
                  },
                  "name": "Subway",
                  "popularity": 0.9444667865253595,
                  "price": 1,
                  "rating": 6.4
            },
            {
                  "distance": 655,
                  "location": {
                        "address": "740 C\u00f4te-Vertu",
                        "country": "CA",
                        "cross_street": "",
                        "formatted_address": "740 C\u00f4te-Vertu, Saint-Laurent QC H4L 5C8",
                        "locality": "Saint-Laurent",
                        "postcode": "H4L 5C8",
                        "region": "QC"
                  },
                  "name": "Pho Thanh Nam Quan",
                  "popularity": 0.9864449280847842,
                  "price": 2,
                  "rating": 5.9
            },
            {
                  "distance": 943,
                  "location": {
                        "address": "2305 Rockland Ch",
                        "country": "CA",
                        "cross_street": "Centre Rockland",
                        "formatted_address": "2305 Rockland Ch (Centre Rockland), Montr\u00e9al QC",
                        "locality": "Montreal",
                        "region": "QC"
                  },
                  "name": "McDonald's",
                  "popularity": 0.8653009084027252,
                  "price": 1,
                  "rating": 5.8
            },
            {
                  "distance": 596,
                  "location": {
                        "address": "1470 Blvd de la C\u00f4te-Vertu",
                        "country": "CA",
                        "cross_street": "Montpellier",
                        "formatted_address": "1470 Blvd de la C\u00f4te-Vertu (Montpellier), Saint-Laurent QC H4L 1Z7",
                        "locality": "Saint-Laurent",
                        "postcode": "H4L 1Z7",
                        "region": "QC"
                  },
                  "name": "Caf\u00e9 Beyrouth",
                  "popularity": 0.9762727100681302,
                  "price": 1
            },
            {
                  "distance": 611,
                  "location": {
                        "address": "740 Blvd de la C\u00f4te-Vertu O",
                        "country": "CA",
                        "cross_street": "",
                        "formatted_address": "740 Blvd de la C\u00f4te-Vertu O, Montr\u00e9al QC H4L 5C8",
                        "locality": "Montreal",
                        "postcode": "H4L 5C8",
                        "region": "QC"
                  },
                  "name": "Patisserie Al Shahroura",
                  "popularity": 0.3167226532929599
            },
            {
                  "distance": 619,
                  "location": {
                        "address": "595 Blvd de la cote-Vertu",
                        "country": "CA",
                        "formatted_address": "595 Blvd de la cote-Vertu, Saint-Laurent QC H4L 1X8",
                        "locality": "Saint-Laurent",
                        "postcode": "H4L 1X8",
                        "region": "QC"
                  },
                  "name": "Caf\u00e9 Restaurant Jounieh",
                  "popularity": 0.30064818319454956
            },
            {
                  "distance": 825,
                  "location": {
                        "address": "3072 Cote de Liesse",
                        "country": "CA",
                        "cross_street": "at Montpellier",
                        "formatted_address": "3072 Cote de Liesse (at Montpellier), Mont-Royal QC H4N 2P3",
                        "locality": "Mont-Royal",
                        "postcode": "H4N 2P3",
                        "region": "QC"
                  },
                  "name": "Frank's",
                  "popularity": 0.15193272142316427,
                  "price": 2
            },
            {
                  "distance": 2722,
                  "location": {
                        "address": "597 Blvd de la C\u00f4te-Vertu",
                        "country": "CA",
                        "cross_street": "",
                        "formatted_address": "597 Blvd de la C\u00f4te-Vertu, Montr\u00e9al QC H4L 1X8",
                        "locality": "Montreal",
                        "postcode": "H4L 1X8",
                        "region": "QC"
                  },
                  "name": "Chez Wafi",
                  "popularity": 0.6317183951551855,
                  "price": 1
            },
            {
                  "distance": 233,
                  "location": {
                        "address": "720 Montpellier Blvd",
                        "country": "CA",
                        "formatted_address": "720 Montpellier Blvd, Saint-Laurent QC H4L 5B5",
                        "locality": "Saint-Laurent",
                        "postcode": "H4L 5B5",
                        "region": "QC"
                  },
                  "name": "Cuisine Syrienne"
            },
            {
                  "distance": 383,
                  "location": {
                        "address": "500 Hodge Rue",
                        "country": "CA",
                        "formatted_address": "500 Hodge Rue, Saint-Laurent QC H4N 2A4",
                        "locality": "Saint-Laurent",
                        "postcode": "H4N 2A4",
                        "region": "QC"
                  },
                  "name": "Mad Science Montreal"
            },
            {
                  "distance": 590,
                  "location": {
                        "address": "740 Cote Vertu Blvd O",
                        "country": "CA",
                        "formatted_address": "740 Cote Vertu Blvd O, Saint-Laurent QC H4L 5C8",
                        "locality": "Saint-Laurent",
                        "postcode": "H4L 5C8",
                        "region": "QC"
                  },
                  "name": "Poulet Syriana"
            },
            {
                  "distance": 608,
                  "location": {
                        "address": "740 Blvd de la Cote Vertu",
                        "country": "CA",
                        "formatted_address": "740 Blvd de la Cote Vertu, Saint-Laurent QC H4L 5C8",
                        "locality": "Saint-Laurent",
                        "postcode": "H4L 5C8",
                        "region": "QC"
                  },
                  "name": "Bon Appetit"
            },
            {
                  "distance": 622,
                  "location": {
                        "address": "740 Cote Vertu Blvd O",
                        "country": "CA",
                        "formatted_address": "740 Cote Vertu Blvd O, Saint-Laurent QC",
                        "locality": "Saint-Laurent",
                        "region": "QC"
                  },
                  "name": "Ph\u1edf Th\u00e0nh Nam Quang"
            },
            {
                  "distance": 622,
                  "location": {
                        "address": "740 Blvd de la cote-Vertu",
                        "country": "CA",
                        "formatted_address": "740 Blvd de la cote-Vertu, Saint-Laurent QC H4L 5C8",
                        "locality": "Saint-Laurent",
                        "postcode": "H4L 5C8",
                        "region": "QC"
                  },
                  "name": "Thanh Tien Nguyen"
            },
            {
                  "distance": 625,
                  "location": {
                        "address": "740 Blvd de la Cote-Vertu",
                        "country": "CA",
                        "formatted_address": "740 Blvd de la Cote-Vertu, Saint-Laurent QC",
                        "locality": "Saint-Laurent",
                        "region": "QC"
                  },
                  "name": "Cafe Bistro Arly Tera"
            },
            {
                  "distance": 629,
                  "location": {
                        "address": "250 Deslauriers Rue",
                        "country": "CA",
                        "formatted_address": "250 Deslauriers Rue, Saint-Laurent QC H4N 1V8",
                        "locality": "Saint-Laurent",
                        "postcode": "H4N 1V8",
                        "region": "QC"
                  },
                  "name": "LEA Aliments Papco Inc"
            },
            {
                  "distance": 632,
                  "location": {
                        "address": "685 BdC\u00f4teVertu",
                        "country": "CA",
                        "formatted_address": "685 BdC\u00f4teVertu, Saint-Laurent QC H4L 1Y2",
                        "locality": "Saint-Laurent",
                        "postcode": "H4L 1Y2",
                        "region": "QC"
                  },
                  "name": "Restaurants Shawarmang\u00e9"
            },
            {
                  "distance": 648,
                  "location": {
                        "address": "733 Blvd de la C\u00f4te-Vertu",
                        "country": "CA",
                        "formatted_address": "733 Blvd de la C\u00f4te-Vertu, Saint-Laurent QC",
                        "locality": "Saint-Laurent",
                        "region": "QC"
                  },
                  "name": "Abu Elias"
            },
            {
                  "distance": 679,
                  "location": {
                        "address": "751 Blvd de la Cote-Vertu Saint-Laurent",
                        "country": "CA",
                        "formatted_address": "751 Blvd de la Cote-Vertu Saint-Laurent, Saint-Laurent QC H4L 1Y6",
                        "locality": "Saint-Laurent",
                        "postcode": "H4L 1Y6",
                        "region": "QC"
                  },
                  "name": "Poissonnerie et Fruits de Mer Sailor's"
            },
            {
                  "distance": 691,
                  "location": {
                        "address": "751 Blvd de la C\u00f4te-Vertu",
                        "country": "CA",
                        "formatted_address": "751 Blvd de la C\u00f4te-Vertu, Saint-Laurent QC H4L 1Y6",
                        "locality": "Saint-Laurent",
                        "postcode": "H4L 1Y6",
                        "region": "QC"
                  },
                  "name": "Sailor's"
            },
            {
                  "distance": 726,
                  "location": {
                        "address": "625 Sainte-Croix Ave",
                        "country": "CA",
                        "formatted_address": "625 Sainte-Croix Ave, Saint-Laurent QC H4L 3X7",
                        "locality": "Saint-Laurent",
                        "postcode": "H4L 3X7",
                        "region": "QC"
                  },
                  "name": "Buffet Larry"
            },
            {
                  "distance": 730,
                  "location": {
                        "address": "825 Blvd de la Cote-Vertu",
                        "country": "CA",
                        "formatted_address": "825 Blvd de la Cote-Vertu, Saint-Laurent QC H4L 1Y6",
                        "locality": "Saint-Laurent",
                        "postcode": "H4L 1Y6",
                        "region": "QC"
                  },
                  "name": "Restaurant Siwar"
            },
            {
                  "distance": 860,
                  "location": {
                        "address": "821 Sainte-Croix Ave",
                        "address_extended": "The N Building",
                        "country": "CA",
                        "formatted_address": "821 Sainte-Croix Ave, Saint-Laurent QC H4L 3X9",
                        "locality": "Saint-Laurent",
                        "postcode": "H4L 3X9",
                        "region": "QC"
                  },
                  "name": "Subway",
                  "store_id": "19723"
            },
            {
                  "distance": 921,
                  "location": {
                        "address": "264 Lebeau Blvd",
                        "country": "CA",
                        "formatted_address": "264 Lebeau Blvd, Saint-Laurent QC H4N 1R4",
                        "locality": "Saint-Laurent",
                        "postcode": "H4N 1R4",
                        "region": "QC"
                  },
                  "name": "Boulangerie Andalos Inc"
            },
            {
                  "distance": 925,
                  "location": {
                        "address": "258 Lebeau Blvd",
                        "country": "CA",
                        "formatted_address": "258 Lebeau Blvd, Saint-Laurent QC H4N 1R4",
                        "locality": "Saint-Laurent",
                        "postcode": "H4N 1R4",
                        "region": "QC"
                  },
                  "name": "Thinaddictives"
            }
      ],
      "context": {
            "geo_bounds": {
                  "circle": {
                        "center": {
                              "latitude": 45.51962176,
                              "longitude": -73.66624832
                        },
                        "radius": 1000
                  }
            }
      }
}