{
      "results": [
            {
                  "distance": 661,
                  "location": {
                        "address": "5411 rue de Verdun",
                        "country": "CA",
                        "cross_street": "coin Argyle",
                        "formatted_address": "5411 rue de Verdun (coin Argyle), Verdun QC H4H 1K6",
                        "locality": "Verdun",
                        "postcode": "H4H 1K6",
                        "region": "QC"
                  },
                  "name": "Bagel St-Lo",
                  "popularity": 0.9861965367146102,
                  "price": 1,
                  "rating": 8.9
            },
            {
                  "distance": 258,
                  "location": {
                        "address": "5810 Rue de Verdun",
                        "country": "CA",
                        "cross_street": "Manning",
                        "formatted_address": "5810 Rue de Verdun (Manning), Verdun QC H4H 1L9",
                        "locality": "Verdun",
                        "postcode": "H4H 1L9",
                        "region": "QC"
                  },
                  "name": "Frejus St Raphael Cafe",
                  "popularity": 0.9233535200605602,
                  "price": 1,
                  "rating": 7.4
            },
            {
                  "distance": 561,
                  "location": {
                        "address": "5561 Rue de Verdun",
                        "country": "CA",
                        "cross_street": "Egan",
                        "formatted_address": "5561 Rue de Verdun (Egan), Verdun QC H4H 1L2",
                        "locality": "Verdun",
                        "postcode": "H4H 1L2",
                        "region": "QC"
                  },
                  "name": "Restaurant Bingo Regd",
                  "popularity": 0.9477313588190764,
                  "price": 1,
                  "rating": 7.3
            },
            {
                  "distance": 585,
                  "location": {
                        "address": "5531 Rue de Verdun",
                        "address_extended": "coin \u00c9gan",
                        "country": "CA",
                        "cross_street": "coin \u00c9gan",
                        "formatted_address": "5531 Rue de Verdun (coin \u00c9gan), Verdun QC H4H 1K9",
                        "locality": "Verdun",
                        "postcode": "H4H 1K9",
                        "region": "QC"
                  },
                  "name": "Au Coq",
                  "popularity": 0.9881245268735807,
                  "price": 2,
                  "rating": 6.7
            },
            {
                  "distance": 718,
                  "location": {
                        "address": "5443 Wellington Rue",
                        "country": "CA",
                        "cross_street": "coin Woodland",
                        "formatted_address": "5443 Wellington Rue (coin Woodland), Verdun QC H4H 1N4",
                        "locality": "Verdun",
                        "postcode": "H4H 1N4",
                        "region": "QC"
                  },
                  "name": "Woodland Restaurant",
                  "popularity": 0.911064061317184,
                  "price": 1,
                  "rating": 6.3
            },
            {
                  "distance": 537,
                  "location": {
                        "address": "5583 Rue de Verdun",
                        "country": "CA",
                        "cross_street": "",
                        "formatted_address": "5583 Rue de Verdun, Montr\u00e9al QC H4H 1L2",
                        "locality": "Montreal",
                        "postcode": "H4H 1L2",
                        "region": "QC"
                  },
                  "name": "Pizzeria Geppetto",
                  "popularity": 0.904333838001514,
                  "price": 2
            },
            {
                  "distance": 766,
                  "location": {
                        "address": "5300 rue de Verdun",
                        "country": "CA",
                        "cross_street": "rue Melrose",
                        "formatted_address": "5300 rue de Verdun (rue Melrose), Verdun QC H4H 1K4",
                        "locality": "Verdun",
                        "postcode": "H4H 1K4",
                        "region": "QC"
                  },
                  "name": "Le Roi du Hot Dog",
                  "popularity": 0.982139477668433,
                  "price": 1
            },
            {
                  "distance": 957,
                  "location": {
                        "address": "5145 Wellington Rue",
                        "country": "CA",
                        "cross_street": "",
                        "formatted_address": "5145 Wellington Rue, Verdun QC H4G 1Y2",
                        "locality": "Verdun",
                        "postcode": "H4G 1Y2",
                        "region": "QC"
                  },
                  "name": "Kokochi Izakaya",
                  "popularity": 0.8913465177895533,
                  "price": 2
            },
            {
                  "distance": 255,
                  "location": {
                        "address": "5810 rue de Verdun",
                        "country": "CA",
                        "formatted_address": "5810 rue de Verdun, Verdun QC H4H 1L9",
                        "locality": "Verdun",
                        "postcode": "H4H 1L9",
                        "region": "QC"
                  },
                  "name": "Cafe Frejus"
            },
            {
                  "distance": 602,
                  "location": {
                        "address": "5511 rue de Verdun",
                        "country": "CA",
                        "formatted_address": "5511 rue de Verdun, Verdun QC H4H 1K9",
                        "locality": "Verdun",
                        "postcode": "H4H 1K9",
                        "region": "QC"
                  },
                  "name": "Restaurant Napolitana"
            },
            {
                  "distance": 602,
                  "location": {
                        "address": "5511 rue de Verdun",
                        "country": "CA",
                        "formatted_address": "5511 rue de Verdun, Verdun QC H4H 1K9",
                        "locality": "Verdun",
                        "postcode": "H4H 1K9",
                        "region": "QC"
                  },
                  "name": "Cafe Benetictins"
            },
            {
                  "distance": 748,
                  "location": {
                        "address": "5300 rue de Verdun",
                        "country": "CA",
                        "formatted_address": "5300 rue de Verdun, Verdun QC H4H 1K4",
                        "locality": "Verdun",
                        "postcode": "H4H 1K4",
                        "region": "QC"
                  },
                  "name": "Les Cremerie Dairy King Ltee"
            },
            {
                  "distance": 762,
                  "location": {
                        "address": "5433 Bannantyne Rue",
                        "country": "CA",
                        "formatted_address": "5433 Bannantyne Rue, Verdun QC H4H 1G1",
                        "locality": "Verdun",
                        "postcode": "H4H 1G1",
                        "region": "QC"
                  },
                  "name": "Frejus St Raphael Cafe"
            },
            {
                  "distance": 796,
                  "location": {
                        "address": "5317 Wellington Rue",
                        "address_extended": "# 5315",
                        "country": "CA",
                        "formatted_address": "5317 Wellington Rue, Verdun QC H4H 1N3",
                        "locality": "Verdun",
                        "postcode": "H4H 1N3",
                        "region": "QC"
                  },
                  "name": "Le Sing-Niors Lounge"
            },
            {
                  "distance": 898,
                  "location": {
                        "address": "341 Desmarchais Ave",
                        "country": "CA",
                        "formatted_address": "341 Desmarchais Ave, Verdun QC H4H 1S5",
                        "locality": "Verdun",
                        "postcode": "H4H 1S5",
                        "region": "QC"
                  },
                  "name": "Toty Cupcakes"
            },
            {
                  "distance": 917,
                  "location": {
                        "address": "6300 Beurling Rue",
                        "country": "CA",
                        "formatted_address": "6300 Beurling Rue, Verdun QC H4H 1C8",
                        "locality": "Verdun",
                        "postcode": "H4H 1C8",
                        "region": "QC"
                  },
                  "name": "Les Grands Burlesques"
            },
            {
                  "distance": 960,
                  "location": {
                        "address": "5145 Wellington Rue",
                        "country": "CA",
                        "formatted_address": "5145 Wellington Rue, Verdun QC H4G 1Y2",
                        "locality": "Verdun",
                        "postcode": "H4G 1Y2",
                        "region": "QC"
                  },
                  "name": "Restaurant Del Quartiere"
            }
      ],
      "context": {
            "geo_bounds": {
                  "circle": {
                        "center": {
                              "latitude": 45.44693448,
                              "longitude": -73.57219934
                        },
                        "radius": 1000
                  }
            }
      }
}