{
      "results": [
            {
                  "distance": 868,
                  "location": {
                        "address": "2130 Saint-Joseph Blvd",
                        "country": "CA",
                        "cross_street": "",
                        "formatted_address": "2130 Saint-Joseph Blvd, Montr\u00e9al QC H8S 2N7",
                        "locality": "Montreal",
                        "postcode": "H8S 2N7",
                        "region": "QC"
                  },
                  "name": "H8S Bar \u00e0 caf\u00e9",
                  "popularity": 0.9243470855412567,
                  "price": 1,
                  "rating": 8.3
            },
            {
                  "distance": 209,
                  "location": {
                        "address": "3119 Victoria Rue",
                        "country": "CA",
                        "cross_street": "32e Avenue",
                        "formatted_address": "3119 Victoria Rue (32e Avenue), Montreal QC H8S 0B1",
                        "locality": "Lachine",
                        "postcode": "H8S 0B1",
                        "region": "QC"
                  },
                  "name": "Patisserie Marius et Fanny",
                  "popularity": 0.9479206093868282,
                  "price": 1,
                  "rating": 7.7
            },
            {
                  "distance": 355,
                  "location": {
                        "address": "637 32e Ave",
                        "address_extended": "Plaza le Village Lachine",
                        "country": "CA",
                        "cross_street": "",
                        "formatted_address": "637 32e Ave, Lachine QC H8T 3G6",
                        "locality": "Lachine",
                        "postcode": "H8T 3G6",
                        "region": "QC"
                  },
                  "name": "Thai Express",
                  "popularity": 0.9067704390613172,
                  "price": 2,
                  "rating": 7.3,
                  "store_id": "197"
            },
            {
                  "distance": 448,
                  "location": {
                        "address": "3060 St Joseph Blvd",
                        "country": "CA",
                        "cross_street": "",
                        "formatted_address": "3060 St Joseph Blvd, Lachine QC",
                        "locality": "Lachine",
                        "region": "QC"
                  },
                  "name": "Barroso",
                  "popularity": 0.8929314912944739,
                  "price": 2,
                  "rating": 7.3
            },
            {
                  "distance": 535,
                  "location": {
                        "address": "2525 Victoria Rue",
                        "country": "CA",
                        "cross_street": "",
                        "formatted_address": "2525 Victoria Rue, Lachine QC H8S 0A7",
                        "locality": "Lachine",
                        "postcode": "H8S 0A7",
                        "region": "QC"
                  },
                  "name": "Tim Hortons",
                  "popularity": 0.9938375283875852,
                  "price": 1,
                  "rating": 6.9
            },
            {
                  "distance": 884,
                  "location": {
                        "address": "2138 Saint-Joseph Blvd",
                        "country": "CA",
                        "cross_street": "",
                        "formatted_address": "2138 Saint-Joseph Blvd, Montr\u00e9al QC H8S 2N7",
                        "locality": "Montreal",
                        "postcode": "H8S 2N7",
                        "region": "QC"
                  },
                  "name": "Le Quai des glaces",
                  "popularity": 0.9488550340651022,
                  "price": 1,
                  "rating": 6.5
            },
            {
                  "distance": 265,
                  "location": {
                        "address": "2944 Remembrance Rue",
                        "address_extended": "Unit 47A",
                        "country": "CA",
                        "cross_street": "32 avenue",
                        "formatted_address": "2944 Remembrance Rue (32 avenue), Montr\u00e9al QC H8S 1X8",
                        "locality": "Montreal",
                        "postcode": "H8S 1X8",
                        "region": "QC"
                  },
                  "name": "Subway",
                  "popularity": 0.9158781226343679,
                  "price": 1,
                  "rating": 6.3,
                  "store_id": "22200"
            },
            {
                  "distance": 424,
                  "location": {
                        "address": "665 32e Ave",
                        "country": "CA",
                        "cross_street": "Rue Provost",
                        "formatted_address": "665 32e Ave (Rue Provost), Lachine QC H8T 3G6",
                        "locality": "Lachine",
                        "postcode": "H8T 3G6",
                        "region": "QC"
                  },
                  "name": "R\u00f4tisserie St-Hubert",
                  "popularity": 0.9845169379258137,
                  "price": 2,
                  "rating": 5.9,
                  "store_id": "100097"
            },
            {
                  "distance": 417,
                  "location": {
                        "address": "3060 Saint-Joseph Blvd",
                        "country": "CA",
                        "cross_street": "32eme avenue",
                        "formatted_address": "3060 Saint-Joseph Blvd (32eme avenue), Lachine QC H8S 2P4",
                        "locality": "Lachine",
                        "postcode": "H8S 2P4",
                        "region": "QC"
                  },
                  "name": "Andrea Ristorante",
                  "popularity": 0.8839420893262679,
                  "price": 2,
                  "rating": 5.7
            },
            {
                  "distance": 453,
                  "location": {
                        "address": "430 28e Ave",
                        "country": "CA",
                        "cross_street": "Rue Victoria",
                        "formatted_address": "430 28e Ave (Rue Victoria), Lachine QC H8S 3Z4",
                        "locality": "Lachine",
                        "postcode": "H8S 3Z4",
                        "region": "QC"
                  },
                  "name": "McDonald's",
                  "popularity": 0.9964397236941711,
                  "price": 1,
                  "rating": 5.6
            },
            {
                  "distance": 346,
                  "location": {
                        "address": "2780 Remembrance Rue",
                        "country": "CA",
                        "formatted_address": "2780 Remembrance Rue, Lachine QC H8S 1X8",
                        "locality": "Lachine",
                        "postcode": "H8S 1X8",
                        "region": "QC"
                  },
                  "name": "Restaurant Eggsquis",
                  "popularity": 0.9915310370931113,
                  "price": 1,
                  "rating": 5.4
            },
            {
                  "distance": 299,
                  "location": {
                        "address": "2972 Remembrance Rue",
                        "address_extended": "Suite 28",
                        "country": "CA",
                        "cross_street": "",
                        "formatted_address": "2972 Remembrance Rue, Lachine QC H8S 1X8",
                        "locality": "Lachine",
                        "postcode": "H8S 1X8",
                        "region": "QC"
                  },
                  "name": "Pizza Hut",
                  "popularity": 0.9492098788796366,
                  "price": 1,
                  "store_id": "R46001"
            },
            {
                  "distance": 315,
                  "location": {
                        "address": "2912 Remembrance Rue",
                        "country": "CA",
                        "cross_street": "32e avenue",
                        "formatted_address": "2912 Remembrance Rue (32e avenue), Lachine QC H8S 1X8",
                        "locality": "Lachine",
                        "postcode": "H8S 1X8",
                        "region": "QC"
                  },
                  "name": "Restaurant Qu\u00e9berac",
                  "popularity": 0.9095855412566237,
                  "price": 2
            },
            {
                  "distance": 331,
                  "location": {
                        "address": "633 32e Ave",
                        "country": "CA",
                        "cross_street": "",
                        "formatted_address": "633 32e Ave, Lachine QC H8T 3G6",
                        "locality": "Lachine",
                        "postcode": "H8T 3G6",
                        "region": "QC"
                  },
                  "name": "Toujours Mikes",
                  "popularity": 0.9447388342165026,
                  "price": 2,
                  "store_id": "MK-0026"
            },
            {
                  "distance": 335,
                  "location": {
                        "address": "633 32e Ave",
                        "country": "CA",
                        "cross_street": "",
                        "formatted_address": "633 32e Ave, Montr\u00e9al QC H8T 3G6",
                        "locality": "Montreal",
                        "postcode": "H8T 3G6",
                        "region": "QC"
                  },
                  "name": "Sushi Shop",
                  "popularity": 0.949907740348221,
                  "price": 2
            },
            {
                  "distance": 360,
                  "location": {
                        "address": "3135 Notre-Dame Rue",
                        "country": "CA",
                        "cross_street": "",
                        "formatted_address": "3135 Notre-Dame Rue, Lachine QC H8S 2H4",
                        "locality": "Lachine",
                        "postcode": "H8S 2H4",
                        "region": "QC"
                  },
                  "name": "Mommys Fish & Chips Regd",
                  "popularity": 0.9273514383043149,
                  "price": 1
            },
            {
                  "distance": 395,
                  "location": {
                        "address": "2972 Remembrance Rue",
                        "country": "CA",
                        "cross_street": "",
                        "formatted_address": "2972 Remembrance Rue, Montr\u00e9al QC H8S 1X8",
                        "locality": "Montreal",
                        "postcode": "H8S 1X8",
                        "region": "QC"
                  },
                  "name": "Amir",
                  "popularity": 0.5464610143830432,
                  "price": 1
            },
            {
                  "distance": 504,
                  "location": {
                        "address": "2825 Victoria Rue",
                        "country": "CA",
                        "cross_street": "",
                        "formatted_address": "2825 Victoria Rue, Montr\u00e9al QC H8S 0A7",
                        "locality": "Montreal",
                        "postcode": "H8S 0A7",
                        "region": "QC"
                  },
                  "name": "Bacaro Pizzeria Urbaine",
                  "popularity": 0.9500969909159728,
                  "price": 1
            },
            {
                  "distance": 635,
                  "location": {
                        "address": "2530 Saint-Joseph Blvd",
                        "country": "CA",
                        "formatted_address": "2530 Saint-Joseph Blvd, Lachine QC H8S 2N9",
                        "locality": "Lachine",
                        "postcode": "H8S 2N9",
                        "region": "QC"
                  },
                  "name": "Villa Taormina Restaurant",
                  "popularity": 0.934945117335352,
                  "price": 2
            },
            {
                  "distance": 194,
                  "location": {
                        "address": "3119 Victoria Rue",
                        "country": "CA",
                        "formatted_address": "3119 Victoria Rue, Lachine QC H8S 1Z4",
                        "locality": "Lachine",
                        "postcode": "H8S 1Z4",
                        "region": "QC"
                  },
                  "name": "Le March\u00e9 du Patissier Inc"
            },
            {
                  "distance": 296,
                  "location": {
                        "address": "625 32e Ave",
                        "country": "CA",
                        "formatted_address": "625 32e Ave, Lachine QC H8T 3G6",
                        "locality": "Lachine",
                        "postcode": "H8T 3G6",
                        "region": "QC"
                  },
                  "name": "Brasserie le Manoir - Lachine"
            },
            {
                  "distance": 305,
                  "location": {
                        "address": "2912 Remembrance Rue",
                        "country": "CA",
                        "formatted_address": "2912 Remembrance Rue, Lachine QC H8S 1X8",
                        "locality": "Lachine",
                        "postcode": "H8S 1X8",
                        "region": "QC"
                  },
                  "name": "Queberac Deli Bar"
            },
            {
                  "distance": 316,
                  "location": {
                        "address": "2972 Remembrance Rue",
                        "country": "CA",
                        "formatted_address": "2972 Remembrance Rue, Lachine QC H8S 1X8",
                        "locality": "Lachine",
                        "postcode": "H8S 1X8",
                        "region": "QC"
                  },
                  "name": "Double Pizza"
            },
            {
                  "distance": 346,
                  "location": {
                        "address": "3135 Notre-Dame Rue",
                        "country": "CA",
                        "formatted_address": "3135 Notre-Dame Rue, Lachine QC H8S 2H4",
                        "locality": "Lachine",
                        "postcode": "H8S 2H4",
                        "region": "QC"
                  },
                  "name": "Chance Jincy Inc"
            },
            {
                  "distance": 389,
                  "location": {
                        "address": "3135 Notre-Dame Rue",
                        "country": "CA",
                        "formatted_address": "3135 Notre-Dame Rue, Lachine QC H8S 2H4",
                        "locality": "Lachine",
                        "postcode": "H8S 2H4",
                        "region": "QC"
                  },
                  "name": "Chez l'Gourmand"
            },
            {
                  "distance": 448,
                  "location": {
                        "address": "3060 Saint-Joseph Blvd",
                        "country": "CA",
                        "formatted_address": "3060 Saint-Joseph Blvd, Lachine QC H8S 2P4",
                        "locality": "Lachine",
                        "postcode": "H8S 2P4",
                        "region": "QC"
                  },
                  "name": "Grillades Taverna B"
            },
            {
                  "distance": 462,
                  "location": {
                        "address": "3060 St-Joseph Blvd",
                        "country": "CA",
                        "formatted_address": "3060 St-Joseph Blvd, Lachine QC H8S 2P4",
                        "locality": "Lachine",
                        "postcode": "H8S 2P4",
                        "region": "QC"
                  },
                  "name": "Casa Portugaise"
            },
            {
                  "distance": 472,
                  "location": {
                        "address": "3060 Saint-Joseph Blvd",
                        "country": "CA",
                        "formatted_address": "3060 Saint-Joseph Blvd, Lachine QC",
                        "locality": "Lachine",
                        "region": "QC"
                  },
                  "name": "Grill Baraso"
            },
            {
                  "distance": 523,
                  "location": {
                        "address": "150 Notre-Dame Rue",
                        "country": "CA",
                        "formatted_address": "150 Notre-Dame Rue, Lachine QC H8R 1H1",
                        "locality": "Lachine",
                        "postcode": "H8R 1H1",
                        "region": "QC"
                  },
                  "name": "Second Cup"
            },
            {
                  "distance": 610,
                  "location": {
                        "address": "2560 Saint Joseph Blvd",
                        "country": "CA",
                        "formatted_address": "2560 Saint Joseph Blvd, Lachine QC H8S 2N9",
                        "locality": "Lachine",
                        "postcode": "H8S 2N9",
                        "region": "QC"
                  },
                  "name": "77 Cafe Sunset"
            },
            {
                  "distance": 610,
                  "location": {
                        "address": "2560 Saint-Joseph Blvd",
                        "country": "CA",
                        "formatted_address": "2560 Saint-Joseph Blvd, Lachine QC H8S 2N9",
                        "locality": "Lachine",
                        "postcode": "H8S 2N9",
                        "region": "QC"
                  },
                  "name": "Rebels Charcoal House"
            },
            {
                  "distance": 629,
                  "location": {
                        "address": "2560 Saint-Joseph Blvd",
                        "country": "CA",
                        "formatted_address": "2560 Saint-Joseph Blvd, Lachine QC H8S 2N9",
                        "locality": "Lachine",
                        "postcode": "H8S 2N9",
                        "region": "QC"
                  },
                  "name": "Caf\u00e9 Gato Design"
            },
            {
                  "distance": 635,
                  "location": {
                        "address": "2530 Saint-Joseph Blvd",
                        "country": "CA",
                        "formatted_address": "2530 Saint-Joseph Blvd, Lachine QC H8S 2N9",
                        "locality": "Lachine",
                        "postcode": "H8S 2N9",
                        "region": "QC"
                  },
                  "name": "Universal Lounge Vip"
            },
            {
                  "distance": 701,
                  "location": {
                        "address": "637 32e Ave",
                        "country": "CA",
                        "formatted_address": "637 32e Ave, Lachine QC H8T 3G6",
                        "locality": "Lachine",
                        "postcode": "H8T 3G6",
                        "region": "QC"
                  },
                  "name": "Thai Express Lachine"
            },
            {
                  "distance": 702,
                  "location": {
                        "address": "2525 Provost Rue",
                        "country": "CA",
                        "formatted_address": "2525 Provost Rue, Lachine QC H8S 1R2",
                        "locality": "Lachine",
                        "postcode": "H8S 1R2",
                        "region": "QC"
                  },
                  "name": "Restaurant Bon App\u00e9tit des Antilles"
            }
      ],
      "context": {
            "geo_bounds": {
                  "circle": {
                        "center": {
                              "latitude": 45.43745999,
                              "longitude": -73.69353175
                        },
                        "radius": 1000
                  }
            }
      }
}