{
      "results": [
            {
                  "distance": 941,
                  "location": {
                        "address": "7301 Henri-Bourassa Blvd E",
                        "country": "CA",
                        "cross_street": "",
                        "formatted_address": "7301 Henri-Bourassa Blvd E, Montr\u00e9al QC H1E 2Z6",
                        "locality": "Montreal",
                        "postcode": "H1E 2Z6",
                        "region": "QC"
                  },
                  "name": "Restaurant Prima Luna",
                  "popularity": 0.9751135503406511,
                  "price": 1,
                  "rating": 7.4
            },
            {
                  "distance": 79,
                  "location": {
                        "address": "7000 Marie-Victorin Rue",
                        "country": "CA",
                        "cross_street": "",
                        "formatted_address": "7000 Marie-Victorin Rue, Montr\u00e9al QC H1G 2J6",
                        "locality": "Montreal",
                        "postcode": "H1G 2J6",
                        "region": "QC"
                  },
                  "name": "Caf\u00e9 l'Exil",
                  "popularity": 0.8845926381529144,
                  "price": 1
            },
            {
                  "distance": 240,
                  "location": {
                        "address": "7000 Maurice du Plessis Blvd",
                        "country": "CA",
                        "cross_street": "Coin Albert-Hudon",
                        "formatted_address": "7000 Maurice du Plessis Blvd (Coin Albert-Hudon), Montr\u00e9al QC H1G 0A1",
                        "locality": "Montreal",
                        "postcode": "H1G 0A1",
                        "region": "QC"
                  },
                  "name": "Resto Capucine",
                  "popularity": 0.9956472369417109,
                  "price": 2
            },
            {
                  "distance": 587,
                  "location": {
                        "address": "11737 4e Ave",
                        "country": "CA",
                        "cross_street": "",
                        "formatted_address": "11737 4e Ave, Montr\u00e9al QC H1E 3C2",
                        "locality": "Montreal",
                        "postcode": "H1E 3C2",
                        "region": "QC"
                  },
                  "name": "Biscuits Heavenly Taste Biscotti",
                  "popularity": 0.631410862982589,
                  "price": 1
            },
            {
                  "distance": 696,
                  "location": {
                        "address": "7230 Maurice-Duplessis Blvd",
                        "country": "CA",
                        "cross_street": "Maurice Duplessis",
                        "formatted_address": "7230 Maurice-Duplessis Blvd (Maurice Duplessis), Montreal QC H1E 4A7",
                        "locality": "Rivi\u00e8re-des-Prairies-Pointe-aux-Trembles",
                        "postcode": "H1E 4A7",
                        "region": "QC"
                  },
                  "name": "Restaurant Phoenix Oriental",
                  "popularity": 0.9740371877365632,
                  "price": 2
            },
            {
                  "distance": 773,
                  "location": {
                        "address": "7272 Maurice-Duplessis Blvd",
                        "country": "CA",
                        "formatted_address": "7272 Maurice-Duplessis Blvd, Montreal QC H1E 6Z7",
                        "locality": "Montreal",
                        "postcode": "H1E 6Z7",
                        "region": "QC"
                  },
                  "name": "Restaurant Shekz",
                  "popularity": 0.07941426949280848,
                  "price": 2
            },
            {
                  "distance": 964,
                  "location": {
                        "address": "7303 Henri-Bourassa Blvd E",
                        "country": "CA",
                        "cross_street": "Louis-H-Lafontaine",
                        "formatted_address": "7303 Henri-Bourassa Blvd E (Louis-H-Lafontaine), Montr\u00e9al QC H1E 2Z6",
                        "locality": "Montreal",
                        "postcode": "H1E 2Z6",
                        "region": "QC"
                  },
                  "name": "Pizzeria Etc",
                  "popularity": 0.85583838001514,
                  "price": 1
            },
            {
                  "distance": 246,
                  "location": {
                        "address": "7000 Maurice-Duplessis Blvd",
                        "country": "CA",
                        "formatted_address": "7000 Maurice-Duplessis Blvd, Montreal QC",
                        "locality": "Montreal",
                        "region": "QC"
                  },
                  "name": "Resto-bar Capucine - Nord-Est de Montr\u00e9al"
            },
            {
                  "distance": 635,
                  "location": {
                        "address": "11745 4e Ave",
                        "country": "CA",
                        "formatted_address": "11745 4e Ave, Montreal QC H1E 3C2",
                        "locality": "Montreal",
                        "postcode": "H1E 3C2",
                        "region": "QC"
                  },
                  "name": "P\u00e2tisserie Safa"
            },
            {
                  "distance": 636,
                  "location": {
                        "address": "11835 Langelier Blvd",
                        "country": "CA",
                        "formatted_address": "11835 Langelier Blvd, Montreal-Nord QC H1G 6G6",
                        "locality": "Montreal-Nord",
                        "postcode": "H1G 6G6",
                        "region": "QC"
                  },
                  "name": "Hollywood Diner"
            },
            {
                  "distance": 641,
                  "location": {
                        "address": "6767 Henri-Bourassa Blvd E",
                        "country": "CA",
                        "formatted_address": "6767 Henri-Bourassa Blvd E, Montreal-Nord QC H1G 2V6",
                        "locality": "Montreal-Nord",
                        "postcode": "H1G 2V6",
                        "region": "QC"
                  },
                  "name": "Ecaf\u00e9"
            },
            {
                  "distance": 661,
                  "location": {
                        "address": "6711 Henri Bourassa Blvd Est N",
                        "country": "CA",
                        "formatted_address": "6711 Henri Bourassa Blvd Est N, Montreal-Nord QC H1G 2V6",
                        "locality": "Montreal-Nord",
                        "postcode": "H1G 2V6",
                        "region": "QC"
                  },
                  "name": "Piano Bar la Belle Epoque"
            },
            {
                  "distance": 687,
                  "location": {
                        "address": "11810 Langelier Blvd",
                        "country": "CA",
                        "formatted_address": "11810 Langelier Blvd, Montreal-Nord QC H1G 3M3",
                        "locality": "Montreal-Nord",
                        "postcode": "H1G 3M3",
                        "region": "QC"
                  },
                  "name": "Mon Ami Drive in"
            },
            {
                  "distance": 715,
                  "location": {
                        "address": "7244 Maurice-Duplessis Blvd",
                        "country": "CA",
                        "formatted_address": "7244 Maurice-Duplessis Blvd, Montreal QC H1E 4A7",
                        "locality": "Montreal",
                        "postcode": "H1E 4A7",
                        "region": "QC"
                  },
                  "name": "Resto Bar Danesi"
            },
            {
                  "distance": 743,
                  "location": {
                        "address": "7272 Maurice-Duplessis Blvd",
                        "country": "CA",
                        "formatted_address": "7272 Maurice-Duplessis Blvd, Montreal QC H1E 6Z7",
                        "locality": "Montreal",
                        "postcode": "H1E 6Z7",
                        "region": "QC"
                  },
                  "name": "Hendrix Tapas & Burgers"
            },
            {
                  "distance": 809,
                  "location": {
                        "address": "7310 Maurice-Duplessis Blvd",
                        "country": "CA",
                        "formatted_address": "7310 Maurice-Duplessis Blvd, Montreal QC H1E 1M4",
                        "locality": "Montreal",
                        "postcode": "H1E 1M4",
                        "region": "QC"
                  },
                  "name": "Cafe liana bar & grill"
            },
            {
                  "distance": 861,
                  "location": {
                        "address": "6365 rue de Dijon",
                        "country": "CA",
                        "formatted_address": "6365 rue de Dijon, Montreal-Nord QC H1G 2L9",
                        "locality": "Montreal-Nord",
                        "postcode": "H1G 2L9",
                        "region": "QC"
                  },
                  "name": "Restaurant Fuzion"
            },
            {
                  "distance": 887,
                  "location": {
                        "address": "6365 Rue de Dijon",
                        "country": "CA",
                        "formatted_address": "6365 Rue de Dijon, Montreal-Nord QC H1G 2L9",
                        "locality": "Montreal-Nord",
                        "postcode": "H1G 2L9",
                        "region": "QC"
                  },
                  "name": "Resto Celta"
            },
            {
                  "distance": 906,
                  "location": {
                        "address": "6353 Rue de Dijon",
                        "country": "CA",
                        "formatted_address": "6353 Rue de Dijon, Montreal-Nord QC H1G 2L9",
                        "locality": "Montreal-Nord",
                        "postcode": "H1G 2L9",
                        "region": "QC"
                  },
                  "name": "Pizzeria Migusto"
            },
            {
                  "distance": 953,
                  "location": {
                        "address": "7462 Maurice-Duplessis Blvd",
                        "country": "CA",
                        "formatted_address": "7462 Maurice-Duplessis Blvd, Montreal QC H1E 3Y1",
                        "locality": "Montreal",
                        "postcode": "H1E 3Y1",
                        "region": "QC"
                  },
                  "name": "O Sushi"
            },
            {
                  "distance": 960,
                  "location": {
                        "address": "6363 Henri-Bourassa Blvd E",
                        "country": "CA",
                        "formatted_address": "6363 Henri-Bourassa Blvd E, Montreal-Nord QC H1G 2V5",
                        "locality": "Montreal-Nord",
                        "postcode": "H1G 2V5",
                        "region": "QC"
                  },
                  "name": "La Veranda"
            }
      ],
      "context": {
            "geo_bounds": {
                  "circle": {
                        "center": {
                              "latitude": 45.61749978,
                              "longitude": -73.60601127
                        },
                        "radius": 1000
                  }
            }
      }
}