{
      "results": [
            {
                  "distance": 340,
                  "location": {
                        "address": "345 Saint-Jacques Rue",
                        "country": "CA",
                        "cross_street": "",
                        "formatted_address": "345 Saint-Jacques Rue, Lachine QC H8R 1E6",
                        "locality": "Lachine",
                        "postcode": "H8R 1E6",
                        "region": "QC"
                  },
                  "name": "Falafel St. Jacques",
                  "popularity": 0.981252365632097,
                  "price": 1,
                  "rating": 9.2
            },
            {
                  "distance": 879,
                  "location": {
                        "address": "59 Westminster Ave N",
                        "address_extended": "Milner",
                        "country": "CA",
                        "cross_street": "Milner",
                        "formatted_address": "59 Westminster Ave N (Milner), Montr\u00e9al QC H4X 1Y8",
                        "locality": "Montreal",
                        "postcode": "H4X 1Y8",
                        "region": "QC"
                  },
                  "name": "Burger de Ville",
                  "popularity": 0.9558011049723757,
                  "price": 1,
                  "rating": 8.3
            },
            {
                  "distance": 410,
                  "location": {
                        "address": "475 Saint Jacques Rue",
                        "country": "CA",
                        "formatted_address": "475 Saint Jacques Rue, Lachine QC H8R 1E9",
                        "locality": "Lachine",
                        "postcode": "H8R 1E9",
                        "region": "QC"
                  },
                  "name": "Restaurants D Lafleur Inc",
                  "popularity": 0.9962149886449659,
                  "price": 1,
                  "rating": 7.1
            },
            {
                  "distance": 868,
                  "location": {
                        "address": "24 Westminster Ave N",
                        "country": "CA",
                        "formatted_address": "24 Westminster Ave N, Montr\u00e9al QC H4X 1Y9",
                        "locality": "Montreal",
                        "postcode": "H4X 1Y9",
                        "region": "QC"
                  },
                  "name": "Patisserie de la Gare",
                  "popularity": 0.9779005524861878,
                  "price": 1,
                  "rating": 7.0
            },
            {
                  "distance": 882,
                  "location": {
                        "address": "49 Westminster Ave N",
                        "country": "CA",
                        "cross_street": "Sherbrooke",
                        "formatted_address": "49 Westminster Ave N (Sherbrooke), Montr\u00e9al QC H4X 1Y8",
                        "locality": "Montreal",
                        "postcode": "H4X 1Y8",
                        "region": "QC"
                  },
                  "name": "L'Oeufrier",
                  "popularity": 0.9281767955801105,
                  "price": 1,
                  "rating": 6.7
            },
            {
                  "distance": 556,
                  "location": {
                        "address": "5 St Pierre Ave",
                        "country": "CA",
                        "cross_street": "Notre Dame",
                        "formatted_address": "5 St Pierre Ave (Notre Dame), Lachine QC H8R 4E1",
                        "locality": "Lachine",
                        "postcode": "H8R 4E1",
                        "region": "QC"
                  },
                  "name": "Tim Hortons",
                  "popularity": 0.9967472558667676,
                  "price": 1,
                  "rating": 6.2
            },
            {
                  "distance": 364,
                  "location": {
                        "address": "410 Saint Jacques Rue",
                        "address_extended": "# 398",
                        "country": "CA",
                        "cross_street": "",
                        "formatted_address": "410 Saint Jacques Rue, Lachine QC H8R 1P2",
                        "locality": "Lachine",
                        "postcode": "H8R 1P2",
                        "region": "QC"
                  },
                  "name": "La Belle Province",
                  "popularity": 0.953125,
                  "price": 1
            },
            {
                  "distance": 368,
                  "location": {
                        "address": "395 Saint-Jacques Rue",
                        "country": "CA",
                        "cross_street": "",
                        "formatted_address": "395 Saint-Jacques Rue, Montr\u00e9al QC H8R 1E7",
                        "locality": "Montreal",
                        "postcode": "H8R 1E7",
                        "region": "QC"
                  },
                  "name": "Greenz Restaurant",
                  "popularity": 0.6691072104466314,
                  "price": 2
            },
            {
                  "distance": 380,
                  "location": {
                        "address": "395 St Jacques",
                        "country": "CA",
                        "cross_street": "",
                        "formatted_address": "395 St Jacques, Lachine QC",
                        "locality": "Lachine",
                        "region": "QC"
                  },
                  "name": "Georges",
                  "popularity": 0.13971423164269492,
                  "price": 1
            },
            {
                  "distance": 873,
                  "location": {
                        "address": "51 Westminster Ave N",
                        "country": "CA",
                        "cross_street": "Curzon",
                        "formatted_address": "51 Westminster Ave N (Curzon), Montreal-Ouest QC H4X 1Y8",
                        "locality": "Montr\u00e9al-Ouest",
                        "postcode": "H4X 1Y8",
                        "region": "QC"
                  },
                  "name": "Totem Tea and Spice",
                  "popularity": 0.143646408839779,
                  "price": 1
            },
            {
                  "distance": 878,
                  "location": {
                        "address": "37 Westminster Ave N",
                        "country": "CA",
                        "cross_street": "",
                        "formatted_address": "37 Westminster Ave N, Montreal-Ouest QC H4X 1Y8",
                        "locality": "Montreal West",
                        "postcode": "H4X 1Y8",
                        "region": "QC"
                  },
                  "name": "Montreal Chinese Crepes & Dumplings",
                  "popularity": 0.8895027624309392,
                  "price": 1
            },
            {
                  "distance": 889,
                  "location": {
                        "address": "51 Westminster Ave N",
                        "country": "CA",
                        "cross_street": "",
                        "formatted_address": "51 Westminster Ave N, Montreal-Ouest QC H4X 1Y8",
                        "locality": "Montreal West",
                        "postcode": "H4X 1Y8",
                        "region": "QC"
                  },
                  "name": "Les D\u00e9lices Lafrenaie Montr\u00e9al-Ouest",
                  "popularity": 0.9337016574585635,
                  "price": 1
            },
            {
                  "distance": 892,
                  "location": {
                        "address": "48 Westminster Ave N",
                        "country": "CA",
                        "cross_street": "Milner",
                        "formatted_address": "48 Westminster Ave N (Milner), Montreal-Ouest QC H4X 1Z2",
                        "locality": "Montreal West",
                        "postcode": "H4X 1Z2",
                        "region": "QC"
                  },
                  "name": "Sushi Shop Westminster",
                  "popularity": 0.3259668508287293,
                  "price": 2
            },
            {
                  "distance": 63,
                  "location": {
                        "address": "183 des Erables Rue",
                        "country": "CA",
                        "formatted_address": "183 des Erables Rue, Lachine QC H8R 1B1",
                        "locality": "Lachine",
                        "postcode": "H8R 1B1",
                        "region": "QC"
                  },
                  "name": "Revitalisation Saint-Pierre"
            },
            {
                  "distance": 72,
                  "location": {
                        "address": "212 Boyer Ave",
                        "country": "CA",
                        "formatted_address": "212 Boyer Ave, Lachine QC H8R 1N1",
                        "locality": "Lachine",
                        "postcode": "H8R 1N1",
                        "region": "QC"
                  },
                  "name": "Shakaeja"
            },
            {
                  "distance": 312,
                  "location": {
                        "address": "250 rue des \u00c9rables",
                        "country": "CA",
                        "formatted_address": "250 rue des \u00c9rables, Lachine QC H8R 1B6",
                        "locality": "Lachine",
                        "postcode": "H8R 1B6",
                        "region": "QC"
                  },
                  "name": "Paulo"
            },
            {
                  "distance": 347,
                  "location": {
                        "address": "356 Saint Jacques Rue",
                        "country": "CA",
                        "formatted_address": "356 Saint Jacques Rue, Lachine QC H8R 1E2",
                        "locality": "Lachine",
                        "postcode": "H8R 1E2",
                        "region": "QC"
                  },
                  "name": "Swift Transactions Inc"
            },
            {
                  "distance": 348,
                  "location": {
                        "address": "334 Saint Jacques Rue",
                        "country": "CA",
                        "formatted_address": "334 Saint Jacques Rue, Lachine QC H8R 1E2",
                        "locality": "Lachine",
                        "postcode": "H8R 1E2",
                        "region": "QC"
                  },
                  "name": "Onestop Caribbean Cuisine"
            },
            {
                  "distance": 356,
                  "location": {
                        "address": "27 Saint-Pierre Ave",
                        "country": "CA",
                        "formatted_address": "27 Saint-Pierre Ave, Lachine QC H8R 1N8",
                        "locality": "Lachine",
                        "postcode": "H8R 1N8",
                        "region": "QC"
                  },
                  "name": "C'Est le Meilleur"
            },
            {
                  "distance": 356,
                  "location": {
                        "address": "24 Saint-Pierre Ave",
                        "country": "CA",
                        "formatted_address": "24 Saint-Pierre Ave, Lachine QC H8R 1N9",
                        "locality": "Lachine",
                        "postcode": "H8R 1N9",
                        "region": "QC"
                  },
                  "name": "La Belle Province"
            },
            {
                  "distance": 357,
                  "location": {
                        "address": "358 Saint-Jacques Rue",
                        "country": "CA",
                        "formatted_address": "358 Saint-Jacques Rue, Lachine QC H8R 1E2",
                        "locality": "Lachine",
                        "postcode": "H8R 1E2",
                        "region": "QC"
                  },
                  "name": "Restaurant Boustan"
            },
            {
                  "distance": 358,
                  "location": {
                        "address": "395 Saint-Jacques St",
                        "country": "CA",
                        "formatted_address": "395 Saint-Jacques St, Lachine QC H8R 1E7",
                        "locality": "Lachine",
                        "postcode": "H8R 1E7",
                        "region": "QC"
                  },
                  "name": "Georges le Roi du Sous-Marin"
            },
            {
                  "distance": 361,
                  "location": {
                        "address": "27 Saint Pierre Ave",
                        "country": "CA",
                        "formatted_address": "27 Saint Pierre Ave, Lachine QC",
                        "locality": "Lachine",
                        "region": "QC"
                  },
                  "name": "Caf\u00e9 Bella Camellia Coffee shop"
            },
            {
                  "distance": 392,
                  "location": {
                        "address": "201 Saint Jacques Rue",
                        "country": "CA",
                        "formatted_address": "201 Saint Jacques Rue, Lachine QC H8R 1E3",
                        "locality": "Lachine",
                        "postcode": "H8R 1E3",
                        "region": "QC"
                  },
                  "name": "Eggspectation Resto-Cafe"
            },
            {
                  "distance": 525,
                  "location": {
                        "address": "150 Notre Dame Rue E",
                        "country": "CA",
                        "formatted_address": "150 Notre Dame Rue E, Montreal QC H2Y 1C2",
                        "locality": "Montreal",
                        "postcode": "H2Y 1C2",
                        "region": "QC"
                  },
                  "name": "Equiterre"
            },
            {
                  "distance": 527,
                  "location": {
                        "address": "150 Notre-Dame Rue E",
                        "country": "CA",
                        "formatted_address": "150 Notre-Dame Rue E, Montreal QC H2Y 1C2",
                        "locality": "Montreal",
                        "postcode": "H2Y 1C2",
                        "region": "QC"
                  },
                  "name": "Resto Bar le Cordon"
            },
            {
                  "distance": 530,
                  "location": {
                        "address": "150 Notre-Dame Rue",
                        "country": "CA",
                        "formatted_address": "150 Notre-Dame Rue, Lachine QC H8R 1H1",
                        "locality": "Lachine",
                        "postcode": "H8R 1H1",
                        "region": "QC"
                  },
                  "name": "Bistro Bar le Cordon"
            },
            {
                  "distance": 597,
                  "location": {
                        "address": "60 Saint-Jacques Rue",
                        "country": "CA",
                        "formatted_address": "60 Saint-Jacques Rue, Montreal QC H2Y 1L5",
                        "locality": "Montreal",
                        "postcode": "H2Y 1L5",
                        "region": "QC"
                  },
                  "name": "Rosewood Pub & Restaurant"
            },
            {
                  "distance": 848,
                  "location": {
                        "address": "30 Westminster Ave N",
                        "country": "CA",
                        "formatted_address": "30 Westminster Ave N, Montreal-Ouest QC H4X 1Z2",
                        "locality": "Montreal-Ouest",
                        "postcode": "H4X 1Z2",
                        "region": "QC"
                  },
                  "name": "Kammys"
            },
            {
                  "distance": 865,
                  "location": {
                        "address": "98 Westminster Ave N",
                        "country": "CA",
                        "formatted_address": "98 Westminster Ave N, Montreal-Ouest QC H4X 1Z2",
                        "locality": "Montreal-Ouest",
                        "postcode": "H4X 1Z2",
                        "region": "QC"
                  },
                  "name": "Emmagination"
            },
            {
                  "distance": 881,
                  "location": {
                        "address": "30 Westminster Ave N",
                        "country": "CA",
                        "formatted_address": "30 Westminster Ave N, Montreal-Ouest QC H4X 1Z2",
                        "locality": "Montreal-Ouest",
                        "postcode": "H4X 1Z2",
                        "region": "QC"
                  },
                  "name": "Les Aliments Carne Inc"
            },
            {
                  "distance": 893,
                  "location": {
                        "address": "9015 Avon Ch",
                        "country": "CA",
                        "formatted_address": "9015 Avon Ch, Montreal-Ouest QC H4X 2G8",
                        "locality": "Montreal-Ouest",
                        "postcode": "H4X 2G8",
                        "region": "QC"
                  },
                  "name": "Nongshine America Inc"
            }
      ],
      "context": {
            "geo_bounds": {
                  "circle": {
                        "center": {
                              "latitude": 45.44606092,
                              "longitude": -73.65079947
                        },
                        "radius": 1000
                  }
            }
      }
}