{
      "results": [
            {
                  "distance": 45,
                  "location": {
                        "address": "361 Saint-Charles Rue O",
                        "country": "CA",
                        "cross_street": "",
                        "formatted_address": "361 Saint-Charles Rue O, Longueuil QC J4H 1E7",
                        "locality": "Longueuil",
                        "postcode": "J4H 1E7",
                        "region": "QC"
                  },
                  "name": "Madame Thai",
                  "popularity": 0.8781518949116714,
                  "price": 2,
                  "rating": 8.3
            },
            {
                  "distance": 37,
                  "location": {
                        "address": "356 Saint-Charles Rue O",
                        "country": "CA",
                        "cross_street": "at St-Sylvestre",
                        "formatted_address": "356 Saint-Charles Rue O (at St-Sylvestre), Longueuil QC J4H 4E5",
                        "locality": "Longueuil",
                        "postcode": "J4H 4E5",
                        "region": "QC"
                  },
                  "name": "St Mark Resto Pub Terrasse",
                  "popularity": 0.8219839951683527,
                  "price": 2,
                  "rating": 8.2
            },
            {
                  "distance": 241,
                  "location": {
                        "address": "480 St-Charles Ouest",
                        "address_extended": "Local 100",
                        "country": "CA",
                        "cross_street": "coin Quinn",
                        "formatted_address": "480 St-Charles Ouest (coin Quinn), Longueuil QC J4H 1G4",
                        "locality": "Longueuil",
                        "postcode": "J4H 1G4",
                        "region": "QC"
                  },
                  "name": "La Piazzetta",
                  "popularity": 0.9178619960742865,
                  "price": 1,
                  "rating": 7.7
            },
            {
                  "distance": 237,
                  "location": {
                        "address": "244 Saint-Charles Rue O",
                        "country": "CA",
                        "formatted_address": "244 Saint-Charles Rue O, Longueuil QC J4H 1H3",
                        "locality": "Longueuil",
                        "postcode": "J4H 1H3",
                        "region": "QC"
                  },
                  "name": "Restaurant Comme Par Hasard",
                  "popularity": 0.8239468518798128,
                  "price": 3,
                  "rating": 7.7
            },
            {
                  "distance": 183,
                  "location": {
                        "address": "288 Saint-Charles Rue O",
                        "country": "CA",
                        "cross_street": "Rue Saint-Thomas",
                        "formatted_address": "288 Saint-Charles Rue O (Rue Saint-Thomas), Longueuil QC J4H 1H3",
                        "locality": "Longueuil",
                        "postcode": "J4H 1H3",
                        "region": "QC"
                  },
                  "name": "L'Incr\u00e9dule",
                  "popularity": 0.8607881624641401,
                  "price": 4,
                  "rating": 7.7
            },
            {
                  "distance": 123,
                  "location": {
                        "address": "305 Saint-Charles Rue O",
                        "country": "CA",
                        "cross_street": "coin St-Jean",
                        "formatted_address": "305 Saint-Charles Rue O (coin St-Jean), Longueuil QC J4H 1E5",
                        "locality": "Longueuil",
                        "postcode": "J4H 1E5",
                        "region": "QC"
                  },
                  "name": "Caf\u00e9 Terrasse 1957",
                  "popularity": 0.8864562886909255,
                  "price": 2,
                  "rating": 7.5
            },
            {
                  "distance": 335,
                  "location": {
                        "address": "360 Saint-Jean Rue",
                        "country": "CA",
                        "cross_street": "St-Laurent",
                        "formatted_address": "360 Saint-Jean Rue (St-Laurent), Longueuil QC J4H 2X6",
                        "locality": "Longueuil",
                        "postcode": "J4H 2X6",
                        "region": "QC"
                  },
                  "name": "Gousto Bistro",
                  "popularity": 0.9089536463838139,
                  "price": 2,
                  "rating": 7.4
            },
            {
                  "distance": 955,
                  "location": {
                        "address": "866 Saint-Laurent Rue O",
                        "country": "CA",
                        "cross_street": "",
                        "formatted_address": "866 Saint-Laurent Rue O, Longueuil QC J4K 5E9",
                        "locality": "Longueuil",
                        "postcode": "J4K 5E9",
                        "region": "QC"
                  },
                  "name": "Tutti Frutti",
                  "popularity": 0.9438321002566813,
                  "price": 1,
                  "rating": 7.3
            },
            {
                  "distance": 1001,
                  "location": {
                        "address": "825 Saint-Laurent Rue O",
                        "address_extended": "Unit\u00e9 # 117",
                        "country": "CA",
                        "formatted_address": "825 Saint-Laurent Rue O, Longueuil QC J4K 2V1",
                        "locality": "Longueuil",
                        "postcode": "J4K 2V1",
                        "region": "QC"
                  },
                  "name": "R\u00f4tisserie St-Hubert",
                  "popularity": 0.9688962705722483,
                  "price": 2,
                  "rating": 7.2,
                  "store_id": "100148"
            },
            {
                  "distance": 300,
                  "location": {
                        "address": "170 Saint-Charles Rue O",
                        "country": "CA",
                        "cross_street": "Saint-Jacques",
                        "formatted_address": "170 Saint-Charles Rue O (Saint-Jacques), Longueuil QC J4H 1C9",
                        "locality": "Longueuil",
                        "postcode": "J4H 1C9",
                        "region": "QC"
                  },
                  "name": "P\u00e2tisserie Rolland Inc",
                  "popularity": 0.9343197946549902,
                  "price": 1,
                  "rating": 7.0
            },
            {
                  "distance": 304,
                  "location": {
                        "address": "177 Saint-Charles Rue O",
                        "country": "CA",
                        "cross_street": "",
                        "formatted_address": "177 Saint-Charles Rue O, Longueuil QC J4H 1C8",
                        "locality": "Longueuil",
                        "postcode": "J4H 1C8",
                        "region": "QC"
                  },
                  "name": "Silva Grillades",
                  "popularity": 0.8378378378378378,
                  "price": 3,
                  "rating": 6.9
            },
            {
                  "distance": 50,
                  "location": {
                        "address": "364 Saint-Charles Rue O",
                        "country": "CA",
                        "cross_street": "",
                        "formatted_address": "364 Saint-Charles Rue O, Longueuil QC J4H 4E5",
                        "locality": "Longueuil",
                        "postcode": "J4H 4E5",
                        "region": "QC"
                  },
                  "name": "P\u00e2tisserie O G\u00e2teries",
                  "popularity": 0.9080477125169862,
                  "price": 1,
                  "rating": 6.9
            },
            {
                  "distance": 256,
                  "location": {
                        "address": "217 Saint-Charles Rue O",
                        "country": "CA",
                        "cross_street": "",
                        "formatted_address": "217 Saint-Charles Rue O, Longueuil QC J4H 1E1",
                        "locality": "Longueuil",
                        "postcode": "J4H 1E1",
                        "region": "QC"
                  },
                  "name": "L'Gros Luxe Vieux-Longueuil",
                  "popularity": 0.9127283708289294,
                  "rating": 6.8
            },
            {
                  "distance": 111,
                  "location": {
                        "address": "311 Saint-Charles Rue O",
                        "country": "CA",
                        "cross_street": "Je DC",
                        "formatted_address": "311 Saint-Charles Rue O (Je DC), Longueuil QC J4H 1E5",
                        "locality": "Longueuil",
                        "postcode": "J4H 1E5",
                        "region": "QC"
                  },
                  "name": "Bungalow Bar Salon",
                  "popularity": 0.8478031103729428,
                  "price": 2,
                  "rating": 6.6
            },
            {
                  "distance": 517,
                  "location": {
                        "address": "99 Ch de la Rive",
                        "country": "CA",
                        "cross_street": "",
                        "formatted_address": "99 Ch de la Rive, Longueuil QC J4H 4C9",
                        "locality": "Longueuil",
                        "postcode": "J4H 4C9",
                        "region": "QC"
                  },
                  "name": "Quai 99",
                  "popularity": 0.8770949720670391,
                  "price": 2,
                  "rating": 6.6
            },
            {
                  "distance": 928,
                  "location": {
                        "address": "825 Saint Laurent St O",
                        "address_extended": "Suite 36",
                        "country": "CA",
                        "formatted_address": "825 Saint Laurent St O, Longueuil QC J4K 2V1",
                        "locality": "Longueuil",
                        "postcode": "J4K 2V1",
                        "region": "QC"
                  },
                  "name": "Subway",
                  "popularity": 0.8997433187377322,
                  "price": 1,
                  "rating": 6.4
            },
            {
                  "distance": 232,
                  "location": {
                        "address": "241 Saint-Charles Rue O",
                        "country": "CA",
                        "formatted_address": "241 Saint-Charles Rue O, Longueuil QC J4H 1E1",
                        "locality": "Longueuil",
                        "postcode": "J4H 1E1",
                        "region": "QC"
                  },
                  "name": "Frites Alors",
                  "popularity": 0.8784538728672807,
                  "price": 1,
                  "rating": 6.3
            },
            {
                  "distance": 249,
                  "location": {
                        "address": "219 Saint-Jean Rue",
                        "country": "CA",
                        "cross_street": "rue Saint-Laurent",
                        "formatted_address": "219 Saint-Jean Rue (rue Saint-Laurent), Longueuil QC J4H 2X4",
                        "locality": "Longueuil",
                        "postcode": "J4H 2X4",
                        "region": "QC"
                  },
                  "name": "Dur \u00e0 Cuire",
                  "popularity": 0.9041219990940661,
                  "price": 3,
                  "rating": 6.0
            },
            {
                  "distance": 270,
                  "location": {
                        "address": "193 Saint-Charles Rue O",
                        "country": "CA",
                        "cross_street": "",
                        "formatted_address": "193 Saint-Charles Rue O, Longueuil QC J4H 1C8",
                        "locality": "Longueuil",
                        "postcode": "J4H 1C8",
                        "region": "QC"
                  },
                  "name": "Charcuterie du Vieux Longueuil",
                  "popularity": 0.8150385021893402,
                  "rating": 5.7
            },
            {
                  "distance": 70,
                  "location": {
                        "address": "329 St Charles",
                        "country": "CA",
                        "cross_street": "St-Jean",
                        "formatted_address": "329 St Charles (St-Jean), Longueuil QC J4H 1E5",
                        "locality": "Longueuil",
                        "postcode": "J4H 1E5",
                        "region": "QC"
                  },
                  "name": "Messina",
                  "popularity": 0.9004982636267552,
                  "price": 2,
                  "rating": 5.4
            },
            {
                  "distance": 876,
                  "location": {
                        "address": "822 Saint-Laurent Rue O",
                        "address_extended": "coin Joliette",
                        "country": "CA",
                        "cross_street": "coin Joliette",
                        "formatted_address": "822 Saint-Laurent Rue O (coin Joliette), Longueuil QC J4K 1C3",
                        "locality": "Longueuil",
                        "postcode": "J4K 1C3",
                        "region": "QC"
                  },
                  "name": "McDonald's",
                  "popularity": 0.9660274799939604,
                  "price": 1,
                  "rating": 5.4
            },
            {
                  "distance": 26,
                  "location": {
                        "address": "353 Saint-Charles Rue O",
                        "country": "CA",
                        "cross_street": "",
                        "formatted_address": "353 Saint-Charles Rue O, Longueuil QC J4H 1E7",
                        "locality": "Longueuil",
                        "postcode": "J4H 1E7",
                        "region": "QC"
                  },
                  "name": "K\u00fcto - Comptoir \u00e0 Tartares Longueuil",
                  "popularity": 0.8376868488600332
            },
            {
                  "distance": 47,
                  "location": {
                        "address": "341 Saint-Charles Rue O",
                        "country": "CA",
                        "cross_street": "",
                        "formatted_address": "341 Saint-Charles Rue O, Longueuil QC J4H 1E7",
                        "locality": "Longueuil",
                        "postcode": "J4H 1E7",
                        "region": "QC"
                  },
                  "name": "Barachico",
                  "popularity": 0.6850369922995622,
                  "price": 2
            },
            {
                  "distance": 53,
                  "location": {
                        "address": "345 St-Charles Rue O",
                        "country": "CA",
                        "cross_street": "",
                        "formatted_address": "345 St-Charles Rue O, Longueuil QC J4H 1E7",
                        "locality": "Longueuil",
                        "postcode": "J4H 1E7",
                        "region": "QC"
                  },
                  "name": "La Diperie",
                  "popularity": 0.8222859731239619,
                  "price": 1
            },
            {
                  "distance": 75,
                  "location": {
                        "address": "95 Saint-Sylvestre Rue",
                        "country": "CA",
                        "cross_street": "",
                        "formatted_address": "95 Saint-Sylvestre Rue, Longueuil QC J4H 2W1",
                        "locality": "Longueuil",
                        "postcode": "J4H 2W1",
                        "region": "QC"
                  },
                  "name": "Chichi Caf\u00e9",
                  "popularity": 0.9190699078967235,
                  "price": 1
            },
            {
                  "distance": 219,
                  "location": {
                        "address": "247 Saint-Charles Rue O",
                        "country": "CA",
                        "cross_street": "",
                        "formatted_address": "247 Saint-Charles Rue O, Longueuil QC J4H 1E1",
                        "locality": "Longueuil",
                        "postcode": "J4H 1E1",
                        "region": "QC"
                  },
                  "name": "N Latt\u00e9",
                  "popularity": 0.891438924958478,
                  "price": 1
            },
            {
                  "distance": 312,
                  "location": {
                        "address": "165 Saint-Charles Rue O",
                        "country": "CA",
                        "cross_street": "",
                        "formatted_address": "165 Saint-Charles Rue O, Longueuil QC J4H 1C8",
                        "locality": "Longueuil",
                        "postcode": "J4H 1C8",
                        "region": "QC"
                  },
                  "name": "Lanterne Restaurant",
                  "popularity": 0.8767929941114299,
                  "price": 2
            },
            {
                  "distance": 343,
                  "location": {
                        "address": "326 Saint-Laurent Rue O",
                        "country": "CA",
                        "cross_street": "St-Jean",
                        "formatted_address": "326 Saint-Laurent Rue O (St-Jean), Longueuil QC J4H 1M9",
                        "locality": "Longueuil",
                        "postcode": "J4H 1M9",
                        "region": "QC"
                  },
                  "name": "Ginza Sushi",
                  "popularity": 0.8736222255775329,
                  "price": 2
            },
            {
                  "distance": 375,
                  "location": {
                        "address": "225 Saint-Laurent Rue O",
                        "country": "CA",
                        "cross_street": "",
                        "formatted_address": "225 Saint-Laurent Rue O, Longueuil QC J4H 1M4",
                        "locality": "Longueuil",
                        "postcode": "J4H 1M4",
                        "region": "QC"
                  },
                  "name": "Restaurant le Fleuron",
                  "popularity": 0.3098293824550808,
                  "price": 3
            },
            {
                  "distance": 385,
                  "location": {
                        "address": "135 Saint-Charles Rue O",
                        "country": "CA",
                        "cross_street": "",
                        "formatted_address": "135 Saint-Charles Rue O, Longueuil QC J4H 1C7",
                        "locality": "Longueuil",
                        "postcode": "J4H 1C7",
                        "region": "QC"
                  },
                  "name": "Restaurant Trebbiano",
                  "popularity": 0.8680356333987619,
                  "price": 2
            },
            {
                  "distance": 394,
                  "location": {
                        "address": "121 Saint-Charles Rue O",
                        "country": "CA",
                        "cross_street": "",
                        "formatted_address": "121 Saint-Charles Rue O, Longueuil QC J4H 1C7",
                        "locality": "Longueuil",
                        "postcode": "J4H 1C7",
                        "region": "QC"
                  },
                  "name": "Restaurant Asiana",
                  "popularity": 0.8737732145553374,
                  "price": 2
            },
            {
                  "distance": 420,
                  "location": {
                        "address": "105 Saint-Charles Rue O",
                        "country": "CA",
                        "cross_street": "",
                        "formatted_address": "105 Saint-Charles Rue O, Longueuil QC J4H 1C7",
                        "locality": "Longueuil",
                        "postcode": "J4H 1C7",
                        "region": "QC"
                  },
                  "name": "La Distillerie No.4",
                  "popularity": 0.8846444209572701,
                  "price": 3
            },
            {
                  "distance": 530,
                  "location": {
                        "address": "160 Guillaume Rue",
                        "country": "CA",
                        "cross_street": "",
                        "formatted_address": "160 Guillaume Rue, Longueuil QC J4H 1R8",
                        "locality": "Longueuil",
                        "postcode": "J4H 1R8",
                        "region": "QC"
                  },
                  "name": "Lulu la Nantaise",
                  "popularity": 0.8941567265589612,
                  "price": 1
            },
            {
                  "distance": 624,
                  "location": {
                        "address": "4 Saint-Charles Rue E",
                        "country": "CA",
                        "cross_street": "",
                        "formatted_address": "4 Saint-Charles Rue E, Longueuil QC J4H 1A9",
                        "locality": "Longueuil",
                        "postcode": "J4H 1A9",
                        "region": "QC"
                  },
                  "name": "Bacaro Pizzeria - Longueuil",
                  "popularity": 0.9098595802506417,
                  "price": 1
            },
            {
                  "distance": 654,
                  "location": {
                        "address": "407 Grant Rue",
                        "country": "CA",
                        "cross_street": "",
                        "formatted_address": "407 Grant Rue, Longueuil QC J4H 3H9",
                        "locality": "Longueuil",
                        "postcode": "J4H 3H9",
                        "region": "QC"
                  },
                  "name": "Brasserie Tremblay",
                  "popularity": 0.8138305903669032,
                  "price": 2
            }
      ],
      "context": {
            "geo_bounds": {
                  "circle": {
                        "center": {
                              "latitude": 45.53632382,
                              "longitude": -73.51224956
                        },
                        "radius": 1000
                  }
            }
      }
}