{
      "results": [
            {
                  "distance": 929,
                  "location": {
                        "address": "1201 Van Horne Ave",
                        "country": "CA",
                        "cross_street": "",
                        "formatted_address": "1201 Van Horne Ave, Montr\u00e9al QC H2V 1K4",
                        "locality": "Montreal",
                        "postcode": "H2V 1K4",
                        "region": "QC"
                  },
                  "name": "Damas",
                  "popularity": 0.9677446063588191,
                  "price": 4,
                  "rating": 9.4
            },
            {
                  "distance": 520,
                  "location": {
                        "address": "1311 Bernard Ave",
                        "country": "CA",
                        "cross_street": "coin Outremont",
                        "formatted_address": "1311 Bernard Ave (coin Outremont), Montr\u00e9al QC H2V 1W1",
                        "locality": "Montreal",
                        "postcode": "H2V 1W1",
                        "region": "QC"
                  },
                  "name": "Le Glacier Bilboquet",
                  "popularity": 0.9378075321725965,
                  "price": 2,
                  "rating": 9.0
            },
            {
                  "distance": 914,
                  "location": {
                        "address": "1057 Bernard Ave",
                        "country": "CA",
                        "cross_street": "entre Durocher & Querbes",
                        "formatted_address": "1057 Bernard Ave (entre Durocher & Querbes), Outremont QC H2V 1V1",
                        "locality": "Outremont",
                        "postcode": "H2V 1V1",
                        "region": "QC"
                  },
                  "name": "Lester's Aaa Delicatessen",
                  "popularity": 0.9608606169568509,
                  "price": 2,
                  "rating": 8.3
            },
            {
                  "distance": 601,
                  "location": {
                        "address": "11265 Bernard Ave",
                        "country": "CA",
                        "cross_street": "btwn Ave. Champagneur & Ave. Outremont",
                        "formatted_address": "11265 Bernard Ave (btwn Ave. Champagneur & Ave. Outremont), Montr\u00e9al QC H2V 1V8",
                        "locality": "Montreal",
                        "postcode": "H2V 1V8",
                        "region": "QC"
                  },
                  "name": "Restaurant le Petit Italien",
                  "popularity": 0.9217094057532172,
                  "price": 3,
                  "rating": 8.1
            },
            {
                  "distance": 673,
                  "location": {
                        "address": "1464 Van Horne Ave",
                        "country": "CA",
                        "cross_street": "entre Stuart & Dollard",
                        "formatted_address": "1464 Van Horne Ave (entre Stuart & Dollard), Outremont QC H2V 1L2",
                        "locality": "Outremont",
                        "postcode": "H2V 1L2",
                        "region": "QC"
                  },
                  "name": "Paltoquet",
                  "popularity": 0.9282503785011355,
                  "price": 1,
                  "rating": 8.0
            },
            {
                  "distance": 644,
                  "location": {
                        "address": "1249 Bernard Ave",
                        "country": "CA",
                        "cross_street": "Champagneur",
                        "formatted_address": "1249 Bernard Ave (Champagneur), Montr\u00e9al QC H2V 1V7",
                        "locality": "Montreal",
                        "postcode": "H2V 1V7",
                        "region": "QC"
                  },
                  "name": "Brasserie Bernard",
                  "popularity": 0.8758989401968206,
                  "price": 3,
                  "rating": 7.7
            },
            {
                  "distance": 362,
                  "location": {
                        "address": "1333 Van Horne Ave",
                        "country": "CA",
                        "cross_street": "",
                        "formatted_address": "1333 Van Horne Ave, Montr\u00e9al QC H2V 1K7",
                        "locality": "Montreal",
                        "postcode": "H2V 1K7",
                        "region": "QC"
                  },
                  "name": "Lescurier Tradition Gourmande",
                  "popularity": 0.8525974640423921,
                  "price": 1,
                  "rating": 7.6
            },
            {
                  "distance": 595,
                  "location": {
                        "address": "1271 Bernard Ave",
                        "country": "CA",
                        "cross_street": "coin Champagneur",
                        "formatted_address": "1271 Bernard Ave (coin Champagneur), Outremont QC H2V 1V8",
                        "locality": "Outremont",
                        "postcode": "H2V 1V8",
                        "region": "QC"
                  },
                  "name": "Boulangerie Premiere Moisson",
                  "popularity": 0.8833861657834974,
                  "price": 1,
                  "rating": 7.4
            },
            {
                  "distance": 700,
                  "location": {
                        "address": "1224 Bernard Ave",
                        "country": "CA",
                        "formatted_address": "1224 Bernard Ave, Outremont QC H2V 1V6",
                        "locality": "Outremont",
                        "postcode": "H2V 1V6",
                        "region": "QC"
                  },
                  "name": "Un Amour des Th\u00e9s",
                  "popularity": 0.4476367335352006,
                  "price": 2,
                  "rating": 7.4
            },
            {
                  "distance": 668,
                  "location": {
                        "address": "1452 Van Horne Ave",
                        "country": "CA",
                        "cross_street": "coin av. Stuart",
                        "formatted_address": "1452 Van Horne Ave (coin av. Stuart), Outremont QC H2V 1L2",
                        "locality": "Outremont",
                        "postcode": "H2V 1L2",
                        "region": "QC"
                  },
                  "name": "Subway",
                  "popularity": 0.32512064723694173,
                  "price": 1,
                  "rating": 6.2,
                  "store_id": "41805"
            },
            {
                  "distance": 590,
                  "location": {
                        "address": "1275 Bernard Ave",
                        "country": "CA",
                        "cross_street": "",
                        "formatted_address": "1275 Bernard Ave, Outremont QC H2V 1V8",
                        "locality": "Outremont",
                        "postcode": "H2V 1V8",
                        "region": "QC"
                  },
                  "name": "Second Cup Coffee Co",
                  "popularity": 0.8932863361090083,
                  "price": 1,
                  "rating": 5.8,
                  "store_id": "3211"
            },
            {
                  "distance": 663,
                  "location": {
                        "address": "1505 Van Horne Ave",
                        "country": "CA",
                        "cross_street": "Dollard",
                        "formatted_address": "1505 Van Horne Ave (Dollard), Outremont QC H2V 1L4",
                        "locality": "Outremont",
                        "postcode": "H2V 1L4",
                        "region": "QC"
                  },
                  "name": "Van Horne Pizzeria",
                  "popularity": 0.8809850492051476,
                  "price": 1,
                  "rating": 5.0
            },
            {
                  "distance": 470,
                  "location": {
                        "address": "9 Vincent d'Indy Ave",
                        "country": "CA",
                        "cross_street": "",
                        "formatted_address": "9 Vincent d'Indy Ave, Montr\u00e9al QC H2V 4N7",
                        "locality": "Montreal",
                        "postcode": "H2V 4N7",
                        "region": "QC"
                  },
                  "name": "Pizza Tifosi Outremont",
                  "popularity": 0.8951788417865254,
                  "price": 1
            },
            {
                  "distance": 555,
                  "location": {
                        "address": "2049 Edouard Montpetit",
                        "country": "CA",
                        "cross_street": "Vincent D'indy",
                        "formatted_address": "2049 Edouard Montpetit (Vincent D'indy), Montr\u00e9al QC",
                        "locality": "Montreal",
                        "region": "QC"
                  },
                  "name": "Les Navafr\u00e9es",
                  "popularity": 0.9031391937925813,
                  "price": 3
            },
            {
                  "distance": 639,
                  "location": {
                        "address": "1541 Van Horne",
                        "country": "CA",
                        "cross_street": "",
                        "formatted_address": "1541 Van Horne, Montreal QC H3S 2T5",
                        "locality": "Montreal",
                        "postcode": "H3S 2T5",
                        "region": "QC"
                  },
                  "name": "Pendeli's",
                  "popularity": 0.6617500946252839,
                  "price": 1
            },
            {
                  "distance": 654,
                  "location": {
                        "address": "1541 Van Horne Ave",
                        "country": "CA",
                        "cross_street": "Av McEachran",
                        "formatted_address": "1541 Van Horne Ave (Av McEachran), Montr\u00e9al QC H2V 1L4",
                        "locality": "Montreal",
                        "postcode": "H2V 1L4",
                        "region": "QC"
                  },
                  "name": "Roch le Coq",
                  "popularity": 0.9616531037093111,
                  "price": 1
            },
            {
                  "distance": 678,
                  "location": {
                        "address": "1461 Van Horne Ave",
                        "country": "CA",
                        "cross_street": "",
                        "formatted_address": "1461 Van Horne Ave, Montr\u00e9al QC H2V 1L3",
                        "locality": "Montreal",
                        "postcode": "H2V 1L3",
                        "region": "QC"
                  },
                  "name": "Caf\u00e9 DAX",
                  "popularity": 0.9622090272520818,
                  "price": 1
            },
            {
                  "distance": 695,
                  "location": {
                        "address": "1453 Van Horne Ave",
                        "country": "CA",
                        "formatted_address": "1453 Van Horne Ave, Montr\u00e9al QC H2V 1L3",
                        "locality": "Montreal",
                        "postcode": "H2V 1L3",
                        "region": "QC"
                  },
                  "name": "Double Pizza",
                  "popularity": 0.876916161998486,
                  "price": 1
            },
            {
                  "distance": 749,
                  "location": {
                        "address": "1368 Van Horne Ave",
                        "country": "CA",
                        "cross_street": "Wiseman",
                        "formatted_address": "1368 Van Horne Ave (Wiseman), Montr\u00e9al QC H2V 1K8",
                        "locality": "Montreal",
                        "postcode": "H2V 1K8",
                        "region": "QC"
                  },
                  "name": "Sushi Yen",
                  "popularity": 0.5249692467827404,
                  "price": 2
            },
            {
                  "distance": 761,
                  "location": {
                        "address": "1346 Van Horne Ave",
                        "country": "CA",
                        "cross_street": "",
                        "formatted_address": "1346 Van Horne Ave, Outremont QC H2V 1K8",
                        "locality": "Outremont",
                        "postcode": "H2V 1K8",
                        "region": "QC"
                  },
                  "name": "P23 Dumplings",
                  "popularity": 0.807709595003785,
                  "price": 1
            },
            {
                  "distance": 778,
                  "location": {
                        "address": "1317 Van Horne Ave",
                        "country": "CA",
                        "cross_street": "",
                        "formatted_address": "1317 Van Horne Ave, Montr\u00e9al QC H2V 1K7",
                        "locality": "Montreal",
                        "postcode": "H2V 1K7",
                        "region": "QC"
                  },
                  "name": "Caf\u00e9 Dante",
                  "popularity": 0.9554314912944739,
                  "price": 1
            },
            {
                  "distance": 950,
                  "location": {
                        "address": "1199 Van Horne Ave",
                        "country": "CA",
                        "cross_street": "Bloomfield",
                        "formatted_address": "1199 Van Horne Ave (Bloomfield), Outremont QC H2V 1K1",
                        "locality": "Outremont",
                        "postcode": "H2V 1K1",
                        "region": "QC"
                  },
                  "name": "Restaurant Bloomfield",
                  "popularity": 0.9025359576078729
            },
            {
                  "distance": 998,
                  "location": {
                        "address": "1142 Van Horne Ave",
                        "country": "CA",
                        "cross_street": "",
                        "formatted_address": "1142 Van Horne Ave, Montr\u00e9al QC H2V 1J8",
                        "locality": "Montreal",
                        "postcode": "H2V 1J8",
                        "region": "QC"
                  },
                  "name": "Boucherie Bar \u00e0 vin Provisions",
                  "popularity": 0.9643026116578349
            },
            {
                  "distance": 592,
                  "location": {
                        "address": "200 Vincent d'Indy Ave",
                        "country": "CA",
                        "formatted_address": "200 Vincent d'Indy Ave, Montreal QC",
                        "locality": "Montreal",
                        "region": "QC"
                  },
                  "name": "Caf\u00e9 le Triton"
            },
            {
                  "distance": 616,
                  "location": {
                        "address": "126 Bernard Rue O",
                        "country": "CA",
                        "formatted_address": "126 Bernard Rue O, Outremont QC H2V 1V8",
                        "locality": "Outremont",
                        "postcode": "H2V 1V8",
                        "region": "QC"
                  },
                  "name": "Cafe Souvenir"
            },
            {
                  "distance": 708,
                  "location": {
                        "address": "1205 Bernard Ave",
                        "country": "CA",
                        "formatted_address": "1205 Bernard Ave, Outremont QC H2V 1V7",
                        "locality": "Outremont",
                        "postcode": "H2V 1V7",
                        "region": "QC"
                  },
                  "name": "Thammada"
            },
            {
                  "distance": 738,
                  "location": {
                        "address": "1239 Lajoie Ave",
                        "country": "CA",
                        "formatted_address": "1239 Lajoie Ave, Outremont QC H2V 1P2",
                        "locality": "Outremont",
                        "postcode": "H2V 1P2",
                        "region": "QC"
                  },
                  "name": "HISPANIA Montr\u00e9al"
            },
            {
                  "distance": 744,
                  "location": {
                        "address": "1231 Lajoie Ave",
                        "country": "CA",
                        "formatted_address": "1231 Lajoie Ave, Outremont QC H2V 1P2",
                        "locality": "Outremont",
                        "postcode": "H2V 1P2",
                        "region": "QC"
                  },
                  "name": "Alma Montreal"
            },
            {
                  "distance": 750,
                  "location": {
                        "address": "1368 Van Horne Ave",
                        "country": "CA",
                        "formatted_address": "1368 Van Horne Ave, Outremont QC H2V 1K8",
                        "locality": "Outremont",
                        "postcode": "H2V 1K8",
                        "region": "QC"
                  },
                  "name": "Sushi Time"
            },
            {
                  "distance": 759,
                  "location": {
                        "address": "1231 Lajoie Ave",
                        "country": "CA",
                        "formatted_address": "1231 Lajoie Ave, Outremont QC H2V 1P2",
                        "locality": "Outremont",
                        "postcode": "H2V 1P2",
                        "region": "QC"
                  },
                  "name": "Delfino"
            },
            {
                  "distance": 914,
                  "location": {
                        "address": "1053A Bernard Ave",
                        "country": "CA",
                        "formatted_address": "1053A Bernard Ave, Outremont QC H2V 1V1",
                        "locality": "Outremont",
                        "postcode": "H2V 1V1",
                        "region": "QC"
                  },
                  "name": "Lesters AAA Charcuterie & Smoked Meat Inc"
            },
            {
                  "distance": 935,
                  "location": {
                        "address": "1199 Van Horne Ave",
                        "country": "CA",
                        "formatted_address": "1199 Van Horne Ave, Outremont QC H2V 1K1",
                        "locality": "Outremont",
                        "postcode": "H2V 1K1",
                        "region": "QC"
                  },
                  "name": "La Grilladerie"
            }
      ],
      "context": {
            "geo_bounds": {
                  "circle": {
                        "center": {
                              "latitude": 45.514379,
                              "longitude": -73.610871
                        },
                        "radius": 1000
                  }
            }
      }
}