{
      "results": [
            {
                  "distance": 843,
                  "location": {
                        "address": "9 Fairmount Ave E",
                        "country": "CA",
                        "cross_street": "coin Fairmount",
                        "formatted_address": "9 Fairmount Ave E (coin Fairmount), Montr\u00e9al QC H2T 1C7",
                        "locality": "Montreal",
                        "postcode": "H2T 1C7",
                        "region": "QC"
                  },
                  "name": "Larry's",
                  "popularity": 0.9267955147615443,
                  "price": 2,
                  "rating": 9.2
            },
            {
                  "distance": 693,
                  "location": {
                        "address": "1360 Rosemont Blvd",
                        "country": "CA",
                        "cross_street": "",
                        "formatted_address": "1360 Rosemont Blvd, Montr\u00e9al QC H2G 1V4",
                        "locality": "Montreal",
                        "postcode": "H2G 1V4",
                        "region": "QC"
                  },
                  "name": "Caf\u00e9 Dei Campi",
                  "popularity": 0.9428108440575321,
                  "price": 1,
                  "rating": 9.1
            },
            {
                  "distance": 959,
                  "location": {
                        "address": "4627 Saint-Denis Rue",
                        "country": "CA",
                        "cross_street": "",
                        "formatted_address": "4627 Saint-Denis Rue, Montr\u00e9al QC H2J 2L4",
                        "locality": "Montreal",
                        "postcode": "H2J 2L4",
                        "region": "QC"
                  },
                  "name": "Caf\u00e9 Myriade - le Plateau",
                  "popularity": 0.9432603141559425,
                  "price": 1,
                  "rating": 9.1
            },
            {
                  "distance": 446,
                  "location": {
                        "address": "809 Laurier Ave E",
                        "country": "CA",
                        "formatted_address": "809 Laurier Ave E, Montr\u00e9al QC H2J 1G2",
                        "locality": "Montreal",
                        "postcode": "H2J 1G2",
                        "region": "QC"
                  },
                  "name": "Fous Desserts",
                  "popularity": 0.9535389856169568,
                  "rating": 9.0
            },
            {
                  "distance": 888,
                  "location": {
                        "address": "4690 Saint-Denis Rue",
                        "country": "CA",
                        "formatted_address": "4690 Saint-Denis Rue, Montr\u00e9al QC H2J 2L3",
                        "locality": "Montreal",
                        "postcode": "H2J 2L3",
                        "region": "QC"
                  },
                  "name": "Ouzeri",
                  "popularity": 0.9096801665404997,
                  "price": 2,
                  "rating": 9.0
            },
            {
                  "distance": 996,
                  "location": {
                        "address": "500 Beaubien Rue E",
                        "country": "CA",
                        "cross_street": "",
                        "formatted_address": "500 Beaubien Rue E, Montr\u00e9al QC H2S 1S5",
                        "locality": "Montreal",
                        "postcode": "H2S 1S5",
                        "region": "QC"
                  },
                  "name": "Caf\u00e9 Pista",
                  "popularity": 0.9594294095382286,
                  "price": 1,
                  "rating": 8.9
            },
            {
                  "distance": 855,
                  "location": {
                        "address": "5761 Saint-Laurent Blvd",
                        "country": "CA",
                        "cross_street": "coin Bernard",
                        "formatted_address": "5761 Saint-Laurent Blvd (coin Bernard), Montr\u00e9al QC H2T 1S9",
                        "locality": "Montreal",
                        "postcode": "H2T 1S9",
                        "region": "QC"
                  },
                  "name": "Pastel Rita",
                  "popularity": 0.9478141559424679,
                  "price": 1,
                  "rating": 8.9
            },
            {
                  "distance": 725,
                  "location": {
                        "address": "6230 Saint-Hubert Rue",
                        "country": "CA",
                        "cross_street": "",
                        "formatted_address": "6230 Saint-Hubert Rue, Montr\u00e9al QC H2S 2M2",
                        "locality": "Montreal",
                        "postcode": "H2S 2M2",
                        "region": "QC"
                  },
                  "name": "Montreal Plaza",
                  "popularity": 0.9133350681302044,
                  "price": 2,
                  "rating": 8.8
            },
            {
                  "distance": 575,
                  "location": {
                        "address": "5605 Ave de Gasp\u00e9",
                        "country": "CA",
                        "cross_street": "coin St-Viateur Est",
                        "formatted_address": "5605 Ave de Gasp\u00e9 (coin St-Viateur Est), Montr\u00e9al QC H2T 2A4",
                        "locality": "Montreal",
                        "postcode": "H2T 2A4",
                        "region": "QC"
                  },
                  "name": "Caf\u00e9 Falco",
                  "popularity": 0.942952781983346,
                  "price": 2,
                  "rating": 8.7
            },
            {
                  "distance": 924,
                  "location": {
                        "address": "5836 Saint-Laurent Blvd",
                        "country": "CA",
                        "cross_street": "",
                        "formatted_address": "5836 Saint-Laurent Blvd, Montr\u00e9al QC H2T 1T3",
                        "locality": "Montreal",
                        "postcode": "H2T 1T3",
                        "region": "QC"
                  },
                  "name": "Le Butterblume",
                  "popularity": 0.9501443035579107,
                  "price": 1,
                  "rating": 8.6
            },
            {
                  "distance": 900,
                  "location": {
                        "address": "54 Saint-Viateur Rue O",
                        "country": "CA",
                        "cross_street": "",
                        "formatted_address": "54 Saint-Viateur Rue O, Montr\u00e9al QC H2T 2K8",
                        "locality": "Montreal",
                        "postcode": "H2T 2K8",
                        "region": "QC"
                  },
                  "name": "Falafel Yoni",
                  "popularity": 0.9097038228614686,
                  "price": 1,
                  "rating": 8.6
            },
            {
                  "distance": 891,
                  "location": {
                        "address": "52 Saint-Viateur Rue O",
                        "country": "CA",
                        "cross_street": "",
                        "formatted_address": "52 Saint-Viateur Rue O, Montr\u00e9al QC H2T 2K8",
                        "locality": "Montreal",
                        "postcode": "H2T 2K8",
                        "region": "QC"
                  },
                  "name": "Bishop & Bagg",
                  "popularity": 0.9365064345193036,
                  "price": 2,
                  "rating": 8.6
            },
            {
                  "distance": 924,
                  "location": {
                        "address": "1650 Laurier Ave E",
                        "country": "CA",
                        "cross_street": "Marquette",
                        "formatted_address": "1650 Laurier Ave E (Marquette), Montr\u00e9al QC H2J 1J2",
                        "locality": "Montreal",
                        "postcode": "H2J 1J2",
                        "region": "QC"
                  },
                  "name": "Sushi Tri Express",
                  "popularity": 0.8795656699470098,
                  "price": 2,
                  "rating": 8.5
            },
            {
                  "distance": 781,
                  "location": {
                        "address": "1059 Gilford Rue",
                        "country": "CA",
                        "cross_street": "Christophe-Colomb",
                        "formatted_address": "1059 Gilford Rue (Christophe-Colomb), Montr\u00e9al QC H2J 1P7",
                        "locality": "Montreal",
                        "postcode": "H2J 1P7",
                        "region": "QC"
                  },
                  "name": "Restaurant la Raclette",
                  "popularity": 0.9396527252081757,
                  "price": 3,
                  "rating": 8.5
            },
            {
                  "distance": 989,
                  "location": {
                        "address": "6414 Saint-Denis Rue",
                        "country": "CA",
                        "cross_street": "Rue Beaubien",
                        "formatted_address": "6414 Saint-Denis Rue (Rue Beaubien), Montr\u00e9al QC H2S 2R7",
                        "locality": "Montreal",
                        "postcode": "H2S 2R7",
                        "region": "QC"
                  },
                  "name": "Restaurant Pho Tay Ho",
                  "popularity": 0.944525927327782,
                  "price": 1,
                  "rating": 8.5
            },
            {
                  "distance": 902,
                  "location": {
                        "address": "5788 Saint-Laurent Blvd",
                        "country": "CA",
                        "cross_street": "Bernard",
                        "formatted_address": "5788 Saint-Laurent Blvd (Bernard), Montr\u00e9al QC H2T 1S8",
                        "locality": "Montreal",
                        "postcode": "H2T 1S8",
                        "region": "QC"
                  },
                  "name": "Ping Pong Club",
                  "popularity": 0.9317869984859954,
                  "price": 2,
                  "rating": 8.4
            },
            {
                  "distance": 848,
                  "location": {
                        "address": "5207 Saint-Laurent Blvd",
                        "country": "CA",
                        "cross_street": "",
                        "formatted_address": "5207 Saint-Laurent Blvd, Montr\u00e9al QC H2T 1S4",
                        "locality": "Montreal",
                        "postcode": "H2T 1S4",
                        "region": "QC"
                  },
                  "name": "Tsukuyomi Ramen",
                  "popularity": 0.9078113171839516,
                  "rating": 8.3
            },
            {
                  "distance": 588,
                  "location": {
                        "address": "351 Laurier Ave E",
                        "country": "CA",
                        "cross_street": "coin Drolet",
                        "formatted_address": "351 Laurier Ave E (coin Drolet), Montr\u00e9al QC H2T 1G7",
                        "locality": "Montreal",
                        "postcode": "H2T 1G7",
                        "region": "QC"
                  },
                  "name": "Restaurant Chez Claudette",
                  "popularity": 0.9536454390613172,
                  "price": 1,
                  "rating": 8.3
            },
            {
                  "distance": 905,
                  "location": {
                        "address": "5150 St-Laurent Blvd",
                        "country": "CA",
                        "cross_street": "",
                        "formatted_address": "5150 St-Laurent Blvd, Montr\u00e9al QC H2T 1R8",
                        "locality": "Montreal",
                        "postcode": "H2T 1R8",
                        "region": "QC"
                  },
                  "name": "Cin\u00e9ma Moderne",
                  "popularity": 0.9271267032551098,
                  "price": 1,
                  "rating": 8.3
            },
            {
                  "distance": 928,
                  "location": {
                        "address": "4710 rue de Lanaudi\u00e8re",
                        "country": "CA",
                        "cross_street": "coin Gilford",
                        "formatted_address": "4710 rue de Lanaudi\u00e8re (coin Gilford), Montr\u00e9al QC H2J 3P7",
                        "locality": "Montreal",
                        "postcode": "H2J 3P7",
                        "region": "QC"
                  },
                  "name": "Le Chien Fumant",
                  "popularity": 0.9083435844057532,
                  "price": 3,
                  "rating": 8.2
            },
            {
                  "distance": 990,
                  "location": {
                        "address": "520 Beaubien Rue E",
                        "country": "CA",
                        "cross_street": "De Chateaubriand",
                        "formatted_address": "520 Beaubien Rue E (De Chateaubriand), Montr\u00e9al QC H2S 1S5",
                        "locality": "Montreal",
                        "postcode": "H2S 1S5",
                        "region": "QC"
                  },
                  "name": "Restaurant El Chalateco",
                  "popularity": 0.9479679220287661,
                  "rating": 8.2
            },
            {
                  "distance": 850,
                  "location": {
                        "address": "1546 Laurier Ave E",
                        "country": "CA",
                        "cross_street": "Rue Fabre",
                        "formatted_address": "1546 Laurier Ave E (Rue Fabre), Montr\u00e9al QC H2J 1H9",
                        "locality": "Montreal",
                        "postcode": "H2J 1H9",
                        "region": "QC"
                  },
                  "name": "Caf\u00e9 M\u00e9chants Pinsons",
                  "popularity": 0.9265707797123391,
                  "price": 1,
                  "rating": 8.1
            },
            {
                  "distance": 931,
                  "location": {
                        "address": "34 Fairmount Ave O",
                        "country": "CA",
                        "cross_street": "coin Clark",
                        "formatted_address": "34 Fairmount Ave O (coin Clark), Montr\u00e9al QC H2T 2M1",
                        "locality": "Montreal",
                        "postcode": "H2T 2M1",
                        "region": "QC"
                  },
                  "name": "Wilensky's Light Lunch",
                  "popularity": 0.9229631907645723,
                  "price": 1,
                  "rating": 8.1
            },
            {
                  "distance": 531,
                  "location": {
                        "address": "5938 Saint-Hubert Rue",
                        "country": "CA",
                        "cross_street": "",
                        "formatted_address": "5938 Saint-Hubert Rue, Montr\u00e9al QC H2S 2L7",
                        "locality": "Montreal",
                        "postcode": "H2S 2L7",
                        "region": "QC"
                  },
                  "name": "Restaurant Casa Alentejo",
                  "popularity": 0.9143522899318698,
                  "price": 2,
                  "rating": 7.9
            },
            {
                  "distance": 783,
                  "location": {
                        "address": "351 Rue de Bellechasse",
                        "country": "CA",
                        "cross_street": "btwn Drolet & St-Denis",
                        "formatted_address": "351 Rue de Bellechasse (btwn Drolet & St-Denis), Montr\u00e9al QC H2S 1X1",
                        "locality": "Montreal",
                        "postcode": "H2S 1X1",
                        "region": "QC"
                  },
                  "name": "Elio Pizzeria",
                  "popularity": 0.9754683951551855,
                  "price": 1,
                  "rating": 7.9
            },
            {
                  "distance": 984,
                  "location": {
                        "address": "913 Beaubien Rue E",
                        "country": "CA",
                        "cross_street": "coin Saint-Andr\u00e9",
                        "formatted_address": "913 Beaubien Rue E (coin Saint-Andr\u00e9), Montr\u00e9al QC H2S 1T2",
                        "locality": "Montreal",
                        "postcode": "H2S 1T2",
                        "region": "QC"
                  },
                  "name": "Nacho Libre",
                  "popularity": 0.9517765897047691,
                  "price": 2,
                  "rating": 7.9
            },
            {
                  "distance": 826,
                  "location": {
                        "address": "1499 Laurier Ave E",
                        "country": "CA",
                        "cross_street": "coin Fabre",
                        "formatted_address": "1499 Laurier Ave E (coin Fabre), Montr\u00e9al QC H2J 1H8",
                        "locality": "Montreal",
                        "postcode": "H2J 1H8",
                        "region": "QC"
                  },
                  "name": "Byblos le Petit Caf\u00e9",
                  "popularity": 0.8978046934140802,
                  "price": 2,
                  "rating": 7.8
            },
            {
                  "distance": 799,
                  "location": {
                        "address": "6289 Saint-Hubert Rue",
                        "country": "CA",
                        "cross_street": "",
                        "formatted_address": "6289 Saint-Hubert Rue, Montr\u00e9al QC H2S 2L9",
                        "locality": "Montreal",
                        "postcode": "H2S 2L9",
                        "region": "QC"
                  },
                  "name": "Nestor",
                  "popularity": 0.931160105980318,
                  "price": 2,
                  "rating": 7.8
            },
            {
                  "distance": 817,
                  "location": {
                        "address": "5282 Saint-Laurent Blvd",
                        "address_extended": "coin Maguire",
                        "country": "CA",
                        "cross_street": "coin Maguire",
                        "formatted_address": "5282 Saint-Laurent Blvd (coin Maguire), Montr\u00e9al QC H2T 1S1",
                        "locality": "Montreal",
                        "postcode": "H2T 1S1",
                        "region": "QC"
                  },
                  "name": "Burger de Ville",
                  "popularity": 0.8688611847085541,
                  "price": 2,
                  "rating": 7.8
            },
            {
                  "distance": 930,
                  "location": {
                        "address": "5101 Saint-Laurent Blvd",
                        "country": "CA",
                        "cross_street": "",
                        "formatted_address": "5101 Saint-Laurent Blvd, Montr\u00e9al QC H2T 1R9",
                        "locality": "Montreal",
                        "postcode": "H2T 1R9",
                        "region": "QC"
                  },
                  "name": "Siboire",
                  "popularity": 0.9522733724451173,
                  "price": 2,
                  "rating": 7.7
            },
            {
                  "distance": 747,
                  "location": {
                        "address": "1389 Laurier Ave E",
                        "country": "CA",
                        "cross_street": "Garnier",
                        "formatted_address": "1389 Laurier Ave E (Garnier), Montr\u00e9al QC H2J 1H6",
                        "locality": "Montreal",
                        "postcode": "H2J 1H6",
                        "region": "QC"
                  },
                  "name": "Brulerie Saint-Denis",
                  "popularity": 0.9221115632096897,
                  "price": 1,
                  "rating": 7.7
            },
            {
                  "distance": 889,
                  "location": {
                        "address": "5368 Papineau Ave",
                        "country": "CA",
                        "cross_street": "",
                        "formatted_address": "5368 Papineau Ave, Montr\u00e9al QC H2H 1W2",
                        "locality": "Montreal",
                        "postcode": "H2H 1W2",
                        "region": "QC"
                  },
                  "name": "Caf\u00e9 Orr",
                  "popularity": 0.9599853330809992,
                  "price": 1,
                  "rating": 7.6
            },
            {
                  "distance": 920,
                  "location": {
                        "address": "4664 Saint-Denis Rue",
                        "country": "CA",
                        "cross_street": "",
                        "formatted_address": "4664 Saint-Denis Rue, Montr\u00e9al QC H2J 2L3",
                        "locality": "Montreal",
                        "postcode": "H2J 2L3",
                        "region": "QC"
                  },
                  "name": "Th\u00e9\u00e2tre du Rideau Vert",
                  "popularity": 0.9211179977289932,
                  "rating": 7.6
            },
            {
                  "distance": 1005,
                  "location": {
                        "address": "4800 Rue de Bullion",
                        "country": "CA",
                        "cross_street": "Rue Villeneuve",
                        "formatted_address": "4800 Rue de Bullion (Rue Villeneuve), Montr\u00e9al QC H2T 1Y8",
                        "locality": "Montreal",
                        "postcode": "H2T 1Y8",
                        "region": "QC"
                  },
                  "name": "Le Saint Louis Caf\u00e9",
                  "popularity": 0.9225492051476154,
                  "price": 1,
                  "rating": 7.6
            },
            {
                  "distance": 816,
                  "location": {
                        "address": "5550 Saint-Laurent Blvd",
                        "country": "CA",
                        "cross_street": "coin St-Viateur",
                        "formatted_address": "5550 Saint-Laurent Blvd (coin St-Viateur), Montr\u00e9al QC H2T 1S8",
                        "locality": "Montreal",
                        "postcode": "H2T 1S8",
                        "region": "QC"
                  },
                  "name": "Bar Waverly",
                  "popularity": 0.9304149318697956,
                  "price": 1,
                  "rating": 7.3
            }
      ],
      "context": {
            "geo_bounds": {
                  "circle": {
                        "center": {
                              "latitude": 45.53147464,
                              "longitude": -73.59242052
                        },
                        "radius": 1000
                  }
            }
      }
}