{
      "results": [
            {
                  "distance": 672,
                  "location": {
                        "address": "4005 Ontario Rue E",
                        "country": "CA",
                        "cross_street": "",
                        "formatted_address": "4005 Ontario Rue E, Montr\u00e9al QC H1W 1T1",
                        "locality": "Montreal",
                        "postcode": "H1W 1T1",
                        "region": "QC"
                  },
                  "name": "\u00c9tat-Major",
                  "popularity": 0.9057295609386828,
                  "price": 2,
                  "rating": 8.7
            },
            {
                  "distance": 587,
                  "location": {
                        "address": "4255 Ontario Rue E",
                        "country": "CA",
                        "cross_street": "",
                        "formatted_address": "4255 Ontario Rue E, Montr\u00e9al QC H1V 1K4",
                        "locality": "Montreal",
                        "postcode": "H1V 1K4",
                        "region": "QC"
                  },
                  "name": "H\u00e9licopt\u00e8re",
                  "popularity": 0.910744700984103,
                  "price": 2,
                  "rating": 8.6
            },
            {
                  "distance": 576,
                  "location": {
                        "address": "4317 Ontario Rue E",
                        "country": "CA",
                        "cross_street": "Letourneux",
                        "formatted_address": "4317 Ontario Rue E (Letourneux), Montr\u00e9al QC H1V 1K5",
                        "locality": "Montreal",
                        "postcode": "H1V 1K5",
                        "region": "QC"
                  },
                  "name": "Les gourmandises de Marie-Antoinette",
                  "popularity": 0.9419828728236185,
                  "price": 2,
                  "rating": 8.3
            },
            {
                  "distance": 487,
                  "location": {
                        "address": "3974 Pierre de Coubertin Ave",
                        "country": "CA",
                        "cross_street": "",
                        "formatted_address": "3974 Pierre de Coubertin Ave, Montr\u00e9al QC H1W 1E7",
                        "locality": "Montreal",
                        "postcode": "H1W 1E7",
                        "region": "QC"
                  },
                  "name": "Fusion Express",
                  "popularity": 0.9321300151400455,
                  "price": 2,
                  "rating": 8.0
            },
            {
                  "distance": 418,
                  "location": {
                        "address": "3971 Hochelaga Rue",
                        "country": "CA",
                        "cross_street": "",
                        "formatted_address": "3971 Hochelaga Rue, Montr\u00e9al QC H1W 1K2",
                        "locality": "Montreal",
                        "postcode": "H1W 1K2",
                        "region": "QC"
                  },
                  "name": "Poutine Centrale",
                  "popularity": 0.9448807721423165,
                  "price": 2,
                  "rating": 7.9
            },
            {
                  "distance": 448,
                  "location": {
                        "address": "2225 Bennett Ave",
                        "country": "CA",
                        "cross_street": "",
                        "formatted_address": "2225 Bennett Ave, Montr\u00e9al QC H1V 2T4",
                        "locality": "Montreal",
                        "postcode": "H1V 2T4",
                        "region": "QC"
                  },
                  "name": "Hoche Glac\u00e9",
                  "popularity": 0.9444549583648751,
                  "price": 1,
                  "rating": 7.7
            },
            {
                  "distance": 585,
                  "location": {
                        "address": "4223 Ontario Rue E",
                        "country": "CA",
                        "cross_street": "coin Desjardins",
                        "formatted_address": "4223 Ontario Rue E (coin Desjardins), Montr\u00e9al QC H1V 1K2",
                        "locality": "Montreal",
                        "postcode": "H1V 1K2",
                        "region": "QC"
                  },
                  "name": "New Casa de la Pizza",
                  "popularity": 0.8993660105980318,
                  "price": 1,
                  "rating": 7.4
            },
            {
                  "distance": 840,
                  "location": {
                        "address": "25 Simon Valois Pl",
                        "country": "CA",
                        "cross_street": "coin Ontario",
                        "formatted_address": "25 Simon Valois Pl (coin Ontario), Montr\u00e9al QC H1W 0A6",
                        "locality": "Montreal",
                        "postcode": "H1W 0A6",
                        "region": "QC"
                  },
                  "name": "Le Valois",
                  "popularity": 0.8502436601059803,
                  "price": 2,
                  "rating": 7.4
            },
            {
                  "distance": 780,
                  "location": {
                        "address": "3882 Ontario Rue E",
                        "country": "CA",
                        "cross_street": "",
                        "formatted_address": "3882 Ontario Rue E, Montr\u00e9al QC H1W 1S6",
                        "locality": "Montreal",
                        "postcode": "H1W 1S6",
                        "region": "QC"
                  },
                  "name": "Le Blind Pig",
                  "popularity": 0.9555379447388342,
                  "price": 1,
                  "rating": 7.3
            },
            {
                  "distance": 791,
                  "location": {
                        "address": "3860 Ontario Rue E",
                        "country": "CA",
                        "cross_street": "Bourbonni\u00e8re",
                        "formatted_address": "3860 Ontario Rue E (Bourbonni\u00e8re), Montr\u00e9al QC H1W 1S4",
                        "locality": "Montreal",
                        "postcode": "H1W 1S4",
                        "region": "QC"
                  },
                  "name": "Restaurant la Pataterie Inc",
                  "popularity": 0.9558573050719152,
                  "price": 1,
                  "rating": 7.3
            },
            {
                  "distance": 556,
                  "location": {
                        "address": "2009 Ave de la Salle",
                        "country": "CA",
                        "cross_street": "",
                        "formatted_address": "2009 Ave de la Salle, Montr\u00e9al QC H1V 2K6",
                        "locality": "Montreal",
                        "postcode": "H1V 2K6",
                        "region": "QC"
                  },
                  "name": "H\u00e9lico",
                  "popularity": 0.9399366010598031,
                  "price": 1,
                  "rating": 6.9
            },
            {
                  "distance": 663,
                  "location": {
                        "address": "3929 Sherbrooke Rue E",
                        "country": "CA",
                        "cross_street": "Orleans",
                        "formatted_address": "3929 Sherbrooke Rue E (Orleans), Montr\u00e9al QC H1X 3E3",
                        "locality": "Montreal",
                        "postcode": "H1X 3E3",
                        "region": "QC"
                  },
                  "name": "Restaurant la Belle Province",
                  "popularity": 0.9721091975775927,
                  "price": 1,
                  "rating": 6.3
            },
            {
                  "distance": 723,
                  "location": {
                        "address": "3881 Sherbrooke Rue E",
                        "country": "CA",
                        "cross_street": "coin Av. Bourbonni\u00e8re",
                        "formatted_address": "3881 Sherbrooke Rue E (coin Av. Bourbonni\u00e8re), Montr\u00e9al QC H1X 2A5",
                        "locality": "Montreal",
                        "postcode": "H1X 2A5",
                        "region": "QC"
                  },
                  "name": "Tim Hortons",
                  "popularity": 0.9890116389099167,
                  "price": 1,
                  "rating": 6.2
            },
            {
                  "distance": 766,
                  "location": {
                        "address": "3905 Ontario Rue E",
                        "country": "CA",
                        "cross_street": "",
                        "formatted_address": "3905 Ontario Rue E, Montr\u00e9al QC H1W 1S7",
                        "locality": "Montreal",
                        "postcode": "H1W 1S7",
                        "region": "QC"
                  },
                  "name": "Burrito Revolucion",
                  "popularity": 0.5280800529901589,
                  "rating": 6.0
            },
            {
                  "distance": 693,
                  "location": {
                        "address": "3982 Ontario Rue E",
                        "country": "CA",
                        "formatted_address": "3982 Ontario Rue E, Montr\u00e9al QC H1W 1S9",
                        "locality": "Montreal",
                        "postcode": "H1W 1S9",
                        "region": "QC"
                  },
                  "name": "Gerry's Restaurant Delicatessen",
                  "popularity": 0.9548400832702498,
                  "price": 3,
                  "rating": 5.8
            },
            {
                  "distance": 411,
                  "location": {
                        "address": "4535 Rue de Rouen",
                        "country": "CA",
                        "cross_street": "",
                        "formatted_address": "4535 Rue de Rouen, Montr\u00e9al QC H1V 2W4",
                        "locality": "Montreal",
                        "postcode": "H1V 2W4",
                        "region": "QC"
                  },
                  "name": "Bocal",
                  "popularity": 0.9737533118849356,
                  "price": 1
            },
            {
                  "distance": 572,
                  "location": {
                        "address": "4315 Ontario Rue E",
                        "country": "CA",
                        "cross_street": "",
                        "formatted_address": "4315 Ontario Rue E, Montr\u00e9al QC H1V 1K5",
                        "locality": "Montreal",
                        "postcode": "H1V 1K5",
                        "region": "QC"
                  },
                  "name": "Hoa Anh-D\u0101o",
                  "popularity": 0.1645415404996215,
                  "price": 2
            },
            {
                  "distance": 616,
                  "location": {
                        "address": "2030 Pie-Ix Blvd",
                        "country": "CA",
                        "cross_street": "Ontario",
                        "formatted_address": "2030 Pie-Ix Blvd (Ontario), Montr\u00e9al QC H1V 2C8",
                        "locality": "Montreal",
                        "postcode": "H1V 2C8",
                        "region": "QC"
                  },
                  "name": "American Can Company Building",
                  "popularity": 0.9969838190764573
            },
            {
                  "distance": 659,
                  "location": {
                        "address": "4045 Ontario Rue E",
                        "country": "CA",
                        "cross_street": "",
                        "formatted_address": "4045 Ontario Rue E, Montr\u00e9al QC H1W 1T3",
                        "locality": "Montreal",
                        "postcode": "H1W 1T3",
                        "region": "QC"
                  },
                  "name": "Wolfgang Social Club",
                  "popularity": 0.8224711392884179,
                  "price": 1
            },
            {
                  "distance": 697,
                  "location": {
                        "address": "3979 Ontario Rue E",
                        "country": "CA",
                        "cross_street": "",
                        "formatted_address": "3979 Ontario Rue E, Montr\u00e9al QC H1W 1T1",
                        "locality": "Montreal",
                        "postcode": "H1W 1T1",
                        "region": "QC"
                  },
                  "name": "\u00d4-Big",
                  "popularity": 0.2312523656320969,
                  "price": 1
            },
            {
                  "distance": 700,
                  "location": {
                        "address": "3979 Ontario Rue E",
                        "country": "CA",
                        "cross_street": "",
                        "formatted_address": "3979 Ontario Rue E, Montr\u00e9al QC H1W 1T1",
                        "locality": "Montreal",
                        "postcode": "H1W 1T1",
                        "region": "QC"
                  },
                  "name": "Pizzeria Bros",
                  "popularity": 0.892884178652536,
                  "price": 1
            },
            {
                  "distance": 710,
                  "location": {
                        "address": "3800 Sherbrooke Rue E",
                        "country": "CA",
                        "cross_street": "",
                        "formatted_address": "3800 Sherbrooke Rue E, Montr\u00e9al QC H1X 2A2",
                        "locality": "Montreal",
                        "postcode": "H1X 2A2",
                        "region": "QC"
                  },
                  "name": "Caf\u00e9 l'Escale",
                  "popularity": 0.9066403292959879,
                  "price": 1
            },
            {
                  "distance": 760,
                  "location": {
                        "address": "3905 Ontario Rue E",
                        "country": "CA",
                        "cross_street": "",
                        "formatted_address": "3905 Ontario Rue E, Montr\u00e9al QC H1W 1S7",
                        "locality": "Montreal",
                        "postcode": "H1W 1S7",
                        "region": "QC"
                  },
                  "name": "Pizza Fugazzi",
                  "popularity": 0.8975563020439061,
                  "price": 1
            },
            {
                  "distance": 803,
                  "location": {
                        "address": "3881 Rachel Rue E",
                        "country": "CA",
                        "cross_street": "Bourbonni\u00e8re",
                        "formatted_address": "3881 Rachel Rue E (Bourbonni\u00e8re), Montr\u00e9al QC H1X 1Z2",
                        "locality": "Montreal",
                        "postcode": "H1X 1Z2",
                        "region": "QC"
                  },
                  "name": "Le Botocoin",
                  "popularity": 0.9011757191521574,
                  "price": 1
            },
            {
                  "distance": 834,
                  "location": {
                        "address": "5 Simon Valois Pl",
                        "country": "CA",
                        "cross_street": "Ontario",
                        "formatted_address": "5 Simon Valois Pl (Ontario), Montr\u00e9al QC H1W 0A6",
                        "locality": "Montreal",
                        "postcode": "H1W 0A6",
                        "region": "QC"
                  },
                  "name": "Bar Laitier",
                  "popularity": 0.4559637585162756,
                  "price": 1
            },
            {
                  "distance": 916,
                  "location": {
                        "address": "3739 Ontario Rue E",
                        "country": "CA",
                        "cross_street": "Nicolet",
                        "formatted_address": "3739 Ontario Rue E (Nicolet), Montr\u00e9al QC H1W 1S3",
                        "locality": "Montreal",
                        "postcode": "H1W 1S3",
                        "region": "QC"
                  },
                  "name": "Resto-Bar le Pick Up",
                  "popularity": 0.9295987887963664,
                  "price": 2
            },
            {
                  "distance": 992,
                  "location": {
                        "address": "3668 Ontario Rue E",
                        "country": "CA",
                        "cross_street": "",
                        "formatted_address": "3668 Ontario Rue E, Montr\u00e9al QC H1W 1R9",
                        "locality": "Montreal",
                        "postcode": "H1W 1R9",
                        "region": "QC"
                  },
                  "name": "Sabor Del Sur",
                  "popularity": 0.8754494700984103,
                  "price": 1
            },
            {
                  "distance": 103,
                  "location": {
                        "address": "4240 Hochelaga Rue",
                        "country": "CA",
                        "formatted_address": "4240 Hochelaga Rue, Montreal QC H1V 1B7",
                        "locality": "Montreal",
                        "postcode": "H1V 1B7",
                        "region": "QC"
                  },
                  "name": "Brasserie Ninety Nine"
            },
            {
                  "distance": 434,
                  "location": {
                        "address": "2125 Letourneux Ave",
                        "country": "CA",
                        "formatted_address": "2125 Letourneux Ave, Montreal QC H1V 2N8",
                        "locality": "Montreal",
                        "postcode": "H1V 2N8",
                        "region": "QC"
                  },
                  "name": "Tambour"
            },
            {
                  "distance": 471,
                  "location": {
                        "address": "2190 Aird Ave",
                        "country": "CA",
                        "formatted_address": "2190 Aird Ave, Montreal QC",
                        "locality": "Montreal",
                        "region": "QC"
                  },
                  "name": "Galette Soba"
            },
            {
                  "distance": 565,
                  "location": {
                        "address": "4315 Ontario Rue E",
                        "country": "CA",
                        "formatted_address": "4315 Ontario Rue E, Montreal QC H1V 1K5",
                        "locality": "Montreal",
                        "postcode": "H1V 1K5",
                        "region": "QC"
                  },
                  "name": "Phi-Ma Cuisine Vietnamienne Inc"
            },
            {
                  "distance": 592,
                  "location": {
                        "address": "4445 Ontario Rue E",
                        "country": "CA",
                        "formatted_address": "4445 Ontario Rue E, Montreal QC H1V 3V3",
                        "locality": "Montreal",
                        "postcode": "H1V 3V3",
                        "region": "QC"
                  },
                  "name": "Delli Maisonneuve"
            },
            {
                  "distance": 619,
                  "location": {
                        "address": "2063 Aird Ave",
                        "address_extended": "# 305",
                        "country": "CA",
                        "formatted_address": "2063 Aird Ave, Montreal QC H1V 2V9",
                        "locality": "Montreal",
                        "postcode": "H1V 2V9",
                        "region": "QC"
                  },
                  "name": "Bob, le Roi du Kitsch et du Vintage"
            },
            {
                  "distance": 629,
                  "location": {
                        "address": "4460 Ontario Rue E",
                        "country": "CA",
                        "formatted_address": "4460 Ontario Rue E, Montreal QC H1V 1K6",
                        "locality": "Montreal",
                        "postcode": "H1V 1K6",
                        "region": "QC"
                  },
                  "name": "Albert B"
            },
            {
                  "distance": 666,
                  "location": {
                        "address": "4060 Ontario Rue E",
                        "country": "CA",
                        "formatted_address": "4060 Ontario Rue E, Montreal QC H1W 1T2",
                        "locality": "Montreal",
                        "postcode": "H1W 1T2",
                        "region": "QC"
                  },
                  "name": "Presse Cafe"
            }
      ],
      "context": {
            "geo_bounds": {
                  "circle": {
                        "center": {
                              "latitude": 45.55465888,
                              "longitude": -73.54660302
                        },
                        "radius": 1000
                  }
            }
      }
}