{
      "results": [
            {
                  "distance": 75,
                  "location": {
                        "address": "2471 Notre-Dame Rue O",
                        "country": "CA",
                        "cross_street": "entre Vinet & Charlevoix",
                        "formatted_address": "2471 Notre-Dame Rue O (entre Vinet & Charlevoix), Montr\u00e9al QC H3J 1N6",
                        "locality": "Montreal",
                        "postcode": "H3J 1N6",
                        "region": "QC"
                  },
                  "name": "September Surf Caf\u00e9",
                  "popularity": 0.9357139477668432,
                  "price": 1,
                  "rating": 9.0
            },
            {
                  "distance": 956,
                  "location": {
                        "address": "1940 rue du Ctr",
                        "country": "CA",
                        "cross_street": "rue Jardin",
                        "formatted_address": "1940 rue du Ctr (rue Jardin), Montr\u00e9al QC H3K 1J2",
                        "locality": "Montreal",
                        "postcode": "H3K 1J2",
                        "region": "QC"
                  },
                  "name": "Le Caf\u00e9 Bloom",
                  "popularity": 0.9499195685087055,
                  "price": 2,
                  "rating": 9.0
            },
            {
                  "distance": 287,
                  "location": {
                        "address": "2713 Notre-Dame Rue O",
                        "country": "CA",
                        "cross_street": "Atwater",
                        "formatted_address": "2713 Notre-Dame Rue O (Atwater), Montr\u00e9al QC H3J 1N9",
                        "locality": "Montreal",
                        "postcode": "H3J 1N9",
                        "region": "QC"
                  },
                  "name": "Lili & Oli",
                  "popularity": 0.9507711960635882,
                  "price": 1,
                  "rating": 8.9
            },
            {
                  "distance": 100,
                  "location": {
                        "address": "2501 Notre-Dame Rue O",
                        "country": "CA",
                        "cross_street": "btwn Charlevoix & Vinet",
                        "formatted_address": "2501 Notre-Dame Rue O (btwn Charlevoix & Vinet), Montr\u00e9al QC H3J 1N6",
                        "locality": "Montreal",
                        "postcode": "H3J 1N6",
                        "region": "QC"
                  },
                  "name": "Liverpool House",
                  "popularity": 0.9156888720666162,
                  "price": 3,
                  "rating": 8.9
            },
            {
                  "distance": 723,
                  "location": {
                        "address": "3721 Notre-Dame Rue O",
                        "country": "CA",
                        "cross_street": "entre Bourget & Turgeon",
                        "formatted_address": "3721 Notre-Dame Rue O (entre Bourget & Turgeon), Montr\u00e9al QC H4C 1P8",
                        "locality": "Montreal",
                        "postcode": "H4C 1P8",
                        "region": "QC"
                  },
                  "name": "Satay Brothers",
                  "popularity": 0.9822577592732779,
                  "price": 2,
                  "rating": 8.9
            },
            {
                  "distance": 105,
                  "location": {
                        "address": "2490 Notre-Dame Rue O",
                        "country": "CA",
                        "formatted_address": "2490 Notre-Dame Rue O, Montreal QC H3J 1N5",
                        "locality": "Montreal",
                        "postcode": "H3J 1N5",
                        "region": "QC"
                  },
                  "name": "Th\u00e9\u00e2tre Corona",
                  "popularity": 0.9053274034822104,
                  "rating": 8.8
            },
            {
                  "distance": 611,
                  "location": {
                        "address": "1886 Notre-Dame Rue O",
                        "country": "CA",
                        "cross_street": "coin Des Seigneurs",
                        "formatted_address": "1886 Notre-Dame Rue O (coin Des Seigneurs), Montr\u00e9al QC H3J 1M6",
                        "locality": "Montreal",
                        "postcode": "H3J 1M6",
                        "region": "QC"
                  },
                  "name": "Le Boucan",
                  "popularity": 0.9390494890234671,
                  "price": 3,
                  "rating": 8.8
            },
            {
                  "distance": 105,
                  "location": {
                        "address": "2496 Notre-Dame Rue O",
                        "country": "CA",
                        "cross_street": "entre Charlevoix & Vinet",
                        "formatted_address": "2496 Notre-Dame Rue O (entre Charlevoix & Vinet), Montr\u00e9al QC H3J 1N5",
                        "locality": "Montreal",
                        "postcode": "H3J 1N5",
                        "region": "QC"
                  },
                  "name": "Burgundy Lion",
                  "popularity": 0.956637963663891,
                  "price": 2,
                  "rating": 8.8
            },
            {
                  "distance": 789,
                  "location": {
                        "address": "1708 Notre-Dame Rue O",
                        "country": "CA",
                        "cross_street": "entre Richmond & St-Martin",
                        "formatted_address": "1708 Notre-Dame Rue O (entre Richmond & St-Martin), Montr\u00e9al QC H3J 1M3",
                        "locality": "Montreal",
                        "postcode": "H3J 1M3",
                        "region": "QC"
                  },
                  "name": "Grinder",
                  "popularity": 0.9388838947766843,
                  "price": 3,
                  "rating": 8.7
            },
            {
                  "distance": 961,
                  "location": {
                        "address": "4006 Sainte-Catherine Rue O",
                        "country": "CA",
                        "cross_street": "coin Atwater",
                        "formatted_address": "4006 Sainte-Catherine Rue O (coin Atwater), Westmount QC H3Z 1P2",
                        "locality": "Westmount",
                        "postcode": "H3Z 1P2",
                        "region": "QC"
                  },
                  "name": "Imadake",
                  "popularity": 0.9621822690638562,
                  "price": 2,
                  "rating": 8.7
            },
            {
                  "distance": 365,
                  "location": {
                        "address": "512 Atwater Ave",
                        "country": "CA",
                        "cross_street": "Notre-Dame",
                        "formatted_address": "512 Atwater Ave (Notre-Dame), Montr\u00e9al QC H4C 2G5",
                        "locality": "Montreal",
                        "postcode": "H4C 2G5",
                        "region": "QC"
                  },
                  "name": "Atwater Cocktail Club",
                  "popularity": 0.969412376987131,
                  "price": 3,
                  "rating": 8.7
            },
            {
                  "distance": 517,
                  "location": {
                        "address": "1974 Notre-Dame Rue O",
                        "country": "CA",
                        "cross_street": "entre Canning & Chatham",
                        "formatted_address": "1974 Notre-Dame Rue O (entre Canning & Chatham), Montr\u00e9al QC H3J 1M8",
                        "locality": "Montreal",
                        "postcode": "H3J 1M8",
                        "region": "QC"
                  },
                  "name": "Chez Sophie",
                  "popularity": 0.927304125662377,
                  "price": 3,
                  "rating": 8.6
            },
            {
                  "distance": 851,
                  "location": {
                        "address": "1638 Notre-Dame Rue O",
                        "country": "CA",
                        "cross_street": "entre Guy & Richmond",
                        "formatted_address": "1638 Notre-Dame Rue O (entre Guy & Richmond), Montr\u00e9al QC H3J 1M1",
                        "locality": "Montreal",
                        "postcode": "H3J 1M1",
                        "region": "QC"
                  },
                  "name": "Foxy",
                  "popularity": 0.9481216881150644,
                  "price": 2,
                  "rating": 8.6
            },
            {
                  "distance": 651,
                  "location": {
                        "address": "3618 Notre-Dame Rue O",
                        "country": "CA",
                        "cross_street": "",
                        "formatted_address": "3618 Notre-Dame Rue O, Montr\u00e9al QC H4C 1P5",
                        "locality": "Montreal",
                        "postcode": "H4C 1P5",
                        "region": "QC"
                  },
                  "name": "Sumac",
                  "popularity": 0.9393806775170326,
                  "price": 2,
                  "rating": 8.5
            },
            {
                  "distance": 507,
                  "location": {
                        "address": "3502 Notre-Dame Rue O",
                        "country": "CA",
                        "cross_street": "",
                        "formatted_address": "3502 Notre-Dame Rue O, Montr\u00e9al QC H4C 1P4",
                        "locality": "Montreal",
                        "postcode": "H4C 1P4",
                        "region": "QC"
                  },
                  "name": "Eko Sushi",
                  "popularity": 0.925316994700984,
                  "price": 2,
                  "rating": 8.5
            },
            {
                  "distance": 1005,
                  "location": {
                        "address": "1871 Rue du Ctr",
                        "country": "CA",
                        "cross_street": "Shearer",
                        "formatted_address": "1871 Rue du Ctr (Shearer), Montr\u00e9al QC H3K 1J1",
                        "locality": "Montreal",
                        "postcode": "H3K 1J1",
                        "region": "QC"
                  },
                  "name": "Knox Taverne",
                  "popularity": 0.9547572861468584,
                  "price": 2,
                  "rating": 8.3
            },
            {
                  "distance": 884,
                  "location": {
                        "address": "1642 Notre-Dame Rue O",
                        "country": "CA",
                        "cross_street": "entre Richmond & Guy",
                        "formatted_address": "1642 Notre-Dame Rue O (entre Richmond & Guy), Montr\u00e9al QC H3J 1M1",
                        "locality": "Montreal",
                        "postcode": "H3J 1M1",
                        "region": "QC"
                  },
                  "name": "Le Bureau Bar a Tapas",
                  "popularity": 0.9004305450416351,
                  "price": 3,
                  "rating": 8.3
            },
            {
                  "distance": 369,
                  "location": {
                        "address": "3001 Notre-Dame Rue O",
                        "country": "CA",
                        "cross_street": "coin Atwater",
                        "formatted_address": "3001 Notre-Dame Rue O (coin Atwater), Montr\u00e9al QC H4C 1N9",
                        "locality": "Montreal",
                        "postcode": "H4C 1N9",
                        "region": "QC"
                  },
                  "name": "Foiegwa",
                  "popularity": 0.9437807532172596,
                  "price": 3,
                  "rating": 8.2
            },
            {
                  "distance": 667,
                  "location": {
                        "address": "1850 Notre-Dame Rue O",
                        "country": "CA",
                        "cross_street": "Rue des Seigneurs",
                        "formatted_address": "1850 Notre-Dame Rue O (Rue des Seigneurs), Montr\u00e9al QC H3J 1M5",
                        "locality": "Montreal",
                        "postcode": "H3J 1M5",
                        "region": "QC"
                  },
                  "name": "Caf\u00e9 Lali",
                  "popularity": 0.9049134178652536,
                  "price": 1,
                  "rating": 8.1
            },
            {
                  "distance": 972,
                  "location": {
                        "address": "4024B Sainte Catherine Rue O",
                        "country": "CA",
                        "cross_street": "",
                        "formatted_address": "4024B Sainte Catherine Rue O, Westmount QC H3Z 1P2",
                        "locality": "Westmount",
                        "postcode": "H3Z 1P2",
                        "region": "QC"
                  },
                  "name": "Sparta Rotisserie&Grill",
                  "popularity": 0.9783013019218847,
                  "price": 2,
                  "rating": 8.1
            },
            {
                  "distance": 527,
                  "location": {
                        "address": "138 Atwater Ave",
                        "country": "CA",
                        "formatted_address": "138 Atwater Ave, Montr\u00e9al QC H4C 2G3",
                        "locality": "Montreal",
                        "postcode": "H4C 2G3",
                        "region": "QC"
                  },
                  "name": "Havre-aux-Glaces",
                  "popularity": 0.9121049394398183,
                  "price": 1,
                  "rating": 7.9
            },
            {
                  "distance": 205,
                  "location": {
                        "address": "2661 Notre-Dame Rue O",
                        "country": "CA",
                        "cross_street": "Petite-Bourgogne",
                        "formatted_address": "2661 Notre-Dame Rue O (Petite-Bourgogne), Montr\u00e9al QC H3J 1N9",
                        "locality": "Montreal",
                        "postcode": "H3J 1N9",
                        "region": "QC"
                  },
                  "name": "Drinkerie Ste-Cun\u00e9gonde",
                  "popularity": 0.9424678274034822,
                  "price": 2,
                  "rating": 7.8
            },
            {
                  "distance": 726,
                  "location": {
                        "address": "2483 rue du Ctr",
                        "country": "CA",
                        "cross_street": "",
                        "formatted_address": "2483 rue du Ctr, Montr\u00e9al QC H3K 1J9",
                        "locality": "Montreal",
                        "postcode": "H3K 1J9",
                        "region": "QC"
                  },
                  "name": "Clarke Caf\u00e9",
                  "popularity": 0.9593111279333838,
                  "price": 1,
                  "rating": 7.6
            },
            {
                  "distance": 987,
                  "location": {
                        "address": "1524 Notre-Dame Rue O",
                        "country": "CA",
                        "cross_street": "",
                        "formatted_address": "1524 Notre-Dame Rue O, Montr\u00e9al QC H3C 1L1",
                        "locality": "Montreal",
                        "postcode": "H3C 1L1",
                        "region": "QC"
                  },
                  "name": "Maman",
                  "popularity": 0.9602692089326268,
                  "price": 3,
                  "rating": 7.6
            },
            {
                  "distance": 440,
                  "location": {
                        "address": "3041 Notre-Dame Rue O",
                        "country": "CA",
                        "cross_street": "coin Greene",
                        "formatted_address": "3041 Notre-Dame Rue O (coin Greene), Montr\u00e9al QC H4C 1N9",
                        "locality": "Montreal",
                        "postcode": "H4C 1N9",
                        "region": "QC"
                  },
                  "name": "Green Spot",
                  "popularity": 0.9889998107494322,
                  "price": 1,
                  "rating": 7.6
            },
            {
                  "distance": 591,
                  "location": {
                        "address": "3568 Notre-Dame Rue O",
                        "country": "CA",
                        "cross_street": "coin Rose de Lima",
                        "formatted_address": "3568 Notre-Dame Rue O (coin Rose de Lima), Montr\u00e9al QC H4C 1P4",
                        "locality": "Montreal",
                        "postcode": "H4C 1P4",
                        "region": "QC"
                  },
                  "name": "Restaurant Nozy",
                  "popularity": 0.9039435087055261,
                  "price": 2,
                  "rating": 7.2
            },
            {
                  "distance": 708,
                  "location": {
                        "address": "265 des Seigneurs Rue",
                        "country": "CA",
                        "cross_street": "entre William & Basin",
                        "formatted_address": "265 des Seigneurs Rue (entre William & Basin), Montr\u00e9al QC H3J 0B3",
                        "locality": "Montreal",
                        "postcode": "H3J 0B3",
                        "region": "QC"
                  },
                  "name": "Lord William Pub",
                  "popularity": 0.9671058856926571,
                  "price": 1,
                  "rating": 7.1
            },
            {
                  "distance": 385,
                  "location": {
                        "address": "3009 Notre Dame Rue O",
                        "country": "CA",
                        "cross_street": "Atwater",
                        "formatted_address": "3009 Notre Dame Rue O (Atwater), Montr\u00e9al QC H4C 1N9",
                        "locality": "Montreal",
                        "postcode": "H4C 1N9",
                        "region": "QC"
                  },
                  "name": "Thai Express",
                  "popularity": 0.9009391559424679,
                  "price": 2,
                  "rating": 6.0,
                  "store_id": "68"
            },
            {
                  "distance": 992,
                  "location": {
                        "address": "2127 Sainte-Catherine Rue O",
                        "country": "CA",
                        "cross_street": "",
                        "formatted_address": "2127 Sainte-Catherine Rue O, Montr\u00e9al QC H3H 1M6",
                        "locality": "Montreal",
                        "postcode": "H3H 1M6",
                        "region": "QC"
                  },
                  "name": "La Maison du Bulgogi",
                  "popularity": 0.9061317183951552,
                  "price": 2,
                  "rating": 5.7
            },
            {
                  "distance": 392,
                  "location": {
                        "address": "700 Atwater Ave",
                        "country": "CA",
                        "cross_street": "coin St-Jacques",
                        "formatted_address": "700 Atwater Ave (coin St-Jacques), Montr\u00e9al QC H4C 2G9",
                        "locality": "Montreal",
                        "postcode": "H4C 2G9",
                        "region": "QC"
                  },
                  "name": "Tim Hortons",
                  "popularity": 0.9925955715367146,
                  "price": 1,
                  "rating": 5.6
            },
            {
                  "distance": 425,
                  "location": {
                        "address": "3026 Notre-Dame Rue O",
                        "country": "CA",
                        "cross_street": "Greene",
                        "formatted_address": "3026 Notre-Dame Rue O (Greene), Montr\u00e9al QC H4C 1P1",
                        "locality": "Montreal",
                        "postcode": "H4C 1P1",
                        "region": "QC"
                  },
                  "name": "McDonald's",
                  "popularity": 0.9893073429220288,
                  "price": 1,
                  "rating": 4.8,
                  "store_id": "26035"
            },
            {
                  "distance": 61,
                  "location": {
                        "address": "2455 Notre-Dame Rue O",
                        "country": "CA",
                        "cross_street": "Vinet",
                        "formatted_address": "2455 Notre-Dame Rue O (Vinet), Montr\u00e9al QC H3J 1N6",
                        "locality": "Montreal",
                        "postcode": "H3J 1N6",
                        "region": "QC"
                  },
                  "name": "Shushu Bar \u00c0 Pok\u00e9 + Sushi",
                  "popularity": 0.8745741862225587,
                  "price": 2
            },
            {
                  "distance": 130,
                  "location": {
                        "address": "2523 Notre-Dame Rue O",
                        "country": "CA",
                        "cross_street": "",
                        "formatted_address": "2523 Notre-Dame Rue O, Montr\u00e9al QC H3J 1N6",
                        "locality": "Montreal",
                        "postcode": "H3J 1N6",
                        "region": "QC"
                  },
                  "name": "Mignon Steak",
                  "popularity": 0.8599782361847086,
                  "price": 4
            },
            {
                  "distance": 424,
                  "location": {
                        "address": "768 Atwater Ave",
                        "country": "CA",
                        "cross_street": "saint jacques",
                        "formatted_address": "768 Atwater Ave (saint jacques), Montr\u00e9al QC H4C 2G9",
                        "locality": "Montreal",
                        "postcode": "H4C 2G9",
                        "region": "QC"
                  },
                  "name": "Restaurant Frida",
                  "popularity": 0.9075984102952309,
                  "price": 1
            },
            {
                  "distance": 468,
                  "location": {
                        "address": "138 Atwater Ave",
                        "country": "CA",
                        "cross_street": "",
                        "formatted_address": "138 Atwater Ave, Montr\u00e9al QC H4C 2G3",
                        "locality": "Montreal",
                        "postcode": "H4C 2G3",
                        "region": "QC"
                  },
                  "name": "Chez Layla",
                  "popularity": 0.2843726343679031,
                  "price": 2
            }
      ],
      "context": {
            "geo_bounds": {
                  "circle": {
                        "center": {
                              "latitude": 45.48378886,
                              "longitude": -73.57506126
                        },
                        "radius": 1000
                  }
            }
      }
}