{
      "results": [
            {
                  "distance": 444,
                  "location": {
                        "address": "6128 Ave de Monkland",
                        "country": "CA",
                        "cross_street": "Beaconsfield",
                        "formatted_address": "6128 Ave de Monkland (Beaconsfield), Montr\u00e9al QC H4A 1H4",
                        "locality": "Montreal",
                        "postcode": "H4A 1H4",
                        "region": "QC"
                  },
                  "name": "Caf\u00e9 de' Mercanti",
                  "popularity": 0.9613573996971991,
                  "price": 1,
                  "rating": 9.1
            },
            {
                  "distance": 533,
                  "location": {
                        "address": "6703 Sherbrooke Rue O",
                        "country": "CA",
                        "cross_street": "Montclair St.",
                        "formatted_address": "6703 Sherbrooke Rue O (Montclair St.), Montr\u00e9al QC H4B 1P3",
                        "locality": "Montreal",
                        "postcode": "H4B 1P3",
                        "region": "QC"
                  },
                  "name": "Cafe 92 Degres",
                  "popularity": 0.9332300340651022,
                  "price": 1,
                  "rating": 8.7
            },
            {
                  "distance": 969,
                  "location": {
                        "address": "6710 Saint Jacques Rue O",
                        "country": "CA",
                        "formatted_address": "6710 Saint Jacques Rue O, Montr\u00e9al QC H4B 1V8",
                        "locality": "Montreal",
                        "postcode": "H4B 1V8",
                        "region": "QC"
                  },
                  "name": "Eggs Frutti",
                  "popularity": 0.9720618849356548,
                  "price": 1,
                  "rating": 8.2
            },
            {
                  "distance": 743,
                  "location": {
                        "address": "6135 Sherbrooke Rue O",
                        "country": "CA",
                        "cross_street": "Grand Boulevard",
                        "formatted_address": "6135 Sherbrooke Rue O (Grand Boulevard), Montr\u00e9al QC H4A 1Y4",
                        "locality": "Montreal",
                        "postcode": "H4A 1Y4",
                        "region": "QC"
                  },
                  "name": "Dawa",
                  "popularity": 0.9545325510976533,
                  "price": 2,
                  "rating": 8.1
            },
            {
                  "distance": 404,
                  "location": {
                        "address": "6151 Ave de Monkland",
                        "country": "CA",
                        "cross_street": "",
                        "formatted_address": "6151 Ave de Monkland, Montr\u00e9al QC H4B 1G3",
                        "locality": "Montreal",
                        "postcode": "H4B 1G3",
                        "region": "QC"
                  },
                  "name": "La Meunerie Urbaine",
                  "popularity": 0.9667155563966692,
                  "price": 1,
                  "rating": 7.8
            },
            {
                  "distance": 469,
                  "location": {
                        "address": "3373 Cavendish Blvd",
                        "country": "CA",
                        "cross_street": "",
                        "formatted_address": "3373 Cavendish Blvd, Montr\u00e9al QC H4B 2L7",
                        "locality": "Montreal",
                        "postcode": "H4B 2L7",
                        "region": "QC"
                  },
                  "name": "The Wheel Club",
                  "popularity": 0.9835943414080243,
                  "rating": 7.5
            },
            {
                  "distance": 815,
                  "location": {
                        "address": "6079 Sherbrooke Rue O",
                        "country": "CA",
                        "formatted_address": "6079 Sherbrooke Rue O, Montr\u00e9al QC H4A 1Y2",
                        "locality": "Montreal",
                        "postcode": "H4A 1Y2",
                        "region": "QC"
                  },
                  "name": "Ganges Restaurant",
                  "popularity": 0.866377271006813,
                  "price": 2,
                  "rating": 7.3
            },
            {
                  "distance": 929,
                  "location": {
                        "address": "5766 Ave de Monkland",
                        "country": "CA",
                        "cross_street": "",
                        "formatted_address": "5766 Ave de Monkland, Montr\u00e9al QC H4A 1E9",
                        "locality": "Montreal",
                        "postcode": "H4A 1E9",
                        "region": "QC"
                  },
                  "name": "Gia Ba",
                  "popularity": 0.8727763058289175,
                  "rating": 7.3
            },
            {
                  "distance": 441,
                  "location": {
                        "address": "6127 Ave de Monkland",
                        "country": "CA",
                        "cross_street": "",
                        "formatted_address": "6127 Ave de Monkland, Montr\u00e9al QC H4A 1H5",
                        "locality": "Montreal",
                        "postcode": "H4A 1H5",
                        "region": "QC"
                  },
                  "name": "Bistro Amerigo",
                  "popularity": 0.9265944360333082,
                  "rating": 7.3
            },
            {
                  "distance": 514,
                  "location": {
                        "address": "6290 Somerled Ave",
                        "country": "CA",
                        "cross_street": "",
                        "formatted_address": "6290 Somerled Ave, Montr\u00e9al QC H3X 2B6",
                        "locality": "Montreal",
                        "postcode": "H3X 2B6",
                        "region": "QC"
                  },
                  "name": "Mon Ami",
                  "popularity": 0.9605767411052233,
                  "price": 2,
                  "rating": 7.1
            },
            {
                  "distance": 575,
                  "location": {
                        "address": "6200 Somerled Ave",
                        "country": "CA",
                        "cross_street": "",
                        "formatted_address": "6200 Somerled Ave, Montr\u00e9al QC H3X 2B3",
                        "locality": "Montreal",
                        "postcode": "H3X 2B3",
                        "region": "QC"
                  },
                  "name": "Restaurant B & M",
                  "popularity": 0.9727479182437547,
                  "price": 3,
                  "rating": 7.0
            },
            {
                  "distance": 1001,
                  "location": {
                        "address": "5916 Sherbrooke Rue O",
                        "country": "CA",
                        "cross_street": "",
                        "formatted_address": "5916 Sherbrooke Rue O, Montr\u00e9al QC H4A 1X7",
                        "locality": "Montreal",
                        "postcode": "H4A 1X7",
                        "region": "QC"
                  },
                  "name": "Honey Martin",
                  "popularity": 0.9609670704012112,
                  "price": 1,
                  "rating": 6.8
            },
            {
                  "distance": 513,
                  "location": {
                        "address": "6295 Somerled Ave",
                        "country": "CA",
                        "cross_street": "",
                        "formatted_address": "6295 Somerled Ave, Montr\u00e9al QC H3X 2B7",
                        "locality": "Montreal",
                        "postcode": "H3X 2B7",
                        "region": "QC"
                  },
                  "name": "Subway",
                  "popularity": 0.9035531794095383,
                  "price": 1,
                  "rating": 6.3,
                  "store_id": "44889"
            },
            {
                  "distance": 811,
                  "location": {
                        "address": "6495 St Jacques Rue",
                        "country": "CA",
                        "cross_street": "Cavendish",
                        "formatted_address": "6495 St Jacques Rue (Cavendish), Montr\u00e9al QC H4B 1V1",
                        "locality": "Montreal",
                        "postcode": "H4B 1V1",
                        "region": "QC"
                  },
                  "name": "Tim Hortons",
                  "popularity": 0.9952923921271764,
                  "price": 1,
                  "rating": 6.3
            },
            {
                  "distance": 447,
                  "location": {
                        "address": "6390 Sherbrooke Rue O",
                        "country": "CA",
                        "cross_street": "",
                        "formatted_address": "6390 Sherbrooke Rue O, Montr\u00e9al QC H4B 1M9",
                        "locality": "Montreal",
                        "postcode": "H4B 1M9",
                        "region": "QC"
                  },
                  "name": "Pizza Pizza",
                  "popularity": 0.9750189250567751,
                  "price": 1,
                  "rating": 6.3,
                  "store_id": "302"
            },
            {
                  "distance": 944,
                  "location": {
                        "address": "5752 Ave de Monkland",
                        "country": "CA",
                        "cross_street": "coin Wilson",
                        "formatted_address": "5752 Ave de Monkland (coin Wilson), Montr\u00e9al QC H4A 1E9",
                        "locality": "Montreal",
                        "postcode": "H4A 1E9",
                        "region": "QC"
                  },
                  "name": "Typhoon Lounge",
                  "popularity": 0.9507830242240727,
                  "price": 2,
                  "rating": 6.0
            },
            {
                  "distance": 958,
                  "location": {
                        "address": "5737 Ave de Monkland",
                        "country": "CA",
                        "cross_street": "Avenue Wilson",
                        "formatted_address": "5737 Ave de Monkland (Avenue Wilson), Montr\u00e9al QC H4A 1E7",
                        "locality": "Montreal",
                        "postcode": "H4A 1E7",
                        "region": "QC"
                  },
                  "name": "Le Petit Tokebi",
                  "popularity": 0.9233416919000756,
                  "price": 2,
                  "rating": 5.8
            },
            {
                  "distance": 667,
                  "location": {
                        "address": "5950 Ave de Monkland",
                        "country": "CA",
                        "cross_street": "",
                        "formatted_address": "5950 Ave de Monkland, Montr\u00e9al QC H4A 1G8",
                        "locality": "Montreal",
                        "postcode": "H4A 1G8",
                        "region": "QC"
                  },
                  "name": "Bacaro Pizzeria",
                  "popularity": 0.8862604087812264,
                  "price": 1,
                  "rating": 5.4
            },
            {
                  "distance": 473,
                  "location": {
                        "address": "6112 Ave de Monkland",
                        "country": "CA",
                        "cross_street": "",
                        "formatted_address": "6112 Ave de Monkland, Montr\u00e9al QC H4A 1H4",
                        "locality": "Montreal",
                        "postcode": "H4A 1H4",
                        "region": "QC"
                  },
                  "name": "Gyro Boutique",
                  "popularity": 0.099179125662377,
                  "price": 2
            },
            {
                  "distance": 480,
                  "location": {
                        "address": "6365 Sherbrooke Rue O",
                        "country": "CA",
                        "cross_street": "",
                        "formatted_address": "6365 Sherbrooke Rue O, Montreal QC H4B 1N1",
                        "locality": "Montreal",
                        "postcode": "H4B 1N1",
                        "region": "QC"
                  },
                  "name": "Amir",
                  "popularity": 0.929196631339894,
                  "price": 2
            },
            {
                  "distance": 517,
                  "location": {
                        "address": "6280 Somerled Ave",
                        "country": "CA",
                        "cross_street": "",
                        "formatted_address": "6280 Somerled Ave, Montr\u00e9al QC H3X 2B6",
                        "locality": "Montreal",
                        "postcode": "H3X 2B6",
                        "region": "QC"
                  },
                  "name": "Bar Sora",
                  "popularity": 0.8962552043906131,
                  "price": 2
            },
            {
                  "distance": 537,
                  "location": {
                        "address": "6521 Somerled Ave",
                        "country": "CA",
                        "cross_street": "",
                        "formatted_address": "6521 Somerled Ave, Montr\u00e9al QC H4V 1S7",
                        "locality": "Montreal",
                        "postcode": "H4V 1S7",
                        "region": "QC"
                  },
                  "name": "Mon Ami Korean BBQ",
                  "popularity": 0.9133587244511734,
                  "price": 2
            },
            {
                  "distance": 540,
                  "location": {
                        "address": "3300 Cavendish Blvd",
                        "country": "CA",
                        "formatted_address": "3300 Cavendish Blvd, Montr\u00e9al QC H4B 2M8",
                        "locality": "Montreal",
                        "postcode": "H4B 2M8",
                        "region": "QC"
                  },
                  "name": "Seoul B B Q",
                  "popularity": 0.8914529712339136,
                  "price": 2
            },
            {
                  "distance": 547,
                  "location": {
                        "address": "6509 Somerled Ave",
                        "country": "CA",
                        "cross_street": "Cavendish",
                        "formatted_address": "6509 Somerled Ave (Cavendish), Montr\u00e9al QC H4V 1S7",
                        "locality": "Montreal",
                        "postcode": "H4V 1S7",
                        "region": "QC"
                  },
                  "name": "Velat Pizza",
                  "popularity": 0.9283923164269493,
                  "price": 1
            },
            {
                  "distance": 554,
                  "location": {
                        "address": "6216 Somerled Ave",
                        "country": "CA",
                        "cross_street": "Grand Boulevard",
                        "formatted_address": "6216 Somerled Ave (Grand Boulevard), Montr\u00e9al QC H3X 2B3",
                        "locality": "Montreal",
                        "postcode": "H3X 2B3",
                        "region": "QC"
                  },
                  "name": "La Maison des Cinqs",
                  "popularity": 0.3765494890234671,
                  "price": 1
            },
            {
                  "distance": 557,
                  "location": {
                        "address": "6543A Somerled Ave",
                        "country": "CA",
                        "cross_street": "Cavendish",
                        "formatted_address": "6543A Somerled Ave (Cavendish), Montr\u00e9al QC H4V 1S7",
                        "locality": "Montreal",
                        "postcode": "H4V 1S7",
                        "region": "QC"
                  },
                  "name": "Le Caf\u00e9 Bomnal",
                  "popularity": 0.8393380961392884,
                  "price": 1
            },
            {
                  "distance": 561,
                  "location": {
                        "address": "6521 Somerled Ave",
                        "country": "CA",
                        "cross_street": "",
                        "formatted_address": "6521 Somerled Ave, Montr\u00e9al QC H4V 1S7",
                        "locality": "Montreal",
                        "postcode": "H4V 1S7",
                        "region": "QC"
                  },
                  "name": "Hoho Korean Bbq",
                  "popularity": 0.969684424678274,
                  "price": 2
            },
            {
                  "distance": 585,
                  "location": {
                        "address": "6563 Somerled Ave",
                        "country": "CA",
                        "cross_street": "",
                        "formatted_address": "6563 Somerled Ave, Montr\u00e9al QC H4V 1T1",
                        "locality": "Montreal",
                        "postcode": "H4V 1T1",
                        "region": "QC"
                  },
                  "name": "Olivia\u2019s Poulet Authentique",
                  "popularity": 0.9211061695685087,
                  "price": 1
            },
            {
                  "distance": 835,
                  "location": {
                        "address": "6926 Sherbrooke Rue O",
                        "address_extended": "Suite 1",
                        "country": "CA",
                        "cross_street": "",
                        "formatted_address": "6926 Sherbrooke Rue O, Montr\u00e9al QC H4B 1P9",
                        "locality": "Montreal",
                        "postcode": "H4B 1P9",
                        "region": "QC"
                  },
                  "name": "MIA Caf\u00e9 Club",
                  "popularity": 0.8483156699470098,
                  "price": 1
            },
            {
                  "distance": 870,
                  "location": {
                        "address": "6969 Sherbrooke Rue O",
                        "country": "CA",
                        "cross_street": "",
                        "formatted_address": "6969 Sherbrooke Rue O, Montr\u00e9al QC H4B 1R1",
                        "locality": "Montreal",
                        "postcode": "H4B 1R1",
                        "region": "QC"
                  },
                  "name": "Dagwoods Sandwiches",
                  "popularity": 0.9354892127176382,
                  "price": 1
            },
            {
                  "distance": 971,
                  "location": {
                        "address": "5899 Sherbrooke Rue O",
                        "country": "CA",
                        "cross_street": "",
                        "formatted_address": "5899 Sherbrooke Rue O, Montr\u00e9al QC H4A 1X6",
                        "locality": "Montreal",
                        "postcode": "H4A 1X6",
                        "region": "QC"
                  },
                  "name": "Crusty's",
                  "popularity": 0.8394090651021953,
                  "price": 1
            },
            {
                  "distance": 979,
                  "location": {
                        "address": "5942 Sherbrooke Rue O",
                        "address_extended": "Belgrave",
                        "country": "CA",
                        "cross_street": "Belgrave",
                        "formatted_address": "5942 Sherbrooke Rue O (Belgrave), Montr\u00e9al QC H4A 1X7",
                        "locality": "Montreal",
                        "postcode": "H4A 1X7",
                        "region": "QC"
                  },
                  "name": "L'Gros Luxe NDG",
                  "popularity": 0.9426925624526874,
                  "price": 2
            },
            {
                  "distance": 979,
                  "location": {
                        "address": "6710 Saint-Jacques Rue",
                        "country": "CA",
                        "cross_street": "",
                        "formatted_address": "6710 Saint-Jacques Rue, Montr\u00e9al QC H4B 1V8",
                        "locality": "Montreal",
                        "postcode": "H4B 1V8",
                        "region": "QC"
                  },
                  "name": "Kosa Restaurant",
                  "popularity": 0.946099072672218,
                  "price": 2
            },
            {
                  "distance": 999,
                  "location": {
                        "address": "5893 Sherbrooke Rue O",
                        "country": "CA",
                        "cross_street": "",
                        "formatted_address": "5893 Sherbrooke Rue O, Montr\u00e9al QC H4A 1X6",
                        "locality": "Montreal",
                        "postcode": "H4A 1X6",
                        "region": "QC"
                  },
                  "name": "East Africa",
                  "popularity": 0.617997728993187,
                  "price": 2
            },
            {
                  "distance": 304,
                  "location": {
                        "address": "3131 Blvd de la C\u00f4te-Vertu",
                        "country": "CA",
                        "formatted_address": "3131 Blvd de la C\u00f4te-Vertu, Montreal QC H4R 1Y5",
                        "locality": "Montreal",
                        "postcode": "H4R 1Y5",
                        "region": "QC"
                  },
                  "name": "A la Japonaise"
            }
      ],
      "context": {
            "geo_bounds": {
                  "circle": {
                        "center": {
                              "latitude": 45.46693565,
                              "longitude": -73.63153115
                        },
                        "radius": 1000
                  }
            }
      }
}