{
      "results": [
            {
                  "distance": 778,
                  "location": {
                        "address": "1431 Saint-Laurent Blvd",
                        "country": "CA",
                        "cross_street": "entre De Maisonneuve & Ste-Catherine",
                        "formatted_address": "1431 Saint-Laurent Blvd (entre De Maisonneuve & Ste-Catherine), Montr\u00e9al QC H2X 2S8",
                        "locality": "Montreal",
                        "postcode": "H2X 2S8",
                        "region": "QC"
                  },
                  "name": "Cadet",
                  "popularity": 0.9538465177895533,
                  "price": 2,
                  "rating": 9.4
            },
            {
                  "distance": 753,
                  "location": {
                        "address": "1595 Saint-Laurent Blvd",
                        "country": "CA",
                        "cross_street": "entre De Maisonneuve & Ontario",
                        "formatted_address": "1595 Saint-Laurent Blvd (entre De Maisonneuve & Ontario), Montr\u00e9al QC H2X 2S9",
                        "locality": "Montreal",
                        "postcode": "H2X 2S9",
                        "region": "QC"
                  },
                  "name": "Bouillon Bilk",
                  "popularity": 0.962682153671461,
                  "price": 3,
                  "rating": 9.3
            },
            {
                  "distance": 407,
                  "location": {
                        "address": "705 Sainte-Catherine Rue O",
                        "country": "CA",
                        "cross_street": "",
                        "formatted_address": "705 Sainte-Catherine Rue O, Montr\u00e9al QC H3B 4G5",
                        "locality": "Montreal",
                        "postcode": "H3B 4G5",
                        "region": "QC"
                  },
                  "name": "Time Out Market Montr\u00e9al",
                  "popularity": 0.9987107305071915,
                  "price": 2,
                  "rating": 9.1
            },
            {
                  "distance": 781,
                  "location": {
                        "address": "1067 Rue de Bleury",
                        "country": "CA",
                        "cross_street": "De la Gaucheti\u00e8re",
                        "formatted_address": "1067 Rue de Bleury (De la Gaucheti\u00e8re), Montr\u00e9al QC H2Z 1N1",
                        "locality": "Montreal",
                        "postcode": "H2Z 1N1",
                        "region": "QC"
                  },
                  "name": "La Finca caf\u00e9 & bureau",
                  "popularity": 0.9523798258894777,
                  "price": 1,
                  "rating": 9.1
            },
            {
                  "distance": 870,
                  "location": {
                        "address": "1206 Stanley Rue",
                        "country": "CA",
                        "cross_street": "entre Ren\u00e9-L\u00e9vesque & Ste-Catherine",
                        "formatted_address": "1206 Stanley Rue (entre Ren\u00e9-L\u00e9vesque & Ste-Catherine), Montr\u00e9al QC H3B 2S7",
                        "locality": "Montreal",
                        "postcode": "H3B 2S7",
                        "region": "QC"
                  },
                  "name": "Melk Bar a Caf\u00e9",
                  "popularity": 0.9670704012112036,
                  "price": 2,
                  "rating": 9.0
            },
            {
                  "distance": 808,
                  "location": {
                        "address": "19 Prince-Arthur Rue O",
                        "country": "CA",
                        "cross_street": "entre St-Laurent & Clark",
                        "formatted_address": "19 Prince-Arthur Rue O (entre St-Laurent & Clark), Montr\u00e9al QC H2X 1S4",
                        "locality": "Montreal",
                        "postcode": "H2X 1S4",
                        "region": "QC"
                  },
                  "name": "Caf\u00e9 Nocturne",
                  "popularity": 0.9314912944738835,
                  "price": 1,
                  "rating": 9.0
            },
            {
                  "distance": 937,
                  "location": {
                        "address": "1106B Saint Laurent Blvd",
                        "country": "CA",
                        "cross_street": "coin Ren\u00e9-L\u00e9vesque",
                        "formatted_address": "1106B Saint Laurent Blvd (coin Ren\u00e9-L\u00e9vesque), Montr\u00e9al QC H2Z 1J5",
                        "locality": "Montreal",
                        "postcode": "H2Z 1J5",
                        "region": "QC"
                  },
                  "name": "Bar le Mal N\u00e9cessaire",
                  "popularity": 0.9491152535957608,
                  "price": 3,
                  "rating": 9.0
            },
            {
                  "distance": 501,
                  "location": {
                        "address": "1250 Rue de Bleury",
                        "country": "CA",
                        "cross_street": "at Sainte-Catherine",
                        "formatted_address": "1250 Rue de Bleury (at Sainte-Catherine), Montr\u00e9al QC H3B 2W4",
                        "locality": "Montreal",
                        "postcode": "H3B 2W4",
                        "region": "QC"
                  },
                  "name": "Nyks Bistro Pub",
                  "popularity": 0.9770888531415595,
                  "price": 2,
                  "rating": 8.6
            },
            {
                  "distance": 728,
                  "location": {
                        "address": "1116 Sainte-Catherine Rue O",
                        "country": "CA",
                        "cross_street": "Peel",
                        "formatted_address": "1116 Sainte-Catherine Rue O (Peel), Montr\u00e9al QC H3B 1H4",
                        "locality": "Montreal",
                        "postcode": "H3B 1H4",
                        "region": "QC"
                  },
                  "name": "Reuben's Deli",
                  "popularity": 0.9828136828160484,
                  "price": 2,
                  "rating": 8.6
            },
            {
                  "distance": 944,
                  "location": {
                        "address": "73 Prince Arthur Rue E",
                        "country": "CA",
                        "cross_street": "Coloniale",
                        "formatted_address": "73 Prince Arthur Rue E (Coloniale), Montr\u00e9al QC H2X 1B4",
                        "locality": "Montreal",
                        "postcode": "H2X 1B4",
                        "region": "QC"
                  },
                  "name": "Arepera",
                  "popularity": 0.925730980317941,
                  "price": 1,
                  "rating": 8.5
            },
            {
                  "distance": 853,
                  "location": {
                        "address": "2175 rue de la Montagne",
                        "address_extended": "# 100",
                        "country": "CA",
                        "cross_street": "",
                        "formatted_address": "2175 rue de la Montagne, Montr\u00e9al QC H3G 1Z8",
                        "locality": "Montreal",
                        "postcode": "H3G 1Z8",
                        "region": "QC"
                  },
                  "name": "Bar Cloakroom",
                  "popularity": 0.9470216691900075,
                  "price": 3,
                  "rating": 8.5
            },
            {
                  "distance": 910,
                  "location": {
                        "address": "1224 Drummond Rue",
                        "country": "CA",
                        "cross_street": "",
                        "formatted_address": "1224 Drummond Rue, Montr\u00e9al QC H3G 1V7",
                        "locality": "Montreal",
                        "postcode": "H3G 1V7",
                        "region": "QC"
                  },
                  "name": "Restaurant Medusa",
                  "popularity": 0.9541895344436033,
                  "price": 2,
                  "rating": 8.3
            },
            {
                  "distance": 839,
                  "location": {
                        "address": "3600 Saint-Laurent Blvd",
                        "address_extended": "coin Prince-Arthur",
                        "country": "CA",
                        "cross_street": "coin Prince-Arthur",
                        "formatted_address": "3600 Saint-Laurent Blvd (coin Prince-Arthur), Montr\u00e9al QC H2X 2V4",
                        "locality": "Montreal",
                        "postcode": "H2X 2V4",
                        "region": "QC"
                  },
                  "name": "Juliette et Chocolat",
                  "popularity": 0.971304882664648,
                  "price": 2,
                  "rating": 8.2
            },
            {
                  "distance": 659,
                  "location": {
                        "address": "51 Sherbrooke Rue O",
                        "country": "CA",
                        "cross_street": "coin Clark",
                        "formatted_address": "51 Sherbrooke Rue O (coin Clark), Montr\u00e9al QC H2X 1X2",
                        "locality": "Montreal",
                        "postcode": "H2X 1X2",
                        "region": "QC"
                  },
                  "name": "Caf\u00e9 OSMO",
                  "popularity": 0.9720027441332324,
                  "price": 1,
                  "rating": 8.2
            },
            {
                  "distance": 1008,
                  "location": {
                        "address": "2020 Crescent Rue",
                        "address_extended": "coin Maisonneuve",
                        "country": "CA",
                        "cross_street": "coin Maisonneuve",
                        "formatted_address": "2020 Crescent Rue (coin Maisonneuve), Montr\u00e9al QC H3G 2B8",
                        "locality": "Montreal",
                        "postcode": "H3G 2B8",
                        "region": "QC"
                  },
                  "name": "Restaurant Boustan",
                  "popularity": 0.9724049015897047,
                  "price": 1,
                  "rating": 8.2
            },
            {
                  "distance": 396,
                  "location": {
                        "address": "245 Sherbrooke Rue O",
                        "country": "CA",
                        "cross_street": "coin Jeanne-Mance",
                        "formatted_address": "245 Sherbrooke Rue O (coin Jeanne-Mance), Montr\u00e9al QC H2X 1X7",
                        "locality": "Montreal",
                        "postcode": "H2X 1X7",
                        "region": "QC"
                  },
                  "name": "Benelux",
                  "popularity": 0.9719790878122634,
                  "price": 1,
                  "rating": 8.2
            },
            {
                  "distance": 601,
                  "location": {
                        "address": "150 St Catherine Rue W",
                        "address_extended": "Room 201C",
                        "country": "CA",
                        "cross_street": "",
                        "formatted_address": "150 St Catherine Rue W, Montr\u00e9al QC H2X 3Y2",
                        "locality": "Montreal",
                        "postcode": "H2X 3Y2",
                        "region": "QC"
                  },
                  "name": "La Cage",
                  "popularity": 0.9884202308856926,
                  "price": 2,
                  "rating": 8.2,
                  "store_id": "LC_08"
            },
            {
                  "distance": 793,
                  "location": {
                        "address": "3515 Saint-Laurent Blvd",
                        "country": "CA",
                        "cross_street": "entre Sherbrooke & Prince-Arthur",
                        "formatted_address": "3515 Saint-Laurent Blvd (entre Sherbrooke & Prince-Arthur), Montr\u00e9al QC H2X 2T6",
                        "locality": "Montreal",
                        "postcode": "H2X 2T6",
                        "region": "QC"
                  },
                  "name": "McKibbin's Irish Pub",
                  "popularity": 0.9739189061317184,
                  "price": 2,
                  "rating": 8.2
            },
            {
                  "distance": 641,
                  "location": {
                        "address": "1472 Peel Rue",
                        "country": "CA",
                        "cross_street": "coin De Maisonneuve",
                        "formatted_address": "1472 Peel Rue (coin De Maisonneuve), Montr\u00e9al QC H3A 1S8",
                        "locality": "Montreal",
                        "postcode": "H3A 1S8",
                        "region": "QC"
                  },
                  "name": "Cafe Vasco Da Gama",
                  "popularity": 0.9501561317183952,
                  "price": 2,
                  "rating": 8.2
            },
            {
                  "distance": 744,
                  "location": {
                        "address": "1579 Saint-Laurent Blvd",
                        "country": "CA",
                        "cross_street": "",
                        "formatted_address": "1579 Saint-Laurent Blvd, Montr\u00e9al QC H2X 2S9",
                        "locality": "Montreal",
                        "postcode": "H2X 2S9",
                        "region": "QC"
                  },
                  "name": "Bar Pamplemousse",
                  "popularity": 0.9600563020439061,
                  "rating": 8.1
            },
            {
                  "distance": 482,
                  "location": {
                        "address": "1250 Robert-Bourassa Blvd",
                        "country": "CA",
                        "cross_street": "",
                        "formatted_address": "1250 Robert-Bourassa Blvd, Montr\u00e9al QC H3B 3B8",
                        "locality": "Montreal",
                        "postcode": "H3B 3B8",
                        "region": "QC"
                  },
                  "name": "Le East",
                  "popularity": 0.9653316616199848,
                  "price": 2,
                  "rating": 8.1
            },
            {
                  "distance": 698,
                  "location": {
                        "address": "1080 Rue de Bleury",
                        "country": "CA",
                        "cross_street": "",
                        "formatted_address": "1080 Rue de Bleury, Montr\u00e9al QC H2Z 1N2",
                        "locality": "Montreal",
                        "postcode": "H2Z 1N2",
                        "region": "QC"
                  },
                  "name": "Chifa",
                  "popularity": 0.9603165215745647,
                  "price": 2,
                  "rating": 8.0
            },
            {
                  "distance": 481,
                  "location": {
                        "address": "732 Sainte-Catherine Rue O",
                        "country": "CA",
                        "cross_street": "McGill Av.",
                        "formatted_address": "732 Sainte-Catherine Rue O (McGill Av.), Montr\u00e9al QC H3B 1B9",
                        "locality": "Montreal",
                        "postcode": "H3B 1B9",
                        "region": "QC"
                  },
                  "name": "Les 3 Brasseurs",
                  "popularity": 0.9831566994700984,
                  "price": 2,
                  "rating": 8.0
            },
            {
                  "distance": 962,
                  "location": {
                        "address": "1018 Saint-Urbain Rue",
                        "country": "CA",
                        "cross_street": "coin De la Gaucheti\u00e8re",
                        "formatted_address": "1018 Saint-Urbain Rue (coin De la Gaucheti\u00e8re), Montr\u00e9al QC H2Z 1K6",
                        "locality": "Montreal",
                        "postcode": "H2Z 1K6",
                        "region": "QC"
                  },
                  "name": "Noodle Factory",
                  "popularity": 0.9307106358819076,
                  "price": 2,
                  "rating": 7.9
            },
            {
                  "distance": 809,
                  "location": {
                        "address": "20 Prince-Arthur Rue O",
                        "country": "CA",
                        "cross_street": "coin Saint-Laurent",
                        "formatted_address": "20 Prince-Arthur Rue O (coin Saint-Laurent), Montr\u00e9al QC H2X 1S3",
                        "locality": "Montreal",
                        "postcode": "H2X 1S3",
                        "region": "QC"
                  },
                  "name": "Ye Olde Orchard Pub & Grill",
                  "popularity": 0.9363171839515518,
                  "price": 2,
                  "rating": 7.8
            },
            {
                  "distance": 984,
                  "location": {
                        "address": "1221 Rene-Levesque Blvd O",
                        "country": "CA",
                        "cross_street": "coin Drummond",
                        "formatted_address": "1221 Rene-Levesque Blvd O (coin Drummond), Montr\u00e9al QC H3G 1T1",
                        "locality": "Montreal",
                        "postcode": "H3G 1T1",
                        "region": "QC"
                  },
                  "name": "Bier Markt",
                  "popularity": 0.9826244322482968,
                  "price": 2,
                  "rating": 7.7,
                  "store_id": "4862"
            },
            {
                  "distance": 1006,
                  "location": {
                        "address": "360 Saint-Antoine Rue O",
                        "country": "CA",
                        "cross_street": "Rue Saint Pierre",
                        "formatted_address": "360 Saint-Antoine Rue O (Rue Saint Pierre), Montreal QC H2Y 3X4",
                        "locality": "Montreal",
                        "postcode": "H2Y 3X4",
                        "region": "QC"
                  },
                  "name": "Sarah B. Bar Absinthe",
                  "popularity": 0.9571229182437547,
                  "price": 2,
                  "rating": 7.7
            },
            {
                  "distance": 457,
                  "location": {
                        "address": "224 Milton Rue",
                        "country": "CA",
                        "cross_street": "",
                        "formatted_address": "224 Milton Rue, Montr\u00e9al QC H2X 1V6",
                        "locality": "Montreal",
                        "postcode": "H2X 1V6",
                        "region": "QC"
                  },
                  "name": "Mae Sri Comptoir Thai",
                  "popularity": 0.9586132664647994,
                  "price": 2,
                  "rating": 7.7
            },
            {
                  "distance": 826,
                  "location": {
                        "address": "1198 Sainte-Catherine Rue O",
                        "country": "CA",
                        "formatted_address": "1198 Sainte-Catherine Rue O, Montr\u00e9al QC H3B 1K1",
                        "locality": "Montreal",
                        "postcode": "H3B 1K1",
                        "region": "QC"
                  },
                  "name": "Mister Steer Restaurant",
                  "popularity": 0.9775974640423921,
                  "price": 1,
                  "rating": 7.7
            },
            {
                  "distance": 614,
                  "location": {
                        "address": "1 Ville-Marie Pl",
                        "country": "CA",
                        "cross_street": "Robert-Bourassa",
                        "formatted_address": "1 Ville-Marie Pl (Robert-Bourassa), Montr\u00e9al QC H3B 2C4",
                        "locality": "Montreal",
                        "postcode": "H3B 2C4",
                        "region": "QC"
                  },
                  "name": "Les Enfants Terribles",
                  "popularity": 0.9822814155942468,
                  "price": 3,
                  "rating": 7.7
            },
            {
                  "distance": 652,
                  "location": {
                        "address": "1249 Metcalfe Rue",
                        "country": "CA",
                        "cross_street": "entre Sainte-Catherine Ouest et Square Dorchester",
                        "formatted_address": "1249 Metcalfe Rue (entre Sainte-Catherine Ouest et Square Dorchester), Montr\u00e9al QC H3B 2V5",
                        "locality": "Montreal",
                        "postcode": "H3B 2V5",
                        "region": "QC"
                  },
                  "name": "Dunn's Famous",
                  "popularity": 0.9749716124148372,
                  "price": 2,
                  "rating": 7.6
            },
            {
                  "distance": 806,
                  "location": {
                        "address": "1230 Blvd de Maisonneuve Ouest",
                        "country": "CA",
                        "cross_street": "coin Drummond",
                        "formatted_address": "1230 Blvd de Maisonneuve Ouest (coin Drummond), Montreal QC H3G 1M2",
                        "locality": "Montreal",
                        "postcode": "H3G 1M2",
                        "region": "QC"
                  },
                  "name": "Le Pois Pench\u00e9",
                  "popularity": 0.9493873012869039,
                  "price": 4,
                  "rating": 7.6
            },
            {
                  "distance": 742,
                  "location": {
                        "address": "1210 Peel Rue",
                        "country": "CA",
                        "cross_street": "btwn Ste-Catherine & Cypress",
                        "formatted_address": "1210 Peel Rue (btwn Ste-Catherine & Cypress), Montr\u00e9al QC H3B 2T6",
                        "locality": "Montreal",
                        "postcode": "H3B 2T6",
                        "region": "QC"
                  },
                  "name": "McLean's Pub",
                  "popularity": 0.9849190953822862,
                  "price": 1,
                  "rating": 7.5
            },
            {
                  "distance": 527,
                  "location": {
                        "address": "1251 McGill College Ave",
                        "country": "CA",
                        "cross_street": "Rue Sainte-Catherine O",
                        "formatted_address": "1251 McGill College Ave (Rue Sainte-Catherine O), Montr\u00e9al QC H3B 2Y4",
                        "locality": "Montreal",
                        "postcode": "H3B 2Y4",
                        "region": "QC"
                  },
                  "name": "Enoteca Monza Pizzeria Moderna",
                  "popularity": 0.9676736373959122,
                  "price": 2,
                  "rating": 7.5
            },
            {
                  "distance": 896,
                  "location": {
                        "address": "1111 Saint-Urbain Rue",
                        "address_extended": "M05",
                        "country": "CA",
                        "cross_street": "coin Ren\u00e9-Levesque",
                        "formatted_address": "1111 Saint-Urbain Rue (coin Ren\u00e9-Levesque), Montr\u00e9al QC H2Z 1Y6",
                        "locality": "Montreal",
                        "postcode": "H2Z 1Y6",
                        "region": "QC"
                  },
                  "name": "Maison Kam Fung",
                  "popularity": 0.9822695874337622,
                  "price": 2,
                  "rating": 7.5
            }
      ],
      "context": {
            "geo_bounds": {
                  "circle": {
                        "center": {
                              "latitude": 45.50629457,
                              "longitude": -73.57282698
                        },
                        "radius": 1000
                  }
            }
      }
}