{
      "results": [
            {
                  "distance": 592,
                  "location": {
                        "address": "880 Jarry Rue O",
                        "country": "CA",
                        "cross_street": "Wiseman",
                        "formatted_address": "880 Jarry Rue O (Wiseman), Montr\u00e9al QC H3N 1G9",
                        "locality": "Montreal",
                        "postcode": "H3N 1G9",
                        "region": "QC"
                  },
                  "name": "Malhi Sweets Indian Cuisine",
                  "popularity": 0.9908686601059803,
                  "price": 2,
                  "rating": 8.5
            },
            {
                  "distance": 520,
                  "location": {
                        "address": "550 Jarry Rue O",
                        "country": "CA",
                        "cross_street": "Qurbes",
                        "formatted_address": "550 Jarry Rue O (Qurbes), Montr\u00e9al QC H3N 1E9",
                        "locality": "Montreal",
                        "postcode": "H3N 1E9",
                        "region": "QC"
                  },
                  "name": "Restaurant Elatos Souvlaki",
                  "popularity": 0.9974569454958365,
                  "price": 2,
                  "rating": 7.6
            },
            {
                  "distance": 908,
                  "location": {
                        "address": "8523 Saint-Laurent Blvd",
                        "country": "CA",
                        "cross_street": "",
                        "formatted_address": "8523 Saint-Laurent Blvd, Montr\u00e9al QC H2P 2M9",
                        "locality": "Montreal",
                        "postcode": "H2P 2M9",
                        "region": "QC"
                  },
                  "name": "Pho Express",
                  "popularity": 0.8575889477668432,
                  "price": 2,
                  "rating": 7.1
            },
            {
                  "distance": 883,
                  "location": {
                        "address": "55 Cremazie Blvd O",
                        "country": "CA",
                        "cross_street": "Boulevard St-Laurent",
                        "formatted_address": "55 Cremazie Blvd O (Boulevard St-Laurent), Montr\u00e9al QC H2N 1L3",
                        "locality": "Montreal",
                        "postcode": "H2N 1L3",
                        "region": "QC"
                  },
                  "name": "Burger King",
                  "popularity": 0.9704177706283119,
                  "price": 1,
                  "rating": 6.8,
                  "store_id": "7455"
            },
            {
                  "distance": 854,
                  "location": {
                        "address": "1000 Legendre Rue O",
                        "country": "CA",
                        "formatted_address": "1000 Legendre Rue O, Montr\u00e9al QC H4N 3L9",
                        "locality": "Montreal",
                        "postcode": "H4N 3L9",
                        "region": "QC"
                  },
                  "name": "Tim Hortons",
                  "popularity": 0.9945353898561695,
                  "price": 1,
                  "rating": 6.8
            },
            {
                  "distance": 737,
                  "location": {
                        "address": "2305 Rockland Ch",
                        "address_extended": "Centre Rockland",
                        "country": "CA",
                        "cross_street": "",
                        "formatted_address": "2305 Rockland Ch, Mont-Royal QC H3P 3E9",
                        "locality": "Mont-Royal",
                        "postcode": "H3P 3E9",
                        "region": "QC"
                  },
                  "name": "Thai Express",
                  "popularity": 0.8910271574564723,
                  "price": 2,
                  "rating": 6.4
            },
            {
                  "distance": 546,
                  "location": {
                        "address": "2305 Rockland Ch",
                        "country": "CA",
                        "cross_street": "",
                        "formatted_address": "2305 Rockland Ch, Montr\u00e9al QC H3P 2Z3",
                        "locality": "Montreal",
                        "postcode": "H3P 2Z3",
                        "region": "QC"
                  },
                  "name": "A&W Restaurant",
                  "popularity": 0.9187405374716124,
                  "price": 1,
                  "rating": 6.2,
                  "store_id": "5557"
            },
            {
                  "distance": 543,
                  "location": {
                        "address": "255 Cremazie Blvd O",
                        "country": "CA",
                        "formatted_address": "255 Cremazie Blvd O, Montr\u00e9al QC H2N 1L8",
                        "locality": "Montreal",
                        "postcode": "H2N 1L8",
                        "region": "QC"
                  },
                  "name": "Harvey's",
                  "popularity": 0.9109576078728236,
                  "price": 2,
                  "rating": 6.1,
                  "store_id": "2263"
            },
            {
                  "distance": 829,
                  "location": {
                        "address": "1010 Legendre Rue O",
                        "country": "CA",
                        "cross_street": "",
                        "formatted_address": "1010 Legendre Rue O, Montr\u00e9al QC H4N 3L9",
                        "locality": "Montreal",
                        "postcode": "H4N 3L9",
                        "region": "QC"
                  },
                  "name": "Dic Ann's",
                  "popularity": 0.9723694171082513,
                  "price": 1,
                  "rating": 6.0
            },
            {
                  "distance": 519,
                  "location": {
                        "address": "931 Cremazie Blvd O",
                        "country": "CA",
                        "formatted_address": "931 Cremazie Blvd O, Montr\u00e9al QC H4N 3M5",
                        "locality": "Montreal",
                        "postcode": "H4N 3M5",
                        "region": "QC"
                  },
                  "name": "Roasters Rotisserie & Bar",
                  "popularity": 0.9552658970476912,
                  "price": 3,
                  "rating": 5.9
            },
            {
                  "distance": 560,
                  "location": {
                        "address": "790 Jarry Rue O",
                        "country": "CA",
                        "cross_street": "",
                        "formatted_address": "790 Jarry Rue O, Montr\u00e9al QC H3N 1G6",
                        "locality": "Montreal",
                        "postcode": "H3N 1G6",
                        "region": "QC"
                  },
                  "name": "Dera Restaurant",
                  "popularity": 0.8873840840272521,
                  "price": 2,
                  "rating": 5.3
            },
            {
                  "distance": 774,
                  "location": {
                        "address": "115 Cremazie Blvd O",
                        "country": "CA",
                        "cross_street": "entre St-Urbain & De Reims",
                        "formatted_address": "115 Cremazie Blvd O (entre St-Urbain & De Reims), Montr\u00e9al QC H2N 1L4",
                        "locality": "Montreal",
                        "postcode": "H2N 1L4",
                        "region": "QC"
                  },
                  "name": "Tim Hortons",
                  "popularity": 0.9939203255109765,
                  "price": 1,
                  "rating": 5.1
            },
            {
                  "distance": 183,
                  "location": {
                        "address": "787A de Liege Rue O",
                        "country": "CA",
                        "cross_street": "",
                        "formatted_address": "787A de Liege Rue O, Montr\u00e9al QC H3N 1B1",
                        "locality": "Montreal",
                        "postcode": "H3N 1B1",
                        "region": "QC"
                  },
                  "name": "Cr\u00e8merie Meetha",
                  "popularity": 0.986929882664648,
                  "price": 1
            },
            {
                  "distance": 368,
                  "location": {
                        "address": "340 Bellarmin Rue",
                        "country": "CA",
                        "cross_street": "",
                        "formatted_address": "340 Bellarmin Rue, Montr\u00e9al QC H2P 1G5",
                        "locality": "Montreal",
                        "postcode": "H2P 1G5",
                        "region": "QC"
                  },
                  "name": "Chenail",
                  "popularity": 0.8327024981074943,
                  "price": 2
            },
            {
                  "distance": 543,
                  "location": {
                        "address": "6678B Tashereau",
                        "country": "CA",
                        "cross_street": "Lapiniere",
                        "formatted_address": "6678B Tashereau (Lapiniere), Brossard QC",
                        "locality": "Brossard",
                        "region": "QC"
                  },
                  "name": "Presse Caf\u00e9",
                  "popularity": 0.3338616578349735,
                  "price": 1
            },
            {
                  "distance": 548,
                  "location": {
                        "address": "2305 Rockland Ch",
                        "country": "CA",
                        "cross_street": "",
                        "formatted_address": "2305 Rockland Ch, Mont-Royal QC H3P 3E9",
                        "locality": "Mont-Royal",
                        "postcode": "H3P 3E9",
                        "region": "QC"
                  },
                  "name": "Fabrika Rockland",
                  "popularity": 0.7559140802422407,
                  "price": 1
            },
            {
                  "distance": 632,
                  "location": {
                        "address": "950 Jarry Rue O",
                        "country": "CA",
                        "cross_street": "Stuart",
                        "formatted_address": "950 Jarry Rue O (Stuart), Montr\u00e9al QC H3N 1H2",
                        "locality": "Montreal",
                        "postcode": "H3N 1H2",
                        "region": "QC"
                  },
                  "name": "Bar Caf\u00e9 Loutraki",
                  "popularity": 0.983736279333838
            },
            {
                  "distance": 805,
                  "location": {
                        "address": "8901\u20138999 Blvd de l'Acadie",
                        "country": "CA",
                        "cross_street": "March\u00e9 Central",
                        "formatted_address": "8901\u20138999 Blvd de l'Acadie (March\u00e9 Central), Montr\u00e9al QC H4N 3K1",
                        "locality": "Montreal",
                        "postcode": "H4N 3K1",
                        "region": "QC"
                  },
                  "name": "Green Cafe",
                  "popularity": 0.8339799394398183,
                  "price": 1
            },
            {
                  "distance": 839,
                  "location": {
                        "address": "2305 Rockland Ch",
                        "country": "CA",
                        "cross_street": "",
                        "formatted_address": "2305 Rockland Ch, Mont-Royal QC H3P 3E9",
                        "locality": "Mont-Royal",
                        "postcode": "H3P 3E9",
                        "region": "QC"
                  },
                  "name": "Pizzeria No. 900",
                  "popularity": 0.9685725775927327,
                  "price": 1
            },
            {
                  "distance": 854,
                  "location": {
                        "address": "352 Cure-Labelle Blvd",
                        "country": "CA",
                        "cross_street": "",
                        "formatted_address": "352 Cure-Labelle Blvd, Laval QC H7V 2S1",
                        "locality": "Laval",
                        "postcode": "H7V 2S1",
                        "region": "QC"
                  },
                  "name": "Marouch",
                  "popularity": 0.9162566237698713,
                  "price": 2
            },
            {
                  "distance": 902,
                  "location": {
                        "address": "8519 Saint-Laurent Blvd",
                        "country": "CA",
                        "cross_street": "Rue de Li\u00e8ge Est",
                        "formatted_address": "8519 Saint-Laurent Blvd (Rue de Li\u00e8ge Est), Montr\u00e9al QC H2P 2M9",
                        "locality": "Montreal",
                        "postcode": "H2P 2M9",
                        "region": "QC"
                  },
                  "name": "Sushi Saumon",
                  "popularity": 0.8595169379258137,
                  "price": 2
            },
            {
                  "distance": 924,
                  "location": {
                        "address": "8551 Saint-Laurent Blvd",
                        "country": "CA",
                        "cross_street": "",
                        "formatted_address": "8551 Saint-Laurent Blvd, Montreal QC H2P 2M9",
                        "locality": "Montreal",
                        "postcode": "H2P 2M9",
                        "region": "QC"
                  },
                  "name": "Restaurant la Goelette",
                  "popularity": 0.11648372445117336,
                  "price": 2
            },
            {
                  "distance": 98,
                  "location": {
                        "address": "695 rue de Li\u00e8ge O",
                        "country": "CA",
                        "formatted_address": "695 rue de Li\u00e8ge O, Montreal QC H3N 1A9",
                        "locality": "Montreal",
                        "postcode": "H3N 1A9",
                        "region": "QC"
                  },
                  "name": "Punjab Canteen"
            },
            {
                  "distance": 305,
                  "location": {
                        "address": "903 rue de Li\u00e8ge Ouest",
                        "country": "CA",
                        "formatted_address": "903 rue de Li\u00e8ge Ouest, Montreal QC H3N 1B5",
                        "locality": "Montreal",
                        "postcode": "H3N 1B5",
                        "region": "QC"
                  },
                  "name": "Cafe Martha"
            },
            {
                  "distance": 305,
                  "location": {
                        "address": "917 Rue de Li\u00e8ge Ouest",
                        "country": "CA",
                        "formatted_address": "917 Rue de Li\u00e8ge Ouest, Montreal QC H3N 1B5",
                        "locality": "Montreal",
                        "postcode": "H3N 1B5",
                        "region": "QC"
                  },
                  "name": "Boulangerie Arouch"
            },
            {
                  "distance": 538,
                  "location": {
                        "address": "550 Jarry Rue O",
                        "country": "CA",
                        "formatted_address": "550 Jarry Rue O, Montreal QC H3N 1E9",
                        "locality": "Montreal",
                        "postcode": "H3N 1E9",
                        "region": "QC"
                  },
                  "name": "Fameux Gyros Elatos"
            },
            {
                  "distance": 543,
                  "location": {
                        "address": "624 Jarry Rue O",
                        "country": "CA",
                        "formatted_address": "624 Jarry Rue O, Montreal QC H3N 1G2",
                        "locality": "Montreal",
                        "postcode": "H3N 1G2",
                        "region": "QC"
                  },
                  "name": "Central Sweets & Food-Hub"
            },
            {
                  "distance": 561,
                  "location": {
                        "address": "752 Jarry Rue W",
                        "country": "CA",
                        "formatted_address": "752 Jarry Rue W, Montreal QC H3N 1G6",
                        "locality": "Montreal",
                        "postcode": "H3N 1G6",
                        "region": "QC"
                  },
                  "name": "Royal Punjab"
            },
            {
                  "distance": 601,
                  "location": {
                        "address": "8855 Ave du Parc",
                        "country": "CA",
                        "formatted_address": "8855 Ave du Parc, Montreal QC H2N 1Y7",
                        "locality": "Montreal",
                        "postcode": "H2N 1Y7",
                        "region": "QC"
                  },
                  "name": "La Sandwicherie Zoe's"
            },
            {
                  "distance": 853,
                  "location": {
                        "address": "1000 Legendre Rue W",
                        "country": "CA",
                        "formatted_address": "1000 Legendre Rue W, Montreal QC H4N 3L9",
                        "locality": "Montreal",
                        "postcode": "H4N 3L9",
                        "region": "QC"
                  },
                  "name": "Krispy Kreme"
            },
            {
                  "distance": 910,
                  "location": {
                        "address": "2305 Rockland Ch",
                        "country": "CA",
                        "formatted_address": "2305 Rockland Ch, Mont-Royal QC H3P 3E9",
                        "locality": "Mont-Royal",
                        "postcode": "H3P 3E9",
                        "region": "QC"
                  },
                  "name": "Freedom Cafe"
            },
            {
                  "distance": 910,
                  "location": {
                        "address": "2305 Rockland Ch",
                        "country": "CA",
                        "formatted_address": "2305 Rockland Ch, Mont-Royal QC H3P 3E9",
                        "locality": "Mont-Royal",
                        "postcode": "H3P 3E9",
                        "region": "QC"
                  },
                  "name": "Grillaterie Bourbon Rockland Inc"
            },
            {
                  "distance": 910,
                  "location": {
                        "address": "2305 Rockland Ch",
                        "address_extended": "# 120",
                        "country": "CA",
                        "formatted_address": "2305 Rockland Ch, Mont-Royal QC H3P 3E9",
                        "locality": "Mont-Royal",
                        "postcode": "H3P 3E9",
                        "region": "QC"
                  },
                  "name": "Jardins des Salades"
            },
            {
                  "distance": 910,
                  "location": {
                        "address": "2305 Rockland Ch",
                        "country": "CA",
                        "formatted_address": "2305 Rockland Ch, Mont-Royal QC H3P 3E9",
                        "locality": "Mont-Royal",
                        "postcode": "H3P 3E9",
                        "region": "QC"
                  },
                  "name": "Depot Gelato Cafe"
            },
            {
                  "distance": 926,
                  "location": {
                        "address": "2305 Rockland Ch",
                        "country": "CA",
                        "formatted_address": "2305 Rockland Ch, Mont-Royal QC H3P 3E9",
                        "locality": "Mont-Royal",
                        "postcode": "H3P 3E9",
                        "region": "QC"
                  },
                  "name": "Cafe Depot Inc"
            }
      ],
      "context": {
            "geo_bounds": {
                  "circle": {
                        "center": {
                              "latitude": 45.5331893,
                              "longitude": -73.64188582
                        },
                        "radius": 1000
                  }
            }
      }
}