{
      "results": [
            {
                  "distance": 1000,
                  "location": {
                        "address": "6394 Sherbrooke Rue E",
                        "country": "CA",
                        "cross_street": "",
                        "formatted_address": "6394 Sherbrooke Rue E, Montr\u00e9al QC H1N 3P6",
                        "locality": "Montreal",
                        "postcode": "H1N 3P6",
                        "region": "QC"
                  },
                  "name": "Kazumi",
                  "popularity": 0.9112296555639667,
                  "price": 2,
                  "rating": 7.7
            },
            {
                  "distance": 580,
                  "location": {
                        "address": "5670 Sherbrooke Rue E",
                        "country": "CA",
                        "cross_street": "",
                        "formatted_address": "5670 Sherbrooke Rue E, Montr\u00e9al QC H1N 1A1",
                        "locality": "Montreal",
                        "postcode": "H1N 1A1",
                        "region": "QC"
                  },
                  "name": "Chez Cora",
                  "popularity": 0.9456732588947767,
                  "price": 1,
                  "rating": 7.2
            },
            {
                  "distance": 587,
                  "location": {
                        "address": "5666 Sherbrooke Rue E",
                        "country": "CA",
                        "cross_street": "",
                        "formatted_address": "5666 Sherbrooke Rue E, Montr\u00e9al QC H1N 1A1",
                        "locality": "Montreal",
                        "postcode": "H1N 1A1",
                        "region": "QC"
                  },
                  "name": "Beni Hana Cuisine Japonaise",
                  "popularity": 0.9583885314155942,
                  "price": 2,
                  "rating": 6.5
            },
            {
                  "distance": 637,
                  "location": {
                        "address": "5787 Sherbrooke Rue E",
                        "country": "CA",
                        "cross_street": "at rue Lacordaire",
                        "formatted_address": "5787 Sherbrooke Rue E (at rue Lacordaire), Montr\u00e9al QC H1N 3R5",
                        "locality": "Montreal",
                        "postcode": "H1N 3R5",
                        "region": "QC"
                  },
                  "name": "Casa Grecque",
                  "popularity": 0.9753146290688872,
                  "price": 2,
                  "rating": 6.5
            },
            {
                  "distance": 962,
                  "location": {
                        "address": "6361 Sherbrooke Rue E",
                        "country": "CA",
                        "cross_street": "",
                        "formatted_address": "6361 Sherbrooke Rue E, Montr\u00e9al QC H1N 1C4",
                        "locality": "Montreal",
                        "postcode": "H1N 1C4",
                        "region": "QC"
                  },
                  "name": "Restaurant le Gout de Thailand",
                  "popularity": 0.8454414269492808,
                  "price": 2,
                  "rating": 6.3
            },
            {
                  "distance": 875,
                  "location": {
                        "address": "6225 Sherbrooke Rue E",
                        "country": "CA",
                        "cross_street": "",
                        "formatted_address": "6225 Sherbrooke Rue E, Montr\u00e9al QC H1N 1C3",
                        "locality": "Montreal",
                        "postcode": "H1N 1C3",
                        "region": "QC"
                  },
                  "name": "R\u00f4tisserie St-Hubert",
                  "popularity": 0.9696371120363361,
                  "price": 2,
                  "rating": 6.2,
                  "store_id": "100090"
            },
            {
                  "distance": 984,
                  "location": {
                        "address": "6355 Sherbrooke St E",
                        "country": "CA",
                        "cross_street": "coin Carignan",
                        "formatted_address": "6355 Sherbrooke St E (coin Carignan), Montr\u00e9al QC H1N 1C4",
                        "locality": "Montreal",
                        "postcode": "H1N 1C4",
                        "region": "QC"
                  },
                  "name": "Subway",
                  "popularity": 0.9711984292202877,
                  "price": 1,
                  "rating": 6.2,
                  "store_id": "16551"
            },
            {
                  "distance": 736,
                  "location": {
                        "address": "5460 Sherbrooke Rue O",
                        "country": "CA",
                        "cross_street": "L'Assomption",
                        "formatted_address": "5460 Sherbrooke Rue O (L'Assomption), Montr\u00e9al QC H4A 1V9",
                        "locality": "Montreal",
                        "postcode": "H4A 1V9",
                        "region": "QC"
                  },
                  "name": "Au Vieux Duluth",
                  "popularity": 0.8967519871309614,
                  "price": 2,
                  "rating": 5.9
            },
            {
                  "distance": 625,
                  "location": {
                        "address": "5900 Sherbrooke Rue E",
                        "country": "CA",
                        "cross_street": "coin Bossuet",
                        "formatted_address": "5900 Sherbrooke Rue E (coin Bossuet), Montr\u00e9al QC H1N 1B5",
                        "locality": "Montreal",
                        "postcode": "H1N 1B5",
                        "region": "QC"
                  },
                  "name": "Tim Hortons",
                  "popularity": 0.9798329863739591,
                  "price": 1,
                  "rating": 5.9
            },
            {
                  "distance": 921,
                  "location": {
                        "address": "5222 Sherbrooke Rue E",
                        "country": "CA",
                        "formatted_address": "5222 Sherbrooke Rue E, Montr\u00e9al QC H1V 1A1",
                        "locality": "Montreal",
                        "postcode": "H1V 1A1",
                        "region": "QC"
                  },
                  "name": "Madisons Restaurant & Bar",
                  "popularity": 0.966171461014383,
                  "price": 2,
                  "rating": 5.8
            },
            {
                  "distance": 929,
                  "location": {
                        "address": "6348 Sherbrooke Rue E",
                        "country": "CA",
                        "cross_street": "De Carignan",
                        "formatted_address": "6348 Sherbrooke Rue E (De Carignan), Montr\u00e9al QC H1N 3P6",
                        "locality": "Montreal",
                        "postcode": "H1N 3P6",
                        "region": "QC"
                  },
                  "name": "Burger King",
                  "popularity": 0.9755393641180924,
                  "price": 1,
                  "rating": 5.3,
                  "store_id": "1886"
            },
            {
                  "distance": 376,
                  "location": {
                        "address": "5865 Hochelaga Rue",
                        "country": "CA",
                        "cross_street": "Louis-Veuillot",
                        "formatted_address": "5865 Hochelaga Rue (Louis-Veuillot), Montr\u00e9al QC H1N 1X2",
                        "locality": "Montreal",
                        "postcode": "H1N 1X2",
                        "region": "QC"
                  },
                  "name": "Soupe and Roll",
                  "popularity": 0.9531841408024224,
                  "price": 2
            },
            {
                  "distance": 550,
                  "location": {
                        "address": "6018 Hochelaga Rue",
                        "country": "CA",
                        "cross_street": "",
                        "formatted_address": "6018 Hochelaga Rue, Montr\u00e9al QC H1N 1X6",
                        "locality": "Montreal",
                        "postcode": "H1N 1X6",
                        "region": "QC"
                  },
                  "name": "Bar 3 Barils",
                  "popularity": 0.6373604277062831,
                  "price": 1
            },
            {
                  "distance": 570,
                  "location": {
                        "address": "5660 Sherbrooke Rue E",
                        "country": "CA",
                        "cross_street": "Dickson",
                        "formatted_address": "5660 Sherbrooke Rue E (Dickson), Montr\u00e9al QC H1N 1A1",
                        "locality": "Montreal",
                        "postcode": "H1N 1A1",
                        "region": "QC"
                  },
                  "name": "Enoteca Monza Pizzeria Moderna",
                  "popularity": 0.9203373391370174,
                  "price": 2
            },
            {
                  "distance": 570,
                  "location": {
                        "address": "6371 Sherbrooke Rue E",
                        "country": "CA",
                        "cross_street": "",
                        "formatted_address": "6371 Sherbrooke Rue E, Montr\u00e9al QC H1N 1C4",
                        "locality": "Montreal",
                        "postcode": "H1N 1C4",
                        "region": "QC"
                  },
                  "name": "Sherbrooke Pizza",
                  "popularity": 0.9260030280090841,
                  "price": 1
            },
            {
                  "distance": 630,
                  "location": {
                        "address": "5843 Sherbrooke Rue E",
                        "country": "CA",
                        "cross_street": "",
                        "formatted_address": "5843 Sherbrooke Rue E, Montreal QC H1N 1B3",
                        "locality": "Montreal",
                        "postcode": "H1N 1B3",
                        "region": "QC"
                  },
                  "name": "Sushi Chef",
                  "popularity": 0.9343891937925813,
                  "price": 2
            },
            {
                  "distance": 631,
                  "location": {
                        "address": "5849 Sherbrooke Rue E",
                        "country": "CA",
                        "cross_street": "",
                        "formatted_address": "5849 Sherbrooke Rue E, Montr\u00e9al QC H1N 1B6",
                        "locality": "Montreal",
                        "postcode": "H1N 1B6",
                        "region": "QC"
                  },
                  "name": "Restaurant Chez O",
                  "popularity": 0.9108866389099167,
                  "price": 2
            },
            {
                  "distance": 663,
                  "location": {
                        "address": "5960 Sherbrooke Rue E",
                        "country": "CA",
                        "cross_street": "",
                        "formatted_address": "5960 Sherbrooke Rue E, Montreal QC H1N 1B8",
                        "locality": "Montreal",
                        "postcode": "H1N 1B8",
                        "region": "QC"
                  },
                  "name": "Genki Sushi",
                  "popularity": 0.10825132475397427,
                  "price": 2
            },
            {
                  "distance": 684,
                  "location": {
                        "address": "6060 Sherbrooke Rue E",
                        "country": "CA",
                        "cross_street": "Duquesne",
                        "formatted_address": "6060 Sherbrooke Rue E (Duquesne), Montr\u00e9al QC H1N 1C1",
                        "locality": "Montreal",
                        "postcode": "H1N 1C1",
                        "region": "QC"
                  },
                  "name": "Globe Caf\u00e9 Bistro",
                  "popularity": 0.8291185654806964,
                  "price": 2
            },
            {
                  "distance": 825,
                  "location": {
                        "address": "6666 Rue de Marseille",
                        "country": "CA",
                        "cross_street": "langelier",
                        "formatted_address": "6666 Rue de Marseille (langelier), Montr\u00e9al QC H1N 1M3",
                        "locality": "Montreal",
                        "postcode": "H1N 1M3",
                        "region": "QC"
                  },
                  "name": "New Milano",
                  "popularity": 0.9698618470855412,
                  "price": 2
            },
            {
                  "distance": 933,
                  "location": {
                        "address": "6325 Sherbrooke Rue E",
                        "country": "CA",
                        "formatted_address": "6325 Sherbrooke Rue E, Montr\u00e9al QC H1N 1C3",
                        "locality": "Montreal",
                        "postcode": "H1N 1C3",
                        "region": "QC"
                  },
                  "name": "Bar El Cid",
                  "popularity": 0.9127909727479182
            },
            {
                  "distance": 938,
                  "location": {
                        "address": "6001 rue de Jumonville",
                        "country": "CA",
                        "cross_street": "",
                        "formatted_address": "6001 rue de Jumonville, Montr\u00e9al QC H1M 1R5",
                        "locality": "Montreal",
                        "postcode": "H1M 1R5",
                        "region": "QC"
                  },
                  "name": "Restaurant le Saint-Jacques",
                  "popularity": 0.8955573429220288,
                  "price": 2
            },
            {
                  "distance": 954,
                  "location": {
                        "address": "6343 Sherbrooke Rue E",
                        "country": "CA",
                        "cross_street": "",
                        "formatted_address": "6343 Sherbrooke Rue E, Montr\u00e9al QC H1N 1C3",
                        "locality": "Montreal",
                        "postcode": "H1N 1C3",
                        "region": "QC"
                  },
                  "name": "Ronde 1 Sushi",
                  "popularity": 0.868293433005299,
                  "price": 2
            },
            {
                  "distance": 968,
                  "location": {
                        "address": "6366 Sherbrooke Rue E",
                        "country": "CA",
                        "cross_street": "",
                        "formatted_address": "6366 Sherbrooke Rue E, Montr\u00e9al QC H1N 3P6",
                        "locality": "Montreal",
                        "postcode": "H1N 3P6",
                        "region": "QC"
                  },
                  "name": "Boustan",
                  "popularity": 0.8367950416351249,
                  "price": 2
            },
            {
                  "distance": 1086,
                  "location": {
                        "address": "6365 Sherbrooke Rue E",
                        "country": "CA",
                        "cross_street": "",
                        "formatted_address": "6365 Sherbrooke Rue E, Montr\u00e9al QC H1N 1C4",
                        "locality": "Montreal",
                        "postcode": "H1N 1C4",
                        "region": "QC"
                  },
                  "name": "Sake Sushi Express",
                  "popularity": 0.8375638720666162,
                  "price": 2
            },
            {
                  "distance": 1105,
                  "location": {
                        "address": "3175 Ave de Granby",
                        "address_extended": "Bureau 14",
                        "country": "CA",
                        "cross_street": "Btw rue de Marseille & Faribault",
                        "formatted_address": "3175 Ave de Granby (Btw rue de Marseille & Faribault), Montr\u00e9al QC H1N 2Z7",
                        "locality": "Montreal",
                        "postcode": "H1N 2Z7",
                        "region": "QC"
                  },
                  "name": "Aurora Brasserie",
                  "popularity": 0.9075747539742619,
                  "price": 3
            },
            {
                  "distance": 192,
                  "location": {
                        "address": "2896 Louis Veuillot Rue",
                        "country": "CA",
                        "formatted_address": "2896 Louis Veuillot Rue, Montreal QC H1N 2P6",
                        "locality": "Montreal",
                        "postcode": "H1N 2P6",
                        "region": "QC"
                  },
                  "name": "Shakir Indian Cuisine"
            },
            {
                  "distance": 509,
                  "location": {
                        "address": "6018 Hochelaga Rue",
                        "country": "CA",
                        "formatted_address": "6018 Hochelaga Rue, Montreal QC H1N 1X6",
                        "locality": "Montreal",
                        "postcode": "H1N 1X6",
                        "region": "QC"
                  },
                  "name": "Bar Aux Trois Barils"
            },
            {
                  "distance": 612,
                  "location": {
                        "address": "Sherbrooke St W",
                        "country": "CA",
                        "formatted_address": "Sherbrooke St W, Montreal QC",
                        "locality": "Montreal",
                        "region": "QC"
                  },
                  "name": "Jean's Trinidad Foods"
            },
            {
                  "distance": 617,
                  "location": {
                        "address": "5882 Sherbrooke Rue E",
                        "country": "CA",
                        "formatted_address": "5882 Sherbrooke Rue E, Montreal QC H1N 1B5",
                        "locality": "Montreal",
                        "postcode": "H1N 1B5",
                        "region": "QC"
                  },
                  "name": "La Belle Province 2000"
            },
            {
                  "distance": 659,
                  "location": {
                        "address": "5855 Sherbrooke Rue E",
                        "country": "CA",
                        "formatted_address": "5855 Sherbrooke Rue E, Montreal QC H1N 1B6",
                        "locality": "Montreal",
                        "postcode": "H1N 1B6",
                        "region": "QC"
                  },
                  "name": "Caf\u00e9 Lounge Cup of Life"
            },
            {
                  "distance": 690,
                  "location": {
                        "address": "5460 Sherbrooke Rue O",
                        "country": "CA",
                        "formatted_address": "5460 Sherbrooke Rue O, Montreal QC H4A 1V9",
                        "locality": "Montreal",
                        "postcode": "H4A 1V9",
                        "region": "QC"
                  },
                  "name": "Nickels Restaurant"
            },
            {
                  "distance": 778,
                  "location": {
                        "address": "6086 Sherbrooke Rue E",
                        "country": "CA",
                        "formatted_address": "6086 Sherbrooke Rue E, Montreal QC H1N 1C1",
                        "locality": "Montreal",
                        "postcode": "H1N 1C1",
                        "region": "QC"
                  },
                  "name": "Buffet Antique"
            },
            {
                  "distance": 924,
                  "location": {
                        "address": "5222 Sherbrooke Rue E",
                        "country": "CA",
                        "formatted_address": "5222 Sherbrooke Rue E, Montreal QC H1V 1A1",
                        "locality": "Montreal",
                        "postcode": "H1V 1A1",
                        "region": "QC"
                  },
                  "name": "BRGR&MAC Village-Olympique"
            },
            {
                  "distance": 938,
                  "location": {
                        "address": "5222 Sherbrooke Rue E",
                        "country": "CA",
                        "formatted_address": "5222 Sherbrooke Rue E, Montreal QC H1V 1A1",
                        "locality": "Montreal",
                        "postcode": "H1V 1A1",
                        "region": "QC"
                  },
                  "name": "Madisons N Y Bar & Grill"
            }
      ],
      "context": {
            "geo_bounds": {
                  "circle": {
                        "center": {
                              "latitude": 45.57179635,
                              "longitude": -73.54152024
                        },
                        "radius": 1000
                  }
            }
      }
}