{
      "results": [
            {
                  "distance": 526,
                  "location": {
                        "address": "1700 Ontario Rue E",
                        "country": "CA",
                        "cross_street": "coin Papineau",
                        "formatted_address": "1700 Ontario Rue E (coin Papineau), Montr\u00e9al QC H2L 1S7",
                        "locality": "Montreal",
                        "postcode": "H2L 1S7",
                        "region": "QC"
                  },
                  "name": "La Fabrique Arhoma",
                  "popularity": 0.953420704012112,
                  "price": 1,
                  "rating": 8.9
            },
            {
                  "distance": 950,
                  "location": {
                        "address": "1810 Ave du MONT-ROYAL Est",
                        "country": "CA",
                        "cross_street": "",
                        "formatted_address": "1810 Ave du MONT-ROYAL Est, Montr\u00e9al QC H2H 1J1",
                        "locality": "Montreal",
                        "postcode": "H2H 1J1",
                        "region": "QC"
                  },
                  "name": "Mr. Puffs",
                  "popularity": 0.9136307721423165,
                  "price": 1,
                  "rating": 8.8
            },
            {
                  "distance": 1000,
                  "location": {
                        "address": "2296 Ave du Mont Royal Est",
                        "country": "CA",
                        "cross_street": "",
                        "formatted_address": "2296 Ave du Mont Royal Est, Montr\u00e9al QC H2H 1K6",
                        "locality": "Montreal",
                        "postcode": "H2H 1K6",
                        "region": "QC"
                  },
                  "name": "Caf\u00e9 des Bois",
                  "popularity": 0.9125070968962907,
                  "price": 1,
                  "rating": 8.2
            },
            {
                  "distance": 949,
                  "location": {
                        "address": "2047 Ave du Mont-Royal Est",
                        "country": "CA",
                        "cross_street": "coin av. de Lorimier",
                        "formatted_address": "2047 Ave du Mont-Royal Est (coin av. de Lorimier), Montr\u00e9al QC H2H 1J7",
                        "locality": "Montreal",
                        "postcode": "H2H 1J7",
                        "region": "QC"
                  },
                  "name": "La Distillerie No2",
                  "popularity": 0.9543669568508706,
                  "price": 2,
                  "rating": 8.0
            },
            {
                  "distance": 556,
                  "location": {
                        "address": "1690 Ontario Rue E",
                        "country": "CA",
                        "cross_street": "entre De Champlain & Papineau",
                        "formatted_address": "1690 Ontario Rue E (entre De Champlain & Papineau), Montr\u00e9al QC H2L 1S7",
                        "locality": "Montreal",
                        "postcode": "H2L 1S7",
                        "region": "QC"
                  },
                  "name": "Au Petit Extra",
                  "popularity": 0.9349924299772899,
                  "price": 4,
                  "rating": 7.9
            },
            {
                  "distance": 767,
                  "location": {
                        "address": "1365 Ontario Rue E",
                        "country": "CA",
                        "formatted_address": "1365 Ontario Rue E, Montr\u00e9al QC H2L 1S2",
                        "locality": "Montreal",
                        "postcode": "H2L 1S2",
                        "region": "QC"
                  },
                  "name": "Poutineville",
                  "popularity": 0.9661241483724451,
                  "price": 2,
                  "rating": 7.9
            },
            {
                  "distance": 962,
                  "location": {
                        "address": "1030 Cherrier Rue",
                        "country": "CA",
                        "cross_street": "at Parc-Lafontaine Ave.",
                        "formatted_address": "1030 Cherrier Rue (at Parc-Lafontaine Ave.), Montr\u00e9al QC H2L 1H9",
                        "locality": "Montreal",
                        "postcode": "H2L 1H9",
                        "region": "QC"
                  },
                  "name": "Bistro T\u00f4t ou Tard",
                  "popularity": 0.9615821347464042,
                  "price": 1,
                  "rating": 7.7
            },
            {
                  "distance": 639,
                  "location": {
                        "address": "2308 Ontario Rue E",
                        "country": "CA",
                        "cross_street": "",
                        "formatted_address": "2308 Ontario Rue E, Montr\u00e9al QC H2K 1W1",
                        "locality": "Montreal",
                        "postcode": "H2K 1W1",
                        "region": "QC"
                  },
                  "name": "Cr\u00e8merie Confiserie le Gourmandin",
                  "popularity": 0.8898679977289932,
                  "price": 1,
                  "rating": 7.4
            },
            {
                  "distance": 578,
                  "location": {
                        "address": "1652 Ontario Rue E",
                        "country": "CA",
                        "cross_street": "",
                        "formatted_address": "1652 Ontario Rue E, Montr\u00e9al QC H2L 1S7",
                        "locality": "Montreal",
                        "postcode": "H2L 1S7",
                        "region": "QC"
                  },
                  "name": "Dame Tartine D\u00e9jeuner et D\u00eener",
                  "popularity": 0.9304031037093111,
                  "price": 1,
                  "rating": 7.3
            },
            {
                  "distance": 936,
                  "location": {
                        "address": "2017 Ave du Mont-Royal Est",
                        "country": "CA",
                        "formatted_address": "2017 Ave du Mont-Royal Est, Montr\u00e9al QC H2H 1J7",
                        "locality": "Montreal",
                        "postcode": "H2H 1J7",
                        "region": "QC"
                  },
                  "name": "L'Oeufrier",
                  "popularity": 0.955360522331567,
                  "price": 1,
                  "rating": 7.2
            },
            {
                  "distance": 946,
                  "location": {
                        "address": "1875 Ave du Mont-Royal Est",
                        "country": "CA",
                        "cross_street": "coin Cartier",
                        "formatted_address": "1875 Ave du Mont-Royal Est (coin Cartier), Montr\u00e9al QC H2H 1J3",
                        "locality": "Montreal",
                        "postcode": "H2H 1J3",
                        "region": "QC"
                  },
                  "name": "Le Terminal",
                  "popularity": 0.9634036714610144,
                  "price": 2,
                  "rating": 7.1
            },
            {
                  "distance": 490,
                  "location": {
                        "address": "1851 Ontario Rue E",
                        "country": "CA",
                        "cross_street": "Rue Cartier",
                        "formatted_address": "1851 Ontario Rue E (Rue Cartier), Montr\u00e9al QC H2K 1T6",
                        "locality": "Montreal",
                        "postcode": "H2K 1T6",
                        "region": "QC"
                  },
                  "name": "A Quinta",
                  "popularity": 0.9652488644965935,
                  "price": 2,
                  "rating": 7.0
            },
            {
                  "distance": 945,
                  "location": {
                        "address": "1828 Ave du Mont-Royal Est",
                        "country": "CA",
                        "cross_street": "Papineau",
                        "formatted_address": "1828 Ave du Mont-Royal Est (Papineau), Montr\u00e9al QC H2H 1J1",
                        "locality": "Montreal",
                        "postcode": "H2H 1J1",
                        "region": "QC"
                  },
                  "name": "Caf\u00e9 Asia",
                  "popularity": 0.8551523467070401,
                  "price": 2,
                  "rating": 6.9
            },
            {
                  "distance": 993,
                  "location": {
                        "address": "1651 Mont Royal Ave E",
                        "country": "CA",
                        "cross_street": "",
                        "formatted_address": "1651 Mont Royal Ave E, Montr\u00e9al QC H2J 1Z5",
                        "locality": "Montreal",
                        "postcode": "H2J 1Z5",
                        "region": "QC"
                  },
                  "name": "A&W Restaurant",
                  "popularity": 0.9603638342165026,
                  "price": 1,
                  "rating": 6.9,
                  "store_id": "5549"
            },
            {
                  "distance": 940,
                  "location": {
                        "address": "2112 Ave du Mont-Royal Est",
                        "country": "CA",
                        "cross_street": "entre De Lorimier & Des \u00c9rables",
                        "formatted_address": "2112 Ave du Mont-Royal Est (entre De Lorimier & Des \u00c9rables), Montr\u00e9al QC H2H 1J8",
                        "locality": "Montreal",
                        "postcode": "H2H 1J8",
                        "region": "QC"
                  },
                  "name": "Verre Bouteille",
                  "popularity": 0.9396172407267221,
                  "price": 2,
                  "rating": 6.6
            },
            {
                  "distance": 965,
                  "location": {
                        "address": "1648 Ave du Mont-Royal Est",
                        "country": "CA",
                        "cross_street": "Marquette",
                        "formatted_address": "1648 Ave du Mont-Royal Est (Marquette), Montr\u00e9al QC H2J 1Z5",
                        "locality": "Montreal",
                        "postcode": "H2J 1Z5",
                        "region": "QC"
                  },
                  "name": "Second Cup",
                  "popularity": 0.8998154806964421,
                  "price": 1,
                  "rating": 6.4
            },
            {
                  "distance": 960,
                  "location": {
                        "address": "2033 Blvd de Maisonneuve Est Petro Canada",
                        "country": "CA",
                        "cross_street": "",
                        "formatted_address": "2033 Blvd de Maisonneuve Est Petro Canada, Montr\u00e9al QC H2K 4M2",
                        "locality": "Montreal",
                        "postcode": "H2K 4M2",
                        "region": "QC"
                  },
                  "name": "A&W Restaurant",
                  "popularity": 0.9394989591218774,
                  "price": 1,
                  "rating": 6.2,
                  "store_id": "5516"
            },
            {
                  "distance": 969,
                  "location": {
                        "address": "2155 Blvd de Maisonneuve Est",
                        "country": "CA",
                        "cross_street": "coin Delorimier",
                        "formatted_address": "2155 Blvd de Maisonneuve Est (coin Delorimier), Montr\u00e9al QC H2K 4S3",
                        "locality": "Montreal",
                        "postcode": "H2K 4S3",
                        "region": "QC"
                  },
                  "name": "Tim Hortons",
                  "popularity": 0.992631056018168,
                  "price": 1,
                  "rating": 6.1
            },
            {
                  "distance": 513,
                  "location": {
                        "address": "2010 Papineau Ave",
                        "country": "CA",
                        "cross_street": "coin Ontario",
                        "formatted_address": "2010 Papineau Ave (coin Ontario), Montr\u00e9al QC H2K 4J4",
                        "locality": "Montreal",
                        "postcode": "H2K 4J4",
                        "region": "QC"
                  },
                  "name": "McDonald's",
                  "popularity": 0.9692586109008327,
                  "price": 1,
                  "rating": 4.9,
                  "store_id": "23293"
            },
            {
                  "distance": 470,
                  "location": {
                        "address": "1560 Sherbrooke Rue E",
                        "country": "CA",
                        "cross_street": "",
                        "formatted_address": "1560 Sherbrooke Rue E, Montr\u00e9al QC H2L 4M1",
                        "locality": "Montreal",
                        "postcode": "H2L 4M1",
                        "region": "QC"
                  },
                  "name": "Br\u00fblerie St-Denis",
                  "popularity": 0.9073855034065103,
                  "price": 1
            },
            {
                  "distance": 477,
                  "location": {
                        "address": "2043 Parthenais Rue",
                        "country": "CA",
                        "cross_street": "Larivi\u00e8re",
                        "formatted_address": "2043 Parthenais Rue (Larivi\u00e8re), Montr\u00e9al QC H2K 3T1",
                        "locality": "Montreal",
                        "postcode": "H2K 3T1",
                        "region": "QC"
                  },
                  "name": "Cafeteria Nonnini",
                  "popularity": 0.9463238077214232,
                  "price": 1
            },
            {
                  "distance": 505,
                  "location": {
                        "address": "1821 Ontario Rue E",
                        "country": "CA",
                        "cross_street": "Goulet",
                        "formatted_address": "1821 Ontario Rue E (Goulet), Montr\u00e9al QC H2K 1T6",
                        "locality": "Montreal",
                        "postcode": "H2K 1T6",
                        "region": "QC"
                  },
                  "name": "Pizza City",
                  "popularity": 0.8540641559424679,
                  "price": 1
            },
            {
                  "distance": 734,
                  "location": {
                        "address": "1385 Ontario Rue E",
                        "country": "CA",
                        "cross_street": "",
                        "formatted_address": "1385 Ontario Rue E, Montr\u00e9al QC H2L 1S2",
                        "locality": "Montreal",
                        "postcode": "H2L 1S2",
                        "region": "QC"
                  },
                  "name": "Vegan Rapide - le Misanthrope",
                  "popularity": 0.8634438872066617,
                  "price": 2
            },
            {
                  "distance": 735,
                  "location": {
                        "address": "1351 Rachel Rue E",
                        "country": "CA",
                        "cross_street": "",
                        "formatted_address": "1351 Rachel Rue E, Montr\u00e9al QC H2J 2K2",
                        "locality": "Montreal",
                        "postcode": "H2J 2K2",
                        "region": "QC"
                  },
                  "name": "Les Tropiques",
                  "popularity": 0.9169544852384557,
                  "price": 1
            },
            {
                  "distance": 752,
                  "location": {
                        "address": "1382 Ontario Rue E",
                        "country": "CA",
                        "cross_street": "",
                        "formatted_address": "1382 Ontario Rue E, Montr\u00e9al QC H2L 1S1",
                        "locality": "Montreal",
                        "postcode": "H2L 1S1",
                        "region": "QC"
                  },
                  "name": "Patisserie L\u2019\u00e9claircie",
                  "popularity": 0.8501490348221045
            },
            {
                  "distance": 781,
                  "location": {
                        "address": "1345B Ontario Rue E",
                        "country": "CA",
                        "cross_street": "",
                        "formatted_address": "1345B Ontario Rue E, Montr\u00e9al QC H2L 1R8",
                        "locality": "Montreal",
                        "postcode": "H2L 1R8",
                        "region": "QC"
                  },
                  "name": "Usine Grecque",
                  "popularity": 0.8532361847085541,
                  "price": 2
            },
            {
                  "distance": 898,
                  "location": {
                        "address": "1201 Rachel Rue E",
                        "country": "CA",
                        "cross_street": "",
                        "formatted_address": "1201 Rachel Rue E, Montr\u00e9al QC H2J 2J8",
                        "locality": "Montreal",
                        "postcode": "H2J 2J8",
                        "region": "QC"
                  },
                  "name": "Le Petit Coin Dumpling",
                  "popularity": 0.9386946442089327,
                  "price": 1
            },
            {
                  "distance": 905,
                  "location": {
                        "address": "1271 Ontario Rue E",
                        "country": "CA",
                        "cross_street": "entre Beaudry & De la Visitation",
                        "formatted_address": "1271 Ontario Rue E (entre Beaudry & De la Visitation), Montr\u00e9al QC H2L 1R7",
                        "locality": "Montreal",
                        "postcode": "H2L 1R7",
                        "region": "QC"
                  },
                  "name": "Boulangerie Pain a Tartine",
                  "popularity": 0.870919284632854,
                  "price": 1
            },
            {
                  "distance": 936,
                  "location": {
                        "address": "1846 Ave du Mont-Royal E",
                        "country": "CA",
                        "cross_street": "",
                        "formatted_address": "1846 Ave du Mont-Royal E, Montreal QC H2H 1J1",
                        "locality": "Montreal",
                        "postcode": "H2H 1J1",
                        "region": "QC"
                  },
                  "name": "G&G Patisserie Gourmande",
                  "popularity": 0.7839704769114307,
                  "price": 1
            },
            {
                  "distance": 943,
                  "location": {
                        "address": "2101 Ave du Mont-Royal E",
                        "country": "CA",
                        "cross_street": "",
                        "formatted_address": "2101 Ave du Mont-Royal E, Montreal QC H2H 1J9",
                        "locality": "Montreal",
                        "postcode": "H2H 1J9",
                        "region": "QC"
                  },
                  "name": "Double Pizza",
                  "popularity": 0.9277062831188494,
                  "price": 1
            },
            {
                  "distance": 946,
                  "location": {
                        "address": "1856 Ave du Mont-Royal Est",
                        "country": "CA",
                        "cross_street": "Cartier",
                        "formatted_address": "1856 Ave du Mont-Royal Est (Cartier), Montr\u00e9al QC H2H 1J1",
                        "locality": "Montreal",
                        "postcode": "H2H 1J1",
                        "region": "QC"
                  },
                  "name": "Pizza Mega",
                  "popularity": 0.9378666729750189,
                  "price": 1
            },
            {
                  "distance": 972,
                  "location": {
                        "address": "2201 Ave du Mont-Royal Est",
                        "country": "CA",
                        "cross_street": "Parthenais",
                        "formatted_address": "2201 Ave du Mont-Royal Est (Parthenais), Montr\u00e9al QC H2H 1K5",
                        "locality": "Montreal",
                        "postcode": "H2H 1K5",
                        "region": "QC"
                  },
                  "name": "Jono Bar",
                  "popularity": 0.9322364685844058,
                  "price": 2
            },
            {
                  "distance": 979,
                  "location": {
                        "address": "1592 Ave du Mont-Royal E",
                        "country": "CA",
                        "cross_street": "",
                        "formatted_address": "1592 Ave du Mont-Royal E, Montr\u00e9al QC H2J 1Z2",
                        "locality": "Montreal",
                        "postcode": "H2J 1Z2",
                        "region": "QC"
                  },
                  "name": "Boulangerie \u00d4 Petit Paris",
                  "popularity": 0.929882664647994,
                  "price": 1
            },
            {
                  "distance": 985,
                  "location": {
                        "address": "2223 Mont Royal E",
                        "country": "CA",
                        "cross_street": "Messier",
                        "formatted_address": "2223 Mont Royal E (Messier), Montr\u00e9al QC H2H 1K5",
                        "locality": "Montreal",
                        "postcode": "H2H 1K5",
                        "region": "QC"
                  },
                  "name": "Haruko Sushi",
                  "popularity": 0.9534916729750189,
                  "price": 2
            },
            {
                  "distance": 1004,
                  "location": {
                        "address": "1550 Mont-Royal Ave E",
                        "country": "CA",
                        "cross_street": "rue Fabre",
                        "formatted_address": "1550 Mont-Royal Ave E (rue Fabre), Montr\u00e9al QC H2J 1Z2",
                        "locality": "Montreal",
                        "postcode": "H2J 1Z2",
                        "region": "QC"
                  },
                  "name": "Les Enfants du Rock MTL",
                  "popularity": 0.9432839704769115,
                  "price": 2
            }
      ],
      "context": {
            "geo_bounds": {
                  "circle": {
                        "center": {
                              "latitude": 45.52991432,
                              "longitude": -73.56302619
                        },
                        "radius": 1000
                  }
            }
      }
}