{
      "results": [
            {
                  "distance": 781,
                  "location": {
                        "address": "6531 Baldwin Ave",
                        "country": "CA",
                        "cross_street": "Chaumont",
                        "formatted_address": "6531 Baldwin Ave (Chaumont), Montr\u00e9al QC H1K 3C4",
                        "locality": "Montreal",
                        "postcode": "H1K 3C4",
                        "region": "QC"
                  },
                  "name": "Benny&Co",
                  "popularity": 0.961747728993187,
                  "price": 2,
                  "rating": 8.2,
                  "store_id": "BC_02"
            },
            {
                  "distance": 906,
                  "location": {
                        "address": "6270 Louis-H. Lafontaine Blvd",
                        "country": "CA",
                        "formatted_address": "6270 Louis-H. Lafontaine Blvd, Montr\u00e9al QC H1M 1S8",
                        "locality": "Montreal",
                        "postcode": "H1M 1S8",
                        "region": "QC"
                  },
                  "name": "Tim Hortons",
                  "popularity": 0.9908095193035579,
                  "price": 1,
                  "rating": 6.5
            },
            {
                  "distance": 803,
                  "location": {
                        "address": "6110 Louis-H.-La Fontaine Blvd",
                        "country": "CA",
                        "cross_street": "entre Des Roseraies & Beaubien",
                        "formatted_address": "6110 Louis-H.-La Fontaine Blvd (entre Des Roseraies & Beaubien), Montr\u00e9al QC H1M 1S8",
                        "locality": "Montreal",
                        "postcode": "H1M 1S8",
                        "region": "QC"
                  },
                  "name": "Dic Ann's Hamburgers",
                  "popularity": 0.9404097274791824,
                  "price": 1,
                  "rating": 6.4
            },
            {
                  "distance": 757,
                  "location": {
                        "address": "6740 Joseph-Renaud Blvd",
                        "country": "CA",
                        "cross_street": "",
                        "formatted_address": "6740 Joseph-Renaud Blvd, Anjou QC H1K 3V4",
                        "locality": "Anjou",
                        "postcode": "H1K 3V4",
                        "region": "QC"
                  },
                  "name": "Restaurant Memphis",
                  "popularity": 0.9430947199091597,
                  "price": 2
            },
            {
                  "distance": 842,
                  "location": {
                        "address": "6361 Roi Rene",
                        "country": "CA",
                        "cross_street": "",
                        "formatted_address": "6361 Roi Rene, Anjou QC",
                        "locality": "Anjou",
                        "region": "QC"
                  },
                  "name": "Restaurant Melina",
                  "popularity": 0.9668811506434519,
                  "price": 1
            },
            {
                  "distance": 879,
                  "location": {
                        "address": "8640 Chaumont Pl",
                        "country": "CA",
                        "cross_street": "",
                        "formatted_address": "8640 Chaumont Pl, Montreal QC H1K 1W5",
                        "locality": "Montreal",
                        "postcode": "H1K 1W5",
                        "region": "QC"
                  },
                  "name": "3 Coeurs",
                  "popularity": 0.9355246971990916,
                  "price": 2
            },
            {
                  "distance": 941,
                  "location": {
                        "address": "7950 Sherbrooke Rue E",
                        "country": "CA",
                        "cross_street": "\u00c0 l'int\u00e9rieur du m\u00e9tro Honor\u00e9-Beaugrand",
                        "formatted_address": "7950 Sherbrooke Rue E (\u00c0 l'int\u00e9rieur du m\u00e9tro Honor\u00e9-Beaugrand), Montr\u00e9al QC",
                        "locality": "Montreal",
                        "region": "QC"
                  },
                  "name": "Caf\u00e9 William Spartivento",
                  "popularity": 0.46740158970476914,
                  "price": 1
            },
            {
                  "distance": 971,
                  "location": {
                        "address": "8655 Sherbrooke Rue E",
                        "country": "CA",
                        "cross_street": "",
                        "formatted_address": "8655 Sherbrooke Rue E, Montr\u00e9al QC H1L 1B8",
                        "locality": "Montreal",
                        "postcode": "H1L 1B8",
                        "region": "QC"
                  },
                  "name": "Broadway Pizzeria",
                  "popularity": 0.8714278955336866,
                  "price": 1
            },
            {
                  "distance": 971,
                  "location": {
                        "address": "7880 Sherbrooke Rue E",
                        "country": "CA",
                        "cross_street": "",
                        "formatted_address": "7880 Sherbrooke Rue E, Montreal QC H1L 1A5",
                        "locality": "Montreal",
                        "postcode": "H1L 1A5",
                        "region": "QC"
                  },
                  "name": "Brasserie Champlain",
                  "popularity": 0.9256600113550341,
                  "price": 1
            },
            {
                  "distance": 1198,
                  "location": {
                        "address": "8622 Chaumont Ave",
                        "country": "CA",
                        "cross_street": "Roi-rene",
                        "formatted_address": "8622 Chaumont Ave (Roi-rene), Anjou QC H1K 1N2",
                        "locality": "Anjou",
                        "postcode": "H1K 1N2",
                        "region": "QC"
                  },
                  "name": "Kaido Resto Inc",
                  "popularity": 0.0572719530658592,
                  "price": 2
            },
            {
                  "distance": 629,
                  "location": {
                        "address": "5020 Saint-Donat Rue",
                        "country": "CA",
                        "formatted_address": "5020 Saint-Donat Rue, Montreal QC H1K 3N8",
                        "locality": "Montreal",
                        "postcode": "H1K 3N8",
                        "region": "QC"
                  },
                  "name": "Lakay"
            },
            {
                  "distance": 754,
                  "location": {
                        "address": "6700 Joseph Renaud Blvd",
                        "country": "CA",
                        "formatted_address": "6700 Joseph Renaud Blvd, Anjou QC H1K 3V4",
                        "locality": "Anjou",
                        "postcode": "H1K 3V4",
                        "region": "QC"
                  },
                  "name": "La Fraicheur Tropicale"
            },
            {
                  "distance": 830,
                  "location": {
                        "address": "6381 Roi-Rene Blvd",
                        "country": "CA",
                        "formatted_address": "6381 Roi-Rene Blvd, Anjou QC H1K 3G4",
                        "locality": "Anjou",
                        "postcode": "H1K 3G4",
                        "region": "QC"
                  },
                  "name": "Restaurant LuLu"
            },
            {
                  "distance": 836,
                  "location": {
                        "address": "6270 Louis-H.-Lafontaine Blvd",
                        "country": "CA",
                        "formatted_address": "6270 Louis-H.-Lafontaine Blvd, Anjou QC H1M 1S8",
                        "locality": "Anjou",
                        "postcode": "H1M 1S8",
                        "region": "QC"
                  },
                  "name": "Gestion Faucher Lambert 1985 Inc"
            },
            {
                  "distance": 873,
                  "location": {
                        "address": "8630 Ave de Chaumont",
                        "country": "CA",
                        "formatted_address": "8630 Ave de Chaumont, Anjou QC",
                        "locality": "Anjou",
                        "region": "QC"
                  },
                  "name": "Shockolat"
            },
            {
                  "distance": 889,
                  "location": {
                        "address": "8644 Ave de Chaumont",
                        "country": "CA",
                        "formatted_address": "8644 Ave de Chaumont, Anjou QC H1K 1N5",
                        "locality": "Anjou",
                        "postcode": "H1K 1N5",
                        "region": "QC"
                  },
                  "name": "Rose Caf\u00e9 Restaurant Patisserie"
            },
            {
                  "distance": 891,
                  "location": {
                        "address": "8640 Ave de Chaumont",
                        "country": "CA",
                        "formatted_address": "8640 Ave de Chaumont, Anjou QC H1K 1N5",
                        "locality": "Anjou",
                        "postcode": "H1K 1N5",
                        "region": "QC"
                  },
                  "name": "Restaurant Trois Coeurs Enr"
            },
            {
                  "distance": 891,
                  "location": {
                        "address": "8621 Ave de Chaumont",
                        "country": "CA",
                        "formatted_address": "8621 Ave de Chaumont, Anjou QC H1K 1N3",
                        "locality": "Anjou",
                        "postcode": "H1K 1N3",
                        "region": "QC"
                  },
                  "name": "Restaurant Chaumont"
            },
            {
                  "distance": 893,
                  "location": {
                        "address": "8652 Ave de Chaumont",
                        "country": "CA",
                        "formatted_address": "8652 Ave de Chaumont, Anjou QC H1K 1N5",
                        "locality": "Anjou",
                        "postcode": "H1K 1N5",
                        "region": "QC"
                  },
                  "name": "Resto Chair de Poule"
            },
            {
                  "distance": 959,
                  "location": {
                        "address": "8655 Sherbrooke Rue E",
                        "country": "CA",
                        "formatted_address": "8655 Sherbrooke Rue E, Montreal QC H1L 1B8",
                        "locality": "Montreal",
                        "postcode": "H1L 1B8",
                        "region": "QC"
                  },
                  "name": "Scores - Montr\u00e9al"
            }
      ],
      "context": {
            "geo_bounds": {
                  "circle": {
                        "center": {
                              "latitude": 45.6024865,
                              "longitude": -73.5432905
                        },
                        "radius": 1000
                  }
            }
      }
}