{
      "results": [
            {
                  "distance": 746,
                  "location": {
                        "address": "2373 Marcel-Laurin Blvd",
                        "country": "CA",
                        "cross_street": "Laval",
                        "formatted_address": "2373 Marcel-Laurin Blvd (Laval), Montr\u00e9al QC H4R 1K4",
                        "locality": "Montreal",
                        "postcode": "H4R 1K4",
                        "region": "QC"
                  },
                  "name": "Restaurant Daou",
                  "popularity": 0.9962623012869039,
                  "price": 2,
                  "rating": 8.7
            },
            {
                  "distance": 606,
                  "location": {
                        "address": "5560 Henri-Bourassa Blvd O",
                        "country": "CA",
                        "cross_street": "",
                        "formatted_address": "5560 Henri-Bourassa Blvd O, Montr\u00e9al QC H4R 0M6",
                        "locality": "Montreal",
                        "postcode": "H4R 0M6",
                        "region": "QC"
                  },
                  "name": "Premi\u00e8re Moisson",
                  "popularity": 0.9880772142316427,
                  "price": 1,
                  "rating": 8.5
            },
            {
                  "distance": 951,
                  "location": {
                        "address": "1625 Marcel-Laurin Blvd",
                        "country": "CA",
                        "cross_street": "",
                        "formatted_address": "1625 Marcel-Laurin Blvd, Saint-Laurent QC H4R 0B7",
                        "locality": "Saint-Laurent",
                        "postcode": "H4R 0B7",
                        "region": "QC"
                  },
                  "name": "Lylac",
                  "popularity": 0.9968182248296745,
                  "price": 1,
                  "rating": 8.5
            },
            {
                  "distance": 618,
                  "location": {
                        "address": "5540 Henri-Bourassa Blvd O",
                        "country": "CA",
                        "cross_street": "",
                        "formatted_address": "5540 Henri-Bourassa Blvd O, Montr\u00e9al QC H4R 0M6",
                        "locality": "Montreal",
                        "postcode": "H4R 0M6",
                        "region": "QC"
                  },
                  "name": "Chocolats Favoris",
                  "popularity": 0.9551239591218774,
                  "price": 1,
                  "rating": 7.4
            },
            {
                  "distance": 912,
                  "location": {
                        "address": "1555 Marcel-Laurin Blvd",
                        "country": "CA",
                        "formatted_address": "1555 Marcel-Laurin Blvd, Saint-Laurent QC H4R 0B7",
                        "locality": "Saint-Laurent",
                        "postcode": "H4R 0B7",
                        "region": "QC"
                  },
                  "name": "Second Cup CAF\u00c9 & Cie",
                  "popularity": 0.9503690386071159,
                  "price": 1,
                  "rating": 7.2
            },
            {
                  "distance": 320,
                  "location": {
                        "address": "2525 des Nations",
                        "country": "CA",
                        "cross_street": "Boul Poirier",
                        "formatted_address": "2525 des Nations (Boul Poirier), Montreal QC",
                        "locality": "Montreal",
                        "region": "QC"
                  },
                  "name": "Challenger la Piazza",
                  "popularity": 0.9462291824375473,
                  "price": 2,
                  "rating": 7.0
            },
            {
                  "distance": 307,
                  "location": {
                        "address": "2505 des Nations Rue",
                        "address_extended": "Bombardier",
                        "country": "CA",
                        "cross_street": "at Bois Franc",
                        "formatted_address": "2505 des Nations Rue (at Bois Franc), Saint-Laurent QC H4R 3C8",
                        "locality": "Saint-Laurent",
                        "postcode": "H4R 3C8",
                        "region": "QC"
                  },
                  "name": "Caf\u00e9 D\u00e9p\u00f4t",
                  "popularity": 0.983712623012869,
                  "price": 1,
                  "rating": 6.9
            },
            {
                  "distance": 640,
                  "location": {
                        "address": "Complexe Challenger",
                        "address_extended": "Bldg. 5",
                        "country": "CA",
                        "cross_street": "",
                        "formatted_address": "Complexe Challenger, Saint-Laurent QC H4R 1V9",
                        "locality": "Saint-Laurent",
                        "postcode": "H4R 1V9",
                        "region": "QC"
                  },
                  "name": "Subway",
                  "popularity": 0.8905540310370931,
                  "price": 1,
                  "rating": 6.4,
                  "store_id": "57460"
            },
            {
                  "distance": 668,
                  "location": {
                        "address": "5510 Henri Bourassa Blvd O",
                        "country": "CA",
                        "cross_street": "Rue Wilfrid-Reid",
                        "formatted_address": "5510 Henri Bourassa Blvd O (Rue Wilfrid-Reid), Montr\u00e9al QC H4R 0M6",
                        "locality": "Montreal",
                        "postcode": "H4R 0M6",
                        "region": "QC"
                  },
                  "name": "Pizza Pizza",
                  "popularity": 0.9099758705526116,
                  "price": 1,
                  "rating": 6.2,
                  "store_id": "325"
            },
            {
                  "distance": 725,
                  "location": {
                        "address": "1997 Marcel-Laurin Blvd",
                        "country": "CA",
                        "cross_street": "",
                        "formatted_address": "1997 Marcel-Laurin Blvd, Saint-Laurent QC H4R 1K4",
                        "locality": "Saint-Laurent",
                        "postcode": "H4R 1K4",
                        "region": "QC"
                  },
                  "name": "Restaurant Au Vieux Duluth",
                  "popularity": 0.9025714420893263,
                  "price": 2,
                  "rating": 5.9
            },
            {
                  "distance": 791,
                  "location": {
                        "address": "1995 Marcel-Laurin Blvd",
                        "country": "CA",
                        "cross_street": "Poirier",
                        "formatted_address": "1995 Marcel-Laurin Blvd (Poirier), Saint-Laurent QC H4R 1K4",
                        "locality": "Saint-Laurent",
                        "postcode": "H4R 1K4",
                        "region": "QC"
                  },
                  "name": "Thai Express",
                  "popularity": 0.8191237698713096,
                  "price": 2,
                  "rating": 5.8,
                  "store_id": "95"
            },
            {
                  "distance": 760,
                  "location": {
                        "address": "2323 Marcel-Laurin Blvd",
                        "country": "CA",
                        "cross_street": "",
                        "formatted_address": "2323 Marcel-Laurin Blvd, Saint-Laurent QC H4R 1K4",
                        "locality": "Saint-Laurent",
                        "postcode": "H4R 1K4",
                        "region": "QC"
                  },
                  "name": "Tim Hortons",
                  "popularity": 0.9874621498864496,
                  "price": 1,
                  "rating": 5.4
            },
            {
                  "distance": 776,
                  "location": {
                        "address": "1991 Marcel-Laurin Blvd",
                        "country": "CA",
                        "cross_street": "",
                        "formatted_address": "1991 Marcel-Laurin Blvd, Saint-Laurent QC H4R 1K4",
                        "locality": "Saint-Laurent",
                        "postcode": "H4R 1K4",
                        "region": "QC"
                  },
                  "name": "Nickels Deli - Saint-Laurent",
                  "popularity": 0.9041564155942468,
                  "price": 2,
                  "rating": 5.3
            },
            {
                  "distance": 628,
                  "location": {
                        "address": "5516 Henri-Bourassa Blvd O",
                        "country": "CA",
                        "cross_street": "",
                        "formatted_address": "5516 Henri-Bourassa Blvd O, Saint-Laurent QC H4R 0M6",
                        "locality": "Saint-Laurent",
                        "postcode": "H4R 0M6",
                        "region": "QC"
                  },
                  "name": "Yuzu sushi",
                  "popularity": 0.8085493943981832,
                  "price": 2
            },
            {
                  "distance": 725,
                  "location": {
                        "address": "2135 Marcel Laurin Blvd",
                        "country": "CA",
                        "cross_street": "",
                        "formatted_address": "2135 Marcel Laurin Blvd, Montr\u00e9al QC H4R 1K4",
                        "locality": "Montreal",
                        "postcode": "H4R 1K4",
                        "region": "QC"
                  },
                  "name": "Hibi Korean BBQ",
                  "popularity": 0.36023845571536717,
                  "price": 2
            },
            {
                  "distance": 733,
                  "location": {
                        "address": "1995 Marcel-Laurin Blvd",
                        "country": "CA",
                        "cross_street": "",
                        "formatted_address": "1995 Marcel-Laurin Blvd, Saint-Laurent QC H4R 1K4",
                        "locality": "Saint-Laurent",
                        "postcode": "H4R 1K4",
                        "region": "QC"
                  },
                  "name": "Villa Madina",
                  "popularity": 0.2170822293716881,
                  "price": 2
            },
            {
                  "distance": 742,
                  "location": {
                        "address": "5291 Henri-Bourassa Blvd O",
                        "country": "CA",
                        "formatted_address": "5291 Henri-Bourassa Blvd O, Saint-Laurent QC H4R 1B7",
                        "locality": "Saint-Laurent",
                        "postcode": "H4R 1B7",
                        "region": "QC"
                  },
                  "name": "Ristorante Vino Rosso",
                  "popularity": 0.9803770817562453,
                  "price": 3
            },
            {
                  "distance": 749,
                  "location": {
                        "address": "2245 Marcel-Laurin Blvd",
                        "address_extended": "Galeries St Laurent",
                        "country": "CA",
                        "formatted_address": "2245 Marcel-Laurin Blvd, Saint-Laurent QC H4R 1K4",
                        "locality": "Saint-Laurent",
                        "postcode": "H4R 1K4",
                        "region": "QC"
                  },
                  "name": "Sushi Shop",
                  "popularity": 0.9704414269492808,
                  "price": 2
            },
            {
                  "distance": 761,
                  "location": {
                        "address": "1709 Poirier Rue",
                        "country": "CA",
                        "cross_street": "",
                        "formatted_address": "1709 Poirier Rue, Saint-Laurent QC H4L 1J4",
                        "locality": "Saint-Laurent",
                        "postcode": "H4L 1J4",
                        "region": "QC"
                  },
                  "name": "Domino's Pizza",
                  "popularity": 0.9292794284632854,
                  "price": 1,
                  "store_id": "10722"
            },
            {
                  "distance": 815,
                  "location": {
                        "address": "1803 Poirier Rue",
                        "country": "CA",
                        "cross_street": "",
                        "formatted_address": "1803 Poirier Rue, Montr\u00e9al QC H4R 1K4",
                        "locality": "Montreal",
                        "postcode": "H4R 1K4",
                        "region": "QC"
                  },
                  "name": "Restaurant Miran",
                  "popularity": 0.8331164837244511,
                  "price": 2
            },
            {
                  "distance": 885,
                  "location": {
                        "address": "2500 des Nations Rue",
                        "country": "CA",
                        "cross_street": "",
                        "formatted_address": "2500 des Nations Rue, Montr\u00e9al QC H4R 3J9",
                        "locality": "Montreal",
                        "postcode": "H4R 3J9",
                        "region": "QC"
                  },
                  "name": "Nirvana Sushi",
                  "popularity": 0.8738763247539743,
                  "price": 2
            },
            {
                  "distance": 918,
                  "location": {
                        "address": "1720 d'Oxford Rue",
                        "country": "CA",
                        "formatted_address": "1720 d'Oxford Rue, Montr\u00e9al QC H4L 1B6",
                        "locality": "Montreal",
                        "postcode": "H4L 1B6",
                        "region": "QC"
                  },
                  "name": "Restaurant Tandoor Plus",
                  "popularity": 0.9103188872066617,
                  "price": 2
            },
            {
                  "distance": 921,
                  "location": {
                        "address": "1771 Grenet Rue",
                        "country": "CA",
                        "cross_street": "",
                        "formatted_address": "1771 Grenet Rue, Saint-Laurent QC H4L 2R6",
                        "locality": "Saint-Laurent",
                        "postcode": "H4L 2R6",
                        "region": "QC"
                  },
                  "name": "Restaurant Amara",
                  "popularity": 0.7435063398940197,
                  "price": 2
            },
            {
                  "distance": 956,
                  "location": {
                        "address": "1775 Grenet Rue",
                        "country": "CA",
                        "cross_street": "Poirier",
                        "formatted_address": "1775 Grenet Rue (Poirier), Cartierville QC H4L 2R6",
                        "locality": "Cartierville",
                        "postcode": "H4L 2R6",
                        "region": "QC"
                  },
                  "name": "Express Pizza & Poulet",
                  "popularity": 0.5642505677517032,
                  "price": 1
            },
            {
                  "distance": 351,
                  "location": {
                        "address": "2525 des Nations Rue",
                        "country": "CA",
                        "formatted_address": "2525 des Nations Rue, Saint-Laurent QC H4R 3C8",
                        "locality": "Saint-Laurent",
                        "postcode": "H4R 3C8",
                        "region": "QC"
                  },
                  "name": "Ristorante la Piazza"
            },
            {
                  "distance": 666,
                  "location": {
                        "address": "2167 Marcel Laurin Blvd",
                        "country": "CA",
                        "formatted_address": "2167 Marcel Laurin Blvd, Saint-Laurent QC H4R 1K4",
                        "locality": "Saint-Laurent",
                        "postcode": "H4R 1K4",
                        "region": "QC"
                  },
                  "name": "Cafe la Gourmandise"
            },
            {
                  "distance": 675,
                  "location": {
                        "address": "2245 Marcel-Laurin Blvd",
                        "country": "CA",
                        "formatted_address": "2245 Marcel-Laurin Blvd, Saint-Laurent QC H4R 1K4",
                        "locality": "Saint-Laurent",
                        "postcode": "H4R 1K4",
                        "region": "QC"
                  },
                  "name": "Sushi Shop Saint Laurent"
            },
            {
                  "distance": 698,
                  "location": {
                        "address": "5560 Henri-Bourassa Blvd O",
                        "country": "CA",
                        "formatted_address": "5560 Henri-Bourassa Blvd O, Saint-Laurent QC H4R 0M6",
                        "locality": "Saint-Laurent",
                        "postcode": "H4R 0M6",
                        "region": "QC"
                  },
                  "name": "Metro Richelieu Inc"
            },
            {
                  "distance": 707,
                  "location": {
                        "address": "1991 Marcel-Laurin Blvd",
                        "country": "CA",
                        "formatted_address": "1991 Marcel-Laurin Blvd, Saint-Laurent QC H4R 1K4",
                        "locality": "Saint-Laurent",
                        "postcode": "H4R 1K4",
                        "region": "QC"
                  },
                  "name": "Nickels Resto Bar St-Laurent"
            },
            {
                  "distance": 707,
                  "location": {
                        "address": "1991 Marcel-Laurin Blvd",
                        "country": "CA",
                        "formatted_address": "1991 Marcel-Laurin Blvd, Saint-Laurent QC",
                        "locality": "Saint-Laurent",
                        "region": "QC"
                  },
                  "name": "Nickels Deli & Grillade"
            },
            {
                  "distance": 758,
                  "location": {
                        "address": "2167 Marcel Laurin Blvd",
                        "country": "CA",
                        "formatted_address": "2167 Marcel Laurin Blvd, Montreal QC H4R 1K4",
                        "locality": "Montreal",
                        "postcode": "H4R 1K4",
                        "region": "QC"
                  },
                  "name": "Dagwoods"
            },
            {
                  "distance": 762,
                  "location": {
                        "address": "H4L MONTR\u00e9AL",
                        "country": "CA",
                        "formatted_address": "H4L MONTR\u00e9AL, Montreal QC",
                        "locality": "Montreal",
                        "region": "QC"
                  },
                  "name": "Restaurant Au Vieux Duluth"
            },
            {
                  "distance": 770,
                  "location": {
                        "address": "1991 Marcel-Laurin Blvd",
                        "country": "CA",
                        "formatted_address": "1991 Marcel-Laurin Blvd, Saint-Laurent QC H4R 1K4",
                        "locality": "Saint-Laurent",
                        "postcode": "H4R 1K4",
                        "region": "QC"
                  },
                  "name": "Nickels Deli & Bar"
            },
            {
                  "distance": 784,
                  "location": {
                        "address": "2015 Marcel-Laurin Blvd",
                        "country": "CA",
                        "formatted_address": "2015 Marcel-Laurin Blvd, Saint-Laurent QC H4R 1K4",
                        "locality": "Saint-Laurent",
                        "postcode": "H4R 1K4",
                        "region": "QC"
                  },
                  "name": "Dagwoods Sandwichs et Salades"
            },
            {
                  "distance": 827,
                  "location": {
                        "address": "5095 Henri Bourassa Blvd E",
                        "country": "CA",
                        "formatted_address": "5095 Henri Bourassa Blvd E, Saint-Laurent QC H4R 1B7",
                        "locality": "Saint-Laurent",
                        "postcode": "H4R 1B7",
                        "region": "QC"
                  },
                  "name": "Rainone Pizzeria"
            }
      ],
      "context": {
            "geo_bounds": {
                  "circle": {
                        "center": {
                              "latitude": 45.51431825,
                              "longitude": -73.70799825
                        },
                        "radius": 1000
                  }
            }
      }
}