{
      "results": [
            {
                  "distance": 841,
                  "location": {
                        "address": "343 Fleury Rue O",
                        "country": "CA",
                        "cross_street": "Jeanne-Mance",
                        "formatted_address": "343 Fleury Rue O (Jeanne-Mance), Montr\u00e9al QC H3L 1V5",
                        "locality": "Montreal",
                        "postcode": "H3L 1V5",
                        "region": "QC"
                  },
                  "name": "Le Br\u00fbloir",
                  "popularity": 0.9796673921271764,
                  "price": 1,
                  "rating": 8.0
            },
            {
                  "distance": 675,
                  "location": {
                        "address": "1465 Dudemaine Rue",
                        "country": "CA",
                        "cross_street": "",
                        "formatted_address": "1465 Dudemaine Rue, Montr\u00e9al QC H3M 1P9",
                        "locality": "Montreal",
                        "postcode": "H3M 1P9",
                        "region": "QC"
                  },
                  "name": "Sapori di Napoli",
                  "popularity": 0.9235309424678274,
                  "price": 2,
                  "rating": 7.5
            },
            {
                  "distance": 593,
                  "location": {
                        "address": "340 Henri-Bourassa Blvd O",
                        "country": "CA",
                        "cross_street": "Tanguay",
                        "formatted_address": "340 Henri-Bourassa Blvd O (Tanguay), Montr\u00e9al QC H3L 1P1",
                        "locality": "Montreal",
                        "postcode": "H3L 1P1",
                        "region": "QC"
                  },
                  "name": "Restaurant l'Oeuforie Matinale",
                  "popularity": 0.9501679598788796,
                  "price": 1,
                  "rating": 7.2
            },
            {
                  "distance": 250,
                  "location": {
                        "address": "1555 Henri-Bourassa Blvd O",
                        "country": "CA",
                        "cross_street": "",
                        "formatted_address": "1555 Henri-Bourassa Blvd O, Montr\u00e9al QC H3M 1X7",
                        "locality": "Montreal",
                        "postcode": "H3M 1X7",
                        "region": "QC"
                  },
                  "name": "Subway",
                  "popularity": 0.9349569454958365,
                  "price": 1,
                  "rating": 6.7
            },
            {
                  "distance": 946,
                  "location": {
                        "address": "1805 Sauve Rue O",
                        "address_extended": "Suite 101",
                        "country": "CA",
                        "cross_street": "",
                        "formatted_address": "1805 Sauve Rue O, Montr\u00e9al QC H4N 3B8",
                        "locality": "Montreal",
                        "postcode": "H4N 3B8",
                        "region": "QC"
                  },
                  "name": "Solemer",
                  "popularity": 0.9202072293716881,
                  "price": 3,
                  "rating": 6.2
            },
            {
                  "distance": 946,
                  "location": {
                        "address": "9901 Blvd de l'Acadie",
                        "country": "CA",
                        "cross_street": "",
                        "formatted_address": "9901 Blvd de l'Acadie, Montr\u00e9al QC H4N 3K3",
                        "locality": "Montreal",
                        "postcode": "H4N 3K3",
                        "region": "QC"
                  },
                  "name": "A&W Restaurant",
                  "popularity": 0.9576078728236185,
                  "price": 1,
                  "rating": 6.2,
                  "store_id": "5507"
            },
            {
                  "distance": 245,
                  "location": {
                        "address": "1530 Henri-Bourassa Blvd O",
                        "country": "CA",
                        "cross_street": "",
                        "formatted_address": "1530 Henri-Bourassa Blvd O, Montr\u00e9al QC H3M 3E3",
                        "locality": "Montreal",
                        "postcode": "H3M 3E3",
                        "region": "QC"
                  },
                  "name": "Restaurant le Coq La-La",
                  "popularity": 0.8126655942467828,
                  "price": 2
            },
            {
                  "distance": 674,
                  "location": {
                        "address": "1575 Dudemaine Rue",
                        "country": "CA",
                        "cross_street": "coin Bois-de-Boulogne",
                        "formatted_address": "1575 Dudemaine Rue (coin Bois-de-Boulogne), Montr\u00e9al QC H3M 1R2",
                        "locality": "Montreal",
                        "postcode": "H3M 1R2",
                        "region": "QC"
                  },
                  "name": "Restaurant Dima",
                  "popularity": 0.23692988266464798,
                  "price": 2
            },
            {
                  "distance": 938,
                  "location": {
                        "address": "196 Henri-Bourassa Blvd O",
                        "country": "CA",
                        "cross_street": "",
                        "formatted_address": "196 Henri-Bourassa Blvd O, Montr\u00e9al QC H3L 1N3",
                        "locality": "Montreal",
                        "postcode": "H3L 1N3",
                        "region": "QC"
                  },
                  "name": "Pizza Roni",
                  "popularity": 0.9674370741862226,
                  "price": 1
            },
            {
                  "distance": 223,
                  "location": {
                        "address": "1545 Henri-Bourassa Blvd O",
                        "country": "CA",
                        "formatted_address": "1545 Henri-Bourassa Blvd O, Montreal QC H3M 1X6",
                        "locality": "Montreal",
                        "postcode": "H3M 1X6",
                        "region": "QC"
                  },
                  "name": "Caf\u00e9 Noir"
            },
            {
                  "distance": 226,
                  "location": {
                        "address": "1545A Henri-Bourassa Blvd O",
                        "country": "CA",
                        "formatted_address": "1545A Henri-Bourassa Blvd O, Montreal QC H3M 1X6",
                        "locality": "Montreal",
                        "postcode": "H3M 1X6",
                        "region": "QC"
                  },
                  "name": "Rino Pizzeria"
            },
            {
                  "distance": 306,
                  "location": {
                        "address": "1570 Louis-Carrier Rue",
                        "country": "CA",
                        "formatted_address": "1570 Louis-Carrier Rue, Montreal QC H4N 2Z1",
                        "locality": "Montreal",
                        "postcode": "H4N 2Z1",
                        "region": "QC"
                  },
                  "name": "Caramel"
            },
            {
                  "distance": 591,
                  "location": {
                        "address": "391 Henri-Bourassa Blvd O",
                        "country": "CA",
                        "formatted_address": "391 Henri-Bourassa Blvd O, Montreal QC H3L 1P2",
                        "locality": "Montreal",
                        "postcode": "H3L 1P2",
                        "region": "QC"
                  },
                  "name": "L'oeuforie"
            },
            {
                  "distance": 682,
                  "location": {
                        "address": "740 Blvd de la C\u00f4te-Vertu",
                        "country": "CA",
                        "formatted_address": "740 Blvd de la C\u00f4te-Vertu, Saint-Laurent QC H4L 5C8",
                        "locality": "Saint-Laurent",
                        "postcode": "H4L 5C8",
                        "region": "QC"
                  },
                  "name": "Nouilles Express Halal"
            },
            {
                  "distance": 755,
                  "location": {
                        "address": "414 Fleury Rue O",
                        "country": "CA",
                        "formatted_address": "414 Fleury Rue O, Montreal QC H3L 1V7",
                        "locality": "Montreal",
                        "postcode": "H3L 1V7",
                        "region": "QC"
                  },
                  "name": "A.J. Gourmet du Monde"
            },
            {
                  "distance": 779,
                  "location": {
                        "address": "370 Fleury Rue O",
                        "country": "CA",
                        "formatted_address": "370 Fleury Rue O, Montreal QC H3L 1V7",
                        "locality": "Montreal",
                        "postcode": "H3L 1V7",
                        "region": "QC"
                  },
                  "name": "Boulangerie et P\u00e2tisserie Mexicaine Patricia"
            },
            {
                  "distance": 814,
                  "location": {
                        "address": "1952 Olivier-Berthelet Rue",
                        "country": "CA",
                        "formatted_address": "1952 Olivier-Berthelet Rue, Montreal QC H4N 3G8",
                        "locality": "Montreal",
                        "postcode": "H4N 3G8",
                        "region": "QC"
                  },
                  "name": "Cafe Noir"
            },
            {
                  "distance": 832,
                  "location": {
                        "address": "335 Fleury Rue O",
                        "country": "CA",
                        "formatted_address": "335 Fleury Rue O, Montreal QC H3L 1V5",
                        "locality": "Montreal",
                        "postcode": "H3L 1V5",
                        "region": "QC"
                  },
                  "name": "Bar Cafe EVA"
            },
            {
                  "distance": 859,
                  "location": {
                        "address": "318 Fleury Rue O",
                        "country": "CA",
                        "formatted_address": "318 Fleury Rue O, Montreal QC H3L 1V3",
                        "locality": "Montreal",
                        "postcode": "H3L 1V3",
                        "region": "QC"
                  },
                  "name": "Le Bruloir"
            },
            {
                  "distance": 930,
                  "location": {
                        "address": "727 Germaine-Guevremont Rue",
                        "country": "CA",
                        "formatted_address": "727 Germaine-Guevremont Rue, Montreal QC H4N 3H3",
                        "locality": "Montreal",
                        "postcode": "H4N 3H3",
                        "region": "QC"
                  },
                  "name": "Lesdouceursdenicole"
            },
            {
                  "distance": 992,
                  "location": {
                        "address": "1805 Sauve Rue O",
                        "address_extended": "# 102",
                        "country": "CA",
                        "formatted_address": "1805 Sauve Rue O, Montreal QC H4N 3B8",
                        "locality": "Montreal",
                        "postcode": "H4N 3B8",
                        "region": "QC"
                  },
                  "name": "Solevino"
            }
      ],
      "context": {
            "geo_bounds": {
                  "circle": {
                        "center": {
                              "latitude": 45.53972553,
                              "longitude": -73.67716491
                        },
                        "radius": 1000
                  }
            }
      }
}