{
      "results": [
            {
                  "distance": 620,
                  "location": {
                        "address": "437 Cartier Blvd O",
                        "country": "CA",
                        "cross_street": "",
                        "formatted_address": "437 Cartier Blvd O, Laval QC H7N 2L3",
                        "locality": "Laval",
                        "postcode": "H7N 2L3",
                        "region": "QC"
                  },
                  "name": "Restaurant Ciel Bleu",
                  "popularity": 0.9336784789788449,
                  "price": 1,
                  "rating": 7.3
            },
            {
                  "distance": 493,
                  "location": {
                        "address": "319 Cartier Blvd O",
                        "country": "CA",
                        "cross_street": "Amp\u00e8re",
                        "formatted_address": "319 Cartier Blvd O (Amp\u00e8re), Laval QC H7N 2J4",
                        "locality": "Laval",
                        "postcode": "H7N 2J4",
                        "region": "QC"
                  },
                  "name": "Restaurant le Cartier",
                  "popularity": 0.9811657591716505,
                  "price": 1
            },
            {
                  "distance": 536,
                  "location": {
                        "address": "410 Cartier Blvd O",
                        "country": "CA",
                        "cross_street": "",
                        "formatted_address": "410 Cartier Blvd O, Laval QC H7N 2L2",
                        "locality": "Laval",
                        "postcode": "H7N 2L2",
                        "region": "QC"
                  },
                  "name": "Restaurant la Belle Province",
                  "popularity": 0.9434080157100777,
                  "price": 1
            },
            {
                  "distance": 864,
                  "location": {
                        "address": "387 Cartier Blvd O",
                        "country": "CA",
                        "cross_street": "",
                        "formatted_address": "387 Cartier Blvd O, Laval QC H7N 2K6",
                        "locality": "Laval",
                        "postcode": "H7N 2K6",
                        "region": "QC"
                  },
                  "name": "Pizza D\u00f6ner",
                  "popularity": 0.8418280817638133
            },
            {
                  "distance": 930,
                  "location": {
                        "address": "1323 Blvd de la Concorde O",
                        "country": "CA",
                        "cross_street": "Boul Concorde",
                        "formatted_address": "1323 Blvd de la Concorde O (Boul Concorde), Laval QC H7N 5Y4",
                        "locality": "Laval",
                        "postcode": "H7N 5Y4",
                        "region": "QC"
                  },
                  "name": "Resto-Bar 1323",
                  "popularity": 0.07381951263054538,
                  "price": 1
            },
            {
                  "distance": 183,
                  "location": {
                        "address": "359 Cartier Blvd O",
                        "country": "CA",
                        "formatted_address": "359 Cartier Blvd O, Laval QC H7N 2J9",
                        "locality": "Laval",
                        "postcode": "H7N 2J9",
                        "region": "QC"
                  },
                  "name": "Chez Mistos"
            },
            {
                  "distance": 303,
                  "location": {
                        "address": "345 Laurier Rue",
                        "country": "CA",
                        "formatted_address": "345 Laurier Rue, Laval QC H7N 2N5",
                        "locality": "Laval",
                        "postcode": "H7N 2N5",
                        "region": "QC"
                  },
                  "name": "Chez Raymond Piley Inc"
            },
            {
                  "distance": 404,
                  "location": {
                        "address": "387 Cartier Blvd O",
                        "country": "CA",
                        "formatted_address": "387 Cartier Blvd O, Laval QC H7N 2K6",
                        "locality": "Laval",
                        "postcode": "H7N 2K6",
                        "region": "QC"
                  },
                  "name": "9317-0678 Qc Inc"
            },
            {
                  "distance": 410,
                  "location": {
                        "address": "387 Cartier Blvd O",
                        "country": "CA",
                        "formatted_address": "387 Cartier Blvd O, Laval QC H7N 2K6",
                        "locality": "Laval",
                        "postcode": "H7N 2K6",
                        "region": "QC"
                  },
                  "name": "Falafel Blvd"
            },
            {
                  "distance": 552,
                  "location": {
                        "address": "317 Cartier Blvd O",
                        "country": "CA",
                        "formatted_address": "317 Cartier Blvd O, Laval QC H7N 2J3",
                        "locality": "Laval",
                        "postcode": "H7N 2J3",
                        "region": "QC"
                  },
                  "name": "Dallas Resto Pub"
            },
            {
                  "distance": 935,
                  "location": {
                        "address": "293A Cartier Blvd O",
                        "country": "CA",
                        "formatted_address": "293A Cartier Blvd O, Laval QC H7N 2J1",
                        "locality": "Laval",
                        "postcode": "H7N 2J1",
                        "region": "QC"
                  },
                  "name": "Allo Pizza"
            },
            {
                  "distance": 951,
                  "location": {
                        "address": "1323 Blvd de la Concorde O",
                        "country": "CA",
                        "formatted_address": "1323 Blvd de la Concorde O, Laval QC H7N 5Y4",
                        "locality": "Laval",
                        "postcode": "H7N 5Y4",
                        "region": "QC"
                  },
                  "name": "Les Gestions I.p.m.b. Cardinal Inc"
            }
      ],
      "context": {
            "geo_bounds": {
                  "circle": {
                        "center": {
                              "latitude": 45.55233743,
                              "longitude": -73.70748997
                        },
                        "radius": 1000
                  }
            }
      }
}