{
      "results": [
            {
                  "distance": 951,
                  "location": {
                        "address": "5235 Belanger Rue",
                        "country": "CA",
                        "cross_street": "",
                        "formatted_address": "5235 Belanger Rue, Montr\u00e9al QC H1T 1E1",
                        "locality": "Montreal",
                        "postcode": "H1T 1E1",
                        "region": "QC"
                  },
                  "name": "Patisserie Di Bella",
                  "popularity": 0.9872255866767601,
                  "price": 1,
                  "rating": 8.6
            },
            {
                  "distance": 345,
                  "location": {
                        "address": "4526 Belanger Rue",
                        "country": "CA",
                        "cross_street": "",
                        "formatted_address": "4526 Belanger Rue, Montr\u00e9al QC H1T 1B6",
                        "locality": "Montreal",
                        "postcode": "H1T 1B6",
                        "region": "QC"
                  },
                  "name": "Poissonnerie Rayan",
                  "popularity": 0.9850018925056775,
                  "price": 3,
                  "rating": 7.8
            },
            {
                  "distance": 460,
                  "location": {
                        "address": "4310 Belanger Rue",
                        "country": "CA",
                        "cross_street": "",
                        "formatted_address": "4310 Belanger Rue, Montr\u00e9al QC H1T 1A7",
                        "locality": "Montreal",
                        "postcode": "H1T 1A7",
                        "region": "QC"
                  },
                  "name": "Restobar Chez Toutou",
                  "popularity": 0.9815717259651779,
                  "price": 2,
                  "rating": 7.5
            },
            {
                  "distance": 648,
                  "location": {
                        "address": "4023 Beaubien Rue E",
                        "country": "CA",
                        "formatted_address": "4023 Beaubien Rue E, Montr\u00e9al QC H1X 1H7",
                        "locality": "Montreal",
                        "postcode": "H1X 1H7",
                        "region": "QC"
                  },
                  "name": "Beaubien Deli",
                  "popularity": 0.9816072104466314,
                  "price": 2,
                  "rating": 7.2
            },
            {
                  "distance": 956,
                  "location": {
                        "address": "5005 Jean-Talon Rue E",
                        "country": "CA",
                        "cross_street": "at Viau",
                        "formatted_address": "5005 Jean-Talon Rue E (at Viau), Saint-Leonard QC H1S 1K5",
                        "locality": "Saint-L\u00e9onard",
                        "postcode": "H1S 1K5",
                        "region": "QC"
                  },
                  "name": "Tim Hortons",
                  "popularity": 0.9980483535200606,
                  "price": 1,
                  "rating": 7.1
            },
            {
                  "distance": 959,
                  "location": {
                        "address": "5060 Jean-Talon Rue E",
                        "country": "CA",
                        "cross_street": "",
                        "formatted_address": "5060 Jean-Talon Rue E, Saint-Leonard QC H1S 1K6",
                        "locality": "Saint-L\u00e9onard",
                        "postcode": "H1S 1K6",
                        "region": "QC"
                  },
                  "name": "A&W Restaurant",
                  "popularity": 0.976367335352006,
                  "price": 1,
                  "rating": 7.1,
                  "store_id": "5195"
            },
            {
                  "distance": 591,
                  "location": {
                        "address": "4200 Belanger Rue",
                        "country": "CA",
                        "cross_street": "entre la 23e avenue et la 24e avenue",
                        "formatted_address": "4200 Belanger Rue (entre la 23e avenue et la 24e avenue), Montr\u00e9al QC H1T 1A3",
                        "locality": "Montreal",
                        "postcode": "H1T 1A3",
                        "region": "QC"
                  },
                  "name": "Le Plan de Match",
                  "popularity": 0.9363290121120363,
                  "price": 2,
                  "rating": 6.6
            },
            {
                  "distance": 740,
                  "location": {
                        "address": "4100 Jean-Talon St E",
                        "address_extended": "Le Boulevard Shopping Centre",
                        "country": "CA",
                        "cross_street": "",
                        "formatted_address": "4100 Jean-Talon St E, Montreal QC H1S 2V4",
                        "locality": "Montreal",
                        "postcode": "H1S 2V4",
                        "region": "QC"
                  },
                  "name": "Subway",
                  "popularity": 0.9066048448145344,
                  "price": 1,
                  "rating": 6.4,
                  "store_id": "26167"
            },
            {
                  "distance": 750,
                  "location": {
                        "address": "4689 Jean-Talon Rue E",
                        "country": "CA",
                        "cross_street": "",
                        "formatted_address": "4689 Jean-Talon Rue E, Saint-Leonard QC H1S 1K3",
                        "locality": "Saint-L\u00e9onard",
                        "postcode": "H1S 1K3",
                        "region": "QC"
                  },
                  "name": "Pizza Hut",
                  "popularity": 0.9313848410295231,
                  "price": 1,
                  "rating": 6.2,
                  "store_id": "R29607"
            },
            {
                  "distance": 961,
                  "location": {
                        "address": "5050 Jean Talon Rue E",
                        "country": "CA",
                        "cross_street": "",
                        "formatted_address": "5050 Jean Talon Rue E, Saint-Leonard QC H1S 1K6",
                        "locality": "Saint-L\u00e9onard",
                        "postcode": "H1S 1K6",
                        "region": "QC"
                  },
                  "name": "Pizza Pizza",
                  "popularity": 0.8820614118092355,
                  "price": 1,
                  "rating": 6.2
            },
            {
                  "distance": 883,
                  "location": {
                        "address": "5040 Jean-Talon Rue E",
                        "address_extended": "Place Michelet",
                        "country": "CA",
                        "cross_street": "Boul. Viau",
                        "formatted_address": "5040 Jean-Talon Rue E (Boul. Viau), Saint-Leonard QC H1S 1K6",
                        "locality": "Saint-L\u00e9onard",
                        "postcode": "H1S 1K6",
                        "region": "QC"
                  },
                  "name": "Thai Express",
                  "popularity": 0.9278009084027252,
                  "price": 2,
                  "rating": 6.0,
                  "store_id": "205"
            },
            {
                  "distance": 910,
                  "location": {
                        "address": "4275 Jean-Talon Rue E",
                        "country": "CA",
                        "formatted_address": "4275 Jean-Talon Rue E, Montr\u00e9al QC H1S 1J9",
                        "locality": "Montreal",
                        "postcode": "H1S 1J9",
                        "region": "QC"
                  },
                  "name": "Fu Lam",
                  "popularity": 0.9726769492808478,
                  "rating": 5.7
            },
            {
                  "distance": 817,
                  "location": {
                        "address": "4900 Jean-Talon Rue E",
                        "country": "CA",
                        "cross_street": "coin Viau",
                        "formatted_address": "4900 Jean-Talon Rue E (coin Viau), Saint-Leonard QC H1S 2V9",
                        "locality": "Saint-L\u00e9onard",
                        "postcode": "H1S 2V9",
                        "region": "QC"
                  },
                  "name": "McDonald's",
                  "popularity": 0.8837055261165784,
                  "price": 1,
                  "rating": 5.6
            },
            {
                  "distance": 336,
                  "location": {
                        "address": "4444A Belanger Rue",
                        "country": "CA",
                        "cross_street": "",
                        "formatted_address": "4444A Belanger Rue, Montreal QC H1T 1B5",
                        "locality": "Montreal",
                        "postcode": "H1T 1B5",
                        "region": "QC"
                  },
                  "name": "Cornet Glac\u00e9",
                  "popularity": 0.10896101438304315,
                  "price": 1
            },
            {
                  "distance": 347,
                  "location": {
                        "address": "4541 Belanger Rue",
                        "country": "CA",
                        "cross_street": "30th Ave",
                        "formatted_address": "4541 Belanger Rue (30th Ave), Montr\u00e9al QC H1T 1B7",
                        "locality": "Montreal",
                        "postcode": "H1T 1B7",
                        "region": "QC"
                  },
                  "name": "Akwaba",
                  "popularity": 0.9619842922028766,
                  "price": 2
            },
            {
                  "distance": 460,
                  "location": {
                        "address": "4326 Belanger Rue",
                        "country": "CA",
                        "cross_street": "26e Avenue",
                        "formatted_address": "4326 Belanger Rue (26e Avenue), Montr\u00e9al QC H1T 1A7",
                        "locality": "Montreal",
                        "postcode": "H1T 1A7",
                        "region": "QC"
                  },
                  "name": "Sushi Bako",
                  "popularity": 0.10050387963663891,
                  "price": 2
            },
            {
                  "distance": 519,
                  "location": {
                        "address": "4111 Beaubien Rue E",
                        "country": "CA",
                        "cross_street": "",
                        "formatted_address": "4111 Beaubien Rue E, Montr\u00e9al QC H1T 1S3",
                        "locality": "Montreal",
                        "postcode": "H1T 1S3",
                        "region": "QC"
                  },
                  "name": "La Grotta del Mare",
                  "popularity": 0.30545041635124903,
                  "price": 2
            },
            {
                  "distance": 639,
                  "location": {
                        "address": "4931 Beaubien Rue E",
                        "country": "CA",
                        "cross_street": "coin Viau",
                        "formatted_address": "4931 Beaubien Rue E (coin Viau), Montr\u00e9al QC H1T 1V1",
                        "locality": "Montreal",
                        "postcode": "H1T 1V1",
                        "region": "QC"
                  },
                  "name": "Sachi Sushi",
                  "popularity": 0.8922099735049205,
                  "price": 2
            },
            {
                  "distance": 700,
                  "location": {
                        "address": "7001 Pie-Ix Blvd",
                        "country": "CA",
                        "cross_street": "",
                        "formatted_address": "7001 Pie-Ix Blvd, Montr\u00e9al QC H2A 2G3",
                        "locality": "Montreal",
                        "postcode": "H2A 2G3",
                        "region": "QC"
                  },
                  "name": "All\u00f4! Mon Coco",
                  "popularity": 0.992335352006056,
                  "price": 2
            },
            {
                  "distance": 732,
                  "location": {
                        "address": "4745 Jean-Talon Rue E",
                        "country": "CA",
                        "cross_street": "",
                        "formatted_address": "4745 Jean-Talon Rue E, Montr\u00e9al QC H1S 1K4",
                        "locality": "Montreal",
                        "postcode": "H1S 1K4",
                        "region": "QC"
                  },
                  "name": "Restaurant TGV",
                  "popularity": 0.9070897993943982
            },
            {
                  "distance": 765,
                  "location": {
                        "address": "4136 Jean- Talon Rue E",
                        "country": "CA",
                        "cross_street": "",
                        "formatted_address": "4136 Jean- Talon Rue E, Montr\u00e9al QC H1S 2V4",
                        "locality": "Montreal",
                        "postcode": "H1S 2V4",
                        "region": "QC"
                  },
                  "name": "Basha",
                  "popularity": 0.38836582134746406,
                  "price": 2
            },
            {
                  "distance": 831,
                  "location": {
                        "address": "4247 Jean-Talon Rue E",
                        "country": "CA",
                        "formatted_address": "4247 Jean-Talon Rue E, Saint-Leonard QC H1S 1J9",
                        "locality": "Saint-L\u00e9onard",
                        "postcode": "H1S 1J9",
                        "region": "QC"
                  },
                  "name": "Harvey's",
                  "popularity": 0.9872610711582135,
                  "price": 1,
                  "store_id": "2474"
            },
            {
                  "distance": 925,
                  "location": {
                        "address": "7190 Michelet Rue",
                        "country": "CA",
                        "cross_street": "",
                        "formatted_address": "7190 Michelet Rue, Montreal QC H1S 2L9",
                        "locality": "Saint-L\u00e9onard",
                        "postcode": "H1S 2L9",
                        "region": "QC"
                  },
                  "name": "St-Hubert Express",
                  "popularity": 0.9727952308856926,
                  "price": 2,
                  "store_id": "100171"
            },
            {
                  "distance": 976,
                  "location": {
                        "address": "5195 Beaubien Rue E",
                        "country": "CA",
                        "cross_street": "41ieme avenue",
                        "formatted_address": "5195 Beaubien Rue E (41ieme avenue), Montr\u00e9al QC H1T 1V9",
                        "locality": "Montreal",
                        "postcode": "H1T 1V9",
                        "region": "QC"
                  },
                  "name": "Restaurant St-Aubin",
                  "popularity": 0.8631718395155186,
                  "price": 1
            },
            {
                  "distance": 997,
                  "location": {
                        "address": "3924 Jean-Talon Rue E",
                        "country": "CA",
                        "cross_street": "",
                        "formatted_address": "3924 Jean-Talon Rue E, Montr\u00e9al QC H2A 1Y8",
                        "locality": "Montreal",
                        "postcode": "H2A 1Y8",
                        "region": "QC"
                  },
                  "name": "Caf\u00e9 Sable d'Or",
                  "popularity": 0.9942633421650265,
                  "price": 1
            },
            {
                  "distance": 318,
                  "location": {
                        "address": "4524 Belanger Rue",
                        "country": "CA",
                        "formatted_address": "4524 Belanger Rue, Montreal QC H1T 1B6",
                        "locality": "Montreal",
                        "postcode": "H1T 1B6",
                        "region": "QC"
                  },
                  "name": "Patisserie Charcuterie"
            },
            {
                  "distance": 363,
                  "location": {
                        "address": "4541 Belanger Rue",
                        "country": "CA",
                        "formatted_address": "4541 Belanger Rue, Montreal QC H1T 1B7",
                        "locality": "Montreal",
                        "postcode": "H1T 1B7",
                        "region": "QC"
                  },
                  "name": "Restaurant Akwaba Fine Cuisine Fusion Africaine et Grecque"
            },
            {
                  "distance": 367,
                  "location": {
                        "address": "4551 Belanger Rue",
                        "country": "CA",
                        "formatted_address": "4551 Belanger Rue, Montreal QC H1T 1B8",
                        "locality": "Montreal",
                        "postcode": "H1T 1B8",
                        "region": "QC"
                  },
                  "name": "Cafe Portofino"
            },
            {
                  "distance": 368,
                  "location": {
                        "address": "4579 Belanger Rue",
                        "country": "CA",
                        "formatted_address": "4579 Belanger Rue, Montreal QC H1T 1B8",
                        "locality": "Montreal",
                        "postcode": "H1T 1B8",
                        "region": "QC"
                  },
                  "name": "Boulangerie Monja Blanca"
            },
            {
                  "distance": 544,
                  "location": {
                        "address": "4111 Beaubien Rue E",
                        "country": "CA",
                        "formatted_address": "4111 Beaubien Rue E, Montreal QC H1T 1S3",
                        "locality": "Montreal",
                        "postcode": "H1T 1S3",
                        "region": "QC"
                  },
                  "name": "Grotte de la Mer Inc"
            },
            {
                  "distance": 647,
                  "location": {
                        "address": "6510 Viau Rue",
                        "country": "CA",
                        "formatted_address": "6510 Viau Rue, Montreal QC H1T 2Y7",
                        "locality": "Montreal",
                        "postcode": "H1T 2Y7",
                        "region": "QC"
                  },
                  "name": "Meurtre et Mysteres"
            },
            {
                  "distance": 693,
                  "location": {
                        "address": "4460 Jean-Talon Rue E",
                        "country": "CA",
                        "formatted_address": "4460 Jean-Talon Rue E, Saint-Leonard QC H1S 1K1",
                        "locality": "Saint-Leonard",
                        "postcode": "H1S 1K1",
                        "region": "QC"
                  },
                  "name": "Pho Khanh"
            },
            {
                  "distance": 693,
                  "location": {
                        "address": "4460 Jean Talon Rue E",
                        "country": "CA",
                        "formatted_address": "4460 Jean Talon Rue E, Saint-Leonard QC H1S 1K1",
                        "locality": "Saint-Leonard",
                        "postcode": "H1S 1K1",
                        "region": "QC"
                  },
                  "name": "Cabana Dacilor"
            },
            {
                  "distance": 732,
                  "location": {
                        "address": "4975 Beaubien Rue E",
                        "country": "CA",
                        "formatted_address": "4975 Beaubien Rue E, Montreal QC H1T 1V3",
                        "locality": "Montreal",
                        "postcode": "H1T 1V3",
                        "region": "QC"
                  },
                  "name": "Brasserie Cannebiere Inc"
            },
            {
                  "distance": 780,
                  "location": {
                        "address": "4134 Jean-Talon Rue E",
                        "country": "CA",
                        "formatted_address": "4134 Jean-Talon Rue E, Montreal QC H1S 2V4",
                        "locality": "Montreal",
                        "postcode": "H1S 2V4",
                        "region": "QC"
                  },
                  "name": "Pizza Go"
            }
      ],
      "context": {
            "geo_bounds": {
                  "circle": {
                        "center": {
                              "latitude": 45.56776565,
                              "longitude": -73.57968807
                        },
                        "radius": 1000
                  }
            }
      }
}