{
      "results": [
            {
                  "distance": 913,
                  "location": {
                        "address": "5185 Rue de Charleroi",
                        "country": "CA",
                        "cross_street": "",
                        "formatted_address": "5185 Rue de Charleroi, Montreal-Nord QC H1G 3A2",
                        "locality": "Montr\u00e9al-Nord",
                        "postcode": "H1G 3A2",
                        "region": "QC"
                  },
                  "name": "Da Bologna",
                  "popularity": 0.9846588758516276,
                  "price": 2,
                  "rating": 7.5
            },
            {
                  "distance": 201,
                  "location": {
                        "address": "4500 Henri-Bourassa Blvd E",
                        "country": "CA",
                        "cross_street": "",
                        "formatted_address": "4500 Henri-Bourassa Blvd E, Montreal-Nord QC H1H 0A6",
                        "locality": "Montr\u00e9al-Nord",
                        "postcode": "H1H 0A6",
                        "region": "QC"
                  },
                  "name": "Restaurant Max Rupp",
                  "popularity": 0.9922643830431491,
                  "price": 3
            },
            {
                  "distance": 343,
                  "location": {
                        "address": "4304 Henri-Bourassa Blvd E",
                        "country": "CA",
                        "cross_street": "",
                        "formatted_address": "4304 Henri-Bourassa Blvd E, Montr\u00e9al QC H1H 1L8",
                        "locality": "Montreal",
                        "postcode": "H1H 1L8",
                        "region": "QC"
                  },
                  "name": "P\u00e2tisserie le Savoir-Faire",
                  "popularity": 0.8727526495079485,
                  "price": 1
            },
            {
                  "distance": 402,
                  "location": {
                        "address": "4741 rue de Charleroi",
                        "country": "CA",
                        "formatted_address": "4741 rue de Charleroi, Montreal-Nord QC H1H 1V3",
                        "locality": "Montr\u00e9al-Nord",
                        "postcode": "H1H 1V3",
                        "region": "QC"
                  },
                  "name": "Bar Lindberg",
                  "popularity": 0.907551097653293,
                  "price": 2
            },
            {
                  "distance": 493,
                  "location": {
                        "address": "4880 rue de Charleroi",
                        "country": "CA",
                        "cross_street": "",
                        "formatted_address": "4880 rue de Charleroi, Montreal-Nord QC H1G 2Y7",
                        "locality": "Montr\u00e9al-Nord",
                        "postcode": "H1G 2Y7",
                        "region": "QC"
                  },
                  "name": "Trattoria Del Sud",
                  "popularity": 0.8094956472369417,
                  "price": 2
            },
            {
                  "distance": 583,
                  "location": {
                        "address": "4960 Rue de Charleroi",
                        "country": "CA",
                        "cross_street": "",
                        "formatted_address": "4960 Rue de Charleroi, Montr\u00e9al QC H1G 2Z1",
                        "locality": "Montreal",
                        "postcode": "H1G 2Z1",
                        "region": "QC"
                  },
                  "name": "Double Pizza",
                  "popularity": 0.9755157077971234,
                  "price": 1
            },
            {
                  "distance": 681,
                  "location": {
                        "address": "4031 Henri-Bourassa Blvd E",
                        "country": "CA",
                        "cross_street": "",
                        "formatted_address": "4031 Henri-Bourassa Blvd E, Montreal-Nord QC H1H 1L2",
                        "locality": "Montreal-Nord",
                        "postcode": "H1H 1L2",
                        "region": "QC"
                  },
                  "name": "Vincent Sous Marin Inc",
                  "popularity": 0.995848315669947,
                  "price": 1
            },
            {
                  "distance": 758,
                  "location": {
                        "address": "4972 Leger Blvd",
                        "country": "CA",
                        "cross_street": "",
                        "formatted_address": "4972 Leger Blvd, Montr\u00e9al QC H1G 1J6",
                        "locality": "Montreal",
                        "postcode": "H1G 1J6",
                        "region": "QC"
                  },
                  "name": "Restaurant Mamina",
                  "popularity": 0.9608961014383043,
                  "price": 2
            },
            {
                  "distance": 798,
                  "location": {
                        "address": "5195 Henri-Bourassa Blvd E",
                        "country": "CA",
                        "cross_street": "",
                        "formatted_address": "5195 Henri-Bourassa Blvd E, Montr\u00e9al QC H1G 2S7",
                        "locality": "Montreal",
                        "postcode": "H1G 2S7",
                        "region": "QC"
                  },
                  "name": "Queues de Castor",
                  "popularity": 0.2775359576078728,
                  "price": 1
            },
            {
                  "distance": 324,
                  "location": {
                        "address": "4316 Henri-Bourassa Blvd E",
                        "country": "CA",
                        "formatted_address": "4316 Henri-Bourassa Blvd E, Montreal-Nord QC H1H 1L8",
                        "locality": "Montreal-Nord",
                        "postcode": "H1H 1L8",
                        "region": "QC"
                  },
                  "name": "Restaurant Caribbean Grille"
            },
            {
                  "distance": 342,
                  "location": {
                        "address": "4304 Henri-Bourassa Blvd E",
                        "country": "CA",
                        "formatted_address": "4304 Henri-Bourassa Blvd E, Montreal-Nord QC H1H 1L8",
                        "locality": "Montreal-Nord",
                        "postcode": "H1H 1L8",
                        "region": "QC"
                  },
                  "name": "4304 Patisserie"
            },
            {
                  "distance": 362,
                  "location": {
                        "address": "4707 rue de Charleroi",
                        "country": "CA",
                        "formatted_address": "4707 rue de Charleroi, Montreal-Nord QC H1H 1V1",
                        "locality": "Montreal-Nord",
                        "postcode": "H1H 1V1",
                        "region": "QC"
                  },
                  "name": "Pho Nho"
            },
            {
                  "distance": 388,
                  "location": {
                        "address": "4741 Rue de Charleroi -Nord",
                        "country": "CA",
                        "formatted_address": "4741 Rue de Charleroi -Nord, Montreal-Nord QC H1H 1V3",
                        "locality": "Montreal-Nord",
                        "postcode": "H1H 1V3",
                        "region": "QC"
                  },
                  "name": "Brasserie Charleroi"
            },
            {
                  "distance": 389,
                  "location": {
                        "address": "4668 Rue de Charleroi",
                        "country": "CA",
                        "formatted_address": "4668 Rue de Charleroi, Montreal-Nord QC H1H 1T7",
                        "locality": "Montreal-Nord",
                        "postcode": "H1H 1T7",
                        "region": "QC"
                  },
                  "name": "Restaurant Granada"
            },
            {
                  "distance": 580,
                  "location": {
                        "address": "11442 Lamoureux Ave",
                        "country": "CA",
                        "formatted_address": "11442 Lamoureux Ave, Montreal-Nord QC H1G 5M2",
                        "locality": "Montreal-Nord",
                        "postcode": "H1G 5M2",
                        "region": "QC"
                  },
                  "name": "Faivre Italian Restaurant"
            },
            {
                  "distance": 589,
                  "location": {
                        "address": "4979 rue de Charleroi",
                        "country": "CA",
                        "formatted_address": "4979 rue de Charleroi, Montreal-Nord QC H1G 2Z2",
                        "locality": "Montreal-Nord",
                        "postcode": "H1G 2Z2",
                        "region": "QC"
                  },
                  "name": "Caf\u00e9 et P\u00e2tisserie Guloglu Baklava"
            },
            {
                  "distance": 606,
                  "location": {
                        "address": "4956 rue de Charleroi",
                        "country": "CA",
                        "formatted_address": "4956 rue de Charleroi, Montreal-Nord QC H1G 2Z1",
                        "locality": "Montreal-Nord",
                        "postcode": "H1G 2Z1",
                        "region": "QC"
                  },
                  "name": "Poissonnerie Fish & Chips Inc"
            },
            {
                  "distance": 652,
                  "location": {
                        "address": "5047 Henri-Bourassa Blvd E",
                        "country": "CA",
                        "formatted_address": "5047 Henri-Bourassa Blvd E, Montreal-Nord QC H1G 2S1",
                        "locality": "Montreal-Nord",
                        "postcode": "H1G 2S1",
                        "region": "QC"
                  },
                  "name": "Restaurant Nouveau Kum Mon Inc"
            },
            {
                  "distance": 797,
                  "location": {
                        "address": "5158 Henri-Bourassa Blvd E",
                        "country": "CA",
                        "formatted_address": "5158 Henri-Bourassa Blvd E, Montreal-Nord QC",
                        "locality": "Montreal-Nord",
                        "region": "QC"
                  },
                  "name": "Restaurant Trouvaille Creole"
            },
            {
                  "distance": 806,
                  "location": {
                        "address": "5158 Henri-Bourassa Blvd E",
                        "country": "CA",
                        "formatted_address": "5158 Henri-Bourassa Blvd E, Montreal-Nord QC H1G 2S6",
                        "locality": "Montreal-Nord",
                        "postcode": "H1G 2S6",
                        "region": "QC"
                  },
                  "name": "Phat Grill Resto-Bar"
            },
            {
                  "distance": 831,
                  "location": {
                        "address": "4711 d'Amiens Rue",
                        "country": "CA",
                        "formatted_address": "4711 d'Amiens Rue, Montreal-Nord QC H1H 2H9",
                        "locality": "Montreal-Nord",
                        "postcode": "H1H 2H9",
                        "region": "QC"
                  },
                  "name": "Via Pizza"
            },
            {
                  "distance": 861,
                  "location": {
                        "address": "10701 Bellevois Ave",
                        "country": "CA",
                        "formatted_address": "10701 Bellevois Ave, Montreal-Nord QC H1H 3C7",
                        "locality": "Montreal-Nord",
                        "postcode": "H1H 3C7",
                        "region": "QC"
                  },
                  "name": "Resto la Spirale"
            },
            {
                  "distance": 861,
                  "location": {
                        "address": "10701 Bellevois Ave",
                        "country": "CA",
                        "formatted_address": "10701 Bellevois Ave, Montreal-Nord QC H1H 3C7",
                        "locality": "Montreal-Nord",
                        "postcode": "H1H 3C7",
                        "region": "QC"
                  },
                  "name": "Restaurant Oa Latina Inc"
            },
            {
                  "distance": 872,
                  "location": {
                        "address": "10795 Pie-Ix Blvd",
                        "country": "CA",
                        "formatted_address": "10795 Pie-Ix Blvd, Montreal-Nord QC H1H 4A9",
                        "locality": "Montreal-Nord",
                        "postcode": "H1H 4A9",
                        "region": "QC"
                  },
                  "name": "Go\u00fbter Cara\u00efbes"
            },
            {
                  "distance": 905,
                  "location": {
                        "address": "5185 Rue de Charleroi -Nord",
                        "country": "CA",
                        "formatted_address": "5185 Rue de Charleroi -Nord, Montreal-Nord QC H1G 3A2",
                        "locality": "Montreal-Nord",
                        "postcode": "H1G 3A2",
                        "region": "QC"
                  },
                  "name": "Pizzeria Da Bologna"
            },
            {
                  "distance": 990,
                  "location": {
                        "address": "4420 Levesque Blvd E",
                        "country": "CA",
                        "formatted_address": "4420 Levesque Blvd E, Laval QC H7C 2R1",
                        "locality": "Laval",
                        "postcode": "H7C 2R1",
                        "region": "QC"
                  },
                  "name": "Baron Bleu"
            }
      ],
      "context": {
            "geo_bounds": {
                  "circle": {
                        "center": {
                              "latitude": 45.59836857,
                              "longitude": -73.63610029
                        },
                        "radius": 1000
                  }
            }
      }
}