{
      "results": [
            {
                  "distance": 897,
                  "location": {
                        "address": "5080 Saint-Ambroise Rue",
                        "address_extended": "b\u00e2tisse \u00e0 c\u00f4t\u00e9 de la Brasserie McAuslan",
                        "country": "CA",
                        "cross_street": "b\u00e2tisse \u00e0 c\u00f4t\u00e9 de la Brasserie McAuslan",
                        "formatted_address": "5080 Saint-Ambroise Rue (b\u00e2tisse \u00e0 c\u00f4t\u00e9 de la Brasserie McAuslan), Montr\u00e9al QC H4C 2G1",
                        "locality": "Montreal",
                        "postcode": "H4C 2G1",
                        "region": "QC"
                  },
                  "name": "L'Annexe St-Ambroise (L\u2019Annexe St-Ambroise)",
                  "popularity": 0.8646267032551098,
                  "price": 1,
                  "rating": 8.6
            },
            {
                  "distance": 916,
                  "location": {
                        "address": "5524 Saint Patrick Rue",
                        "address_extended": "Suite 200",
                        "country": "CA",
                        "cross_street": "",
                        "formatted_address": "5524 Saint Patrick Rue, Montr\u00e9al QC H4E 1A8",
                        "locality": "Montreal",
                        "postcode": "H4E 1A8",
                        "region": "QC"
                  },
                  "name": "McKiernan Luncheonette",
                  "popularity": 0.9810867713853142,
                  "price": 2,
                  "rating": 8.4
            },
            {
                  "distance": 809,
                  "location": {
                        "address": "5080 Saint-Ambroise Rue",
                        "country": "CA",
                        "cross_street": "St-R\u00e9mi & C\u00f4te St-Paul",
                        "formatted_address": "5080 Saint-Ambroise Rue (St-R\u00e9mi & C\u00f4te St-Paul), Montr\u00e9al QC H4C 2G1",
                        "locality": "Montreal",
                        "postcode": "H4C 2G1",
                        "region": "QC"
                  },
                  "name": "Terrasse St-Ambroise",
                  "popularity": 0.9150264950794852,
                  "price": 2,
                  "rating": 8.4
            },
            {
                  "distance": 914,
                  "location": {
                        "address": "2233 Pitt Rue",
                        "country": "CA",
                        "cross_street": "Saint-Patrick",
                        "formatted_address": "2233 Pitt Rue (Saint-Patrick), Montr\u00e9al QC H4E 4H2",
                        "locality": "Montreal",
                        "postcode": "H4E 4H2",
                        "region": "QC"
                  },
                  "name": "Messorem Bracitorium",
                  "popularity": 0.9737296555639667,
                  "price": 2,
                  "rating": 8.3
            },
            {
                  "distance": 318,
                  "location": {
                        "address": "5590 Laurendeau Rue",
                        "country": "CA",
                        "cross_street": "Le Caron",
                        "formatted_address": "5590 Laurendeau Rue (Le Caron), Montr\u00e9al QC H4E 3W3",
                        "locality": "Montreal",
                        "postcode": "H4E 3W3",
                        "region": "QC"
                  },
                  "name": "Yo & Co Espresso Bar",
                  "popularity": 0.9572293716881151,
                  "price": 1
            },
            {
                  "distance": 332,
                  "location": {
                        "address": "5523 Laurendeau Rue",
                        "country": "CA",
                        "cross_street": "",
                        "formatted_address": "5523 Laurendeau Rue, Montreal QC H4E 3V9",
                        "locality": "Montreal",
                        "postcode": "H4E 3V9",
                        "region": "QC"
                  },
                  "name": "Bar Laitier Annick",
                  "popularity": 0.7811790310370931,
                  "price": 1
            },
            {
                  "distance": 847,
                  "location": {
                        "address": "739 de l'Eglise",
                        "country": "CA",
                        "formatted_address": "739 de l'Eglise, Verdun QC H4G 2N1",
                        "locality": "Verdun",
                        "postcode": "H4G 2N1",
                        "region": "QC"
                  },
                  "name": "Sandwicherie le Bouche Trou BBQ",
                  "popularity": 0.5004139856169568,
                  "price": 1
            },
            {
                  "distance": 859,
                  "location": {
                        "address": "5530 Saint-Patrick Rue",
                        "address_extended": "Suite 2210",
                        "country": "CA",
                        "formatted_address": "5530 Saint-Patrick Rue, Montr\u00e9al QC H4E 1A8",
                        "locality": "Montreal",
                        "postcode": "H4E 1A8",
                        "region": "QC"
                  },
                  "name": "Caf\u00e9 Dominion",
                  "popularity": 0.8904830620741863,
                  "price": 1
            },
            {
                  "distance": 918,
                  "location": {
                        "address": "5594 Saint Patrick Rue",
                        "country": "CA",
                        "cross_street": "",
                        "formatted_address": "5594 Saint Patrick Rue, Montr\u00e9al QC H4E 4N7",
                        "locality": "Montreal",
                        "postcode": "H4E 4N7",
                        "region": "QC"
                  },
                  "name": "The Wave",
                  "popularity": 0.5488739591218774,
                  "price": 3
            },
            {
                  "distance": 928,
                  "location": {
                        "address": "3780 Saint-Patrick Rue",
                        "country": "CA",
                        "cross_street": "Pitt",
                        "formatted_address": "3780 Saint-Patrick Rue (Pitt), Montr\u00e9al QC H4E 1A2",
                        "locality": "Montreal",
                        "postcode": "H4E 1A2",
                        "region": "QC"
                  },
                  "name": "Canadian Roasting Society",
                  "popularity": 0.8535200605601817,
                  "price": 1
            },
            {
                  "distance": 932,
                  "location": {
                        "address": "3780 Saint-Patrick Rue",
                        "country": "CA",
                        "cross_street": "",
                        "formatted_address": "3780 Saint-Patrick Rue, Montr\u00e9al QC H4E 1A2",
                        "locality": "Montreal",
                        "postcode": "H4E 1A2",
                        "region": "QC"
                  },
                  "name": "Dreamy",
                  "popularity": 0.9016961582134746,
                  "price": 1
            },
            {
                  "distance": 967,
                  "location": {
                        "address": "4804 Verdun St",
                        "country": "CA",
                        "cross_street": "3rd Avenue",
                        "formatted_address": "4804 Verdun St (3rd Avenue), Verdun QC H4G 1N1",
                        "locality": "Verdun",
                        "postcode": "H4G 1N1",
                        "region": "QC"
                  },
                  "name": "Sushi Taiyo",
                  "popularity": 0.3622137585162756,
                  "price": 2
            },
            {
                  "distance": 993,
                  "location": {
                        "address": "5544 Saint Patrick Rue",
                        "country": "CA",
                        "cross_street": "Rue Briand",
                        "formatted_address": "5544 Saint Patrick Rue (Rue Briand), Montr\u00e9al QC H4E 1A8",
                        "locality": "Montreal",
                        "postcode": "H4E 1A8",
                        "region": "QC"
                  },
                  "name": "TT Caf\u00e9",
                  "popularity": 0.9790168433005298,
                  "price": 1
            },
            {
                  "distance": 264,
                  "location": {
                        "address": "1408 Ave de l Eglise",
                        "country": "CA",
                        "formatted_address": "1408 Ave de l Eglise, Montreal QC H4E 1G2",
                        "locality": "Montreal",
                        "postcode": "H4E 1G2",
                        "region": "QC"
                  },
                  "name": "Restaurant Il Boccalini"
            },
            {
                  "distance": 455,
                  "location": {
                        "address": "1875 Ave de l'\u00c9glise",
                        "country": "CA",
                        "formatted_address": "1875 Ave de l'\u00c9glise, Montreal QC H4E 1G9",
                        "locality": "Montreal",
                        "postcode": "H4E 1G9",
                        "region": "QC"
                  },
                  "name": "Bar Latour"
            },
            {
                  "distance": 463,
                  "location": {
                        "address": "5205 Angers Rue",
                        "country": "CA",
                        "formatted_address": "5205 Angers Rue, Montreal QC H4E 4A1",
                        "locality": "Montreal",
                        "postcode": "H4E 4A1",
                        "region": "QC"
                  },
                  "name": "Seasoned Dreams"
            },
            {
                  "distance": 880,
                  "location": {
                        "address": "2110 Jolicoeur Rue",
                        "country": "CA",
                        "formatted_address": "2110 Jolicoeur Rue, Montreal QC H4E 1X6",
                        "locality": "Montreal",
                        "postcode": "H4E 1X6",
                        "region": "QC"
                  },
                  "name": "Restaurant Carmen"
            },
            {
                  "distance": 988,
                  "location": {
                        "address": "4123 Rue de Verdun 4123",
                        "country": "CA",
                        "formatted_address": "4123 Rue de Verdun 4123, Verdun QC H4G 1L2",
                        "locality": "Verdun",
                        "postcode": "H4G 1L2",
                        "region": "QC"
                  },
                  "name": "Restaurant Parisa"
            }
      ],
      "context": {
            "geo_bounds": {
                  "circle": {
                        "center": {
                              "latitude": 45.46174102,
                              "longitude": -73.58412176
                        },
                        "radius": 1000
                  }
            }
      }
}