{
      "results": [
            {
                  "distance": 784,
                  "location": {
                        "address": "114 Fleury Rue O",
                        "country": "CA",
                        "cross_street": "",
                        "formatted_address": "114 Fleury Rue O, Montr\u00e9al QC H3L 1T4",
                        "locality": "Montreal",
                        "postcode": "H3L 1T4",
                        "region": "QC"
                  },
                  "name": "La B\u00eate \u00e0 Pain",
                  "popularity": 0.9146953065859198,
                  "price": 1,
                  "rating": 8.1
            },
            {
                  "distance": 634,
                  "location": {
                        "address": "1145 Fleury Rue E",
                        "country": "CA",
                        "cross_street": "entre Georges-Baril & De La Roche",
                        "formatted_address": "1145 Fleury Rue E (entre Georges-Baril & De La Roche), Montr\u00e9al QC H2C 1P9",
                        "locality": "Montreal",
                        "postcode": "H2C 1P9",
                        "region": "QC"
                  },
                  "name": "Cafe le Petit Flore Inc",
                  "popularity": 0.940078538985617,
                  "price": 1,
                  "rating": 7.9
            },
            {
                  "distance": 60,
                  "location": {
                        "address": "545 Fleury Rue E",
                        "country": "CA",
                        "cross_street": "Lajeunesse",
                        "formatted_address": "545 Fleury Rue E (Lajeunesse), Montr\u00e9al QC H3L 1G6",
                        "locality": "Montreal",
                        "postcode": "H3L 1G6",
                        "region": "QC"
                  },
                  "name": "Caf\u00e9 de Da d'Ahuntsic",
                  "popularity": 0.9510550719152158,
                  "price": 1,
                  "rating": 7.8
            },
            {
                  "distance": 754,
                  "location": {
                        "address": "96 Fleury Rue O",
                        "country": "CA",
                        "cross_street": "St-Urbain",
                        "formatted_address": "96 Fleury Rue O (St-Urbain), Montr\u00e9al QC H3L 1T2",
                        "locality": "Montreal",
                        "postcode": "H3L 1T2",
                        "region": "QC"
                  },
                  "name": "Restaurant le St-Urbain",
                  "popularity": 0.8887679788039364,
                  "price": 3,
                  "rating": 7.8
            },
            {
                  "distance": 556,
                  "location": {
                        "address": "1014 Fleury Rue E",
                        "country": "CA",
                        "formatted_address": "1014 Fleury Rue E, Montr\u00e9al QC H2C 1P7",
                        "locality": "Montreal",
                        "postcode": "H2C 1P7",
                        "region": "QC"
                  },
                  "name": "Restaurant la Molisana",
                  "popularity": 0.9392742240726722,
                  "price": 3,
                  "rating": 7.0
            },
            {
                  "distance": 255,
                  "location": {
                        "address": "10520 Lajeunesse Rue",
                        "country": "CA",
                        "cross_street": "",
                        "formatted_address": "10520 Lajeunesse Rue, Montr\u00e9al QC H3L 2E6",
                        "locality": "Montreal",
                        "postcode": "H3L 2E6",
                        "region": "QC"
                  },
                  "name": "R\u00f4tisserie St-Hubert",
                  "popularity": 0.9716360711582135,
                  "price": 2,
                  "rating": 6.8,
                  "store_id": "100121"
            },
            {
                  "distance": 928,
                  "location": {
                        "address": "9481 Lajeunesse Rue",
                        "country": "CA",
                        "cross_street": "coin Louvain",
                        "formatted_address": "9481 Lajeunesse Rue (coin Louvain), Montr\u00e9al QC H2M 1S5",
                        "locality": "Montreal",
                        "postcode": "H2M 1S5",
                        "region": "QC"
                  },
                  "name": "Martini Pizzeria",
                  "popularity": 0.9776211203633611,
                  "price": 1,
                  "rating": 6.8
            },
            {
                  "distance": 881,
                  "location": {
                        "address": "9720 St Laurent Blvd",
                        "country": "CA",
                        "cross_street": "Port-Royal",
                        "formatted_address": "9720 St Laurent Blvd (Port-Royal), Montr\u00e9al QC H3L 2N3",
                        "locality": "Montreal",
                        "postcode": "H3L 2N3",
                        "region": "QC"
                  },
                  "name": "Subway",
                  "popularity": 0.9250212906888721,
                  "price": 1,
                  "rating": 6.6,
                  "store_id": "Restaurant #29723"
            },
            {
                  "distance": 544,
                  "location": {
                        "address": "545 Henri-Bourassa Blvd E",
                        "country": "CA",
                        "cross_street": "",
                        "formatted_address": "545 Henri-Bourassa Blvd E, Montr\u00e9al QC H3L 1C7",
                        "locality": "Montreal",
                        "postcode": "H3L 1C7",
                        "region": "QC"
                  },
                  "name": "A&W Restaurant",
                  "popularity": 0.958187452687358,
                  "price": 1,
                  "rating": 6.5,
                  "store_id": "5514"
            },
            {
                  "distance": 565,
                  "location": {
                        "address": "1021 Fleury Rue E",
                        "country": "CA",
                        "cross_street": "",
                        "formatted_address": "1021 Fleury Rue E, Montr\u00e9al QC H2C 1P8",
                        "locality": "Montreal",
                        "postcode": "H2C 1P8",
                        "region": "QC"
                  },
                  "name": "Pizzeria No. 900",
                  "popularity": 0.8666256623769871,
                  "price": 1,
                  "rating": 6.3
            },
            {
                  "distance": 499,
                  "location": {
                        "address": "500 Henri-Bourassa Blvd E",
                        "country": "CA",
                        "cross_street": "",
                        "formatted_address": "500 Henri-Bourassa Blvd E, Montr\u00e9al QC H3L 1C6",
                        "locality": "Montreal",
                        "postcode": "H3L 1C6",
                        "region": "QC"
                  },
                  "name": "Pizza Pizza",
                  "popularity": 0.935264477668433,
                  "price": 1,
                  "rating": 6.3,
                  "store_id": "312"
            },
            {
                  "distance": 188,
                  "location": {
                        "address": "10420 Lajeunesse Rue",
                        "country": "CA",
                        "formatted_address": "10420 Lajeunesse Rue, Montr\u00e9al QC H3L 2E5",
                        "locality": "Montreal",
                        "postcode": "H3L 2E5",
                        "region": "QC"
                  },
                  "name": "Restaurant les Brides",
                  "popularity": 0.8677729939439819,
                  "price": 2,
                  "rating": 6.2
            },
            {
                  "distance": 804,
                  "location": {
                        "address": "128 Fleury Rue O",
                        "country": "CA",
                        "cross_street": "",
                        "formatted_address": "128 Fleury Rue O, Montr\u00e9al QC H3L 1T4",
                        "locality": "Montreal",
                        "postcode": "H3L 1T4",
                        "region": "QC"
                  },
                  "name": "Frite Alors",
                  "popularity": 0.8639761544284633,
                  "price": 2,
                  "rating": 6.1
            },
            {
                  "distance": 101,
                  "location": {
                        "address": "10400 Lajeunesse Rue",
                        "country": "CA",
                        "formatted_address": "10400 Lajeunesse Rue, Montr\u00e9al QC H3L 2E5",
                        "locality": "Montreal",
                        "postcode": "H3L 2E5",
                        "region": "QC"
                  },
                  "name": "McDonald's",
                  "popularity": 0.9889879825889477,
                  "price": 1,
                  "rating": 4.7,
                  "store_id": "4223"
            },
            {
                  "distance": 479,
                  "location": {
                        "address": "920 Fleury Rue E",
                        "country": "CA",
                        "cross_street": "",
                        "formatted_address": "920 Fleury Rue E, Montr\u00e9al QC H2C 1P5",
                        "locality": "Montreal",
                        "postcode": "H2C 1P5",
                        "region": "QC"
                  },
                  "name": "Bienvenu Bar Salon",
                  "popularity": 0.904653198334595,
                  "price": 2
            },
            {
                  "distance": 499,
                  "location": {
                        "address": "945 Fleury Rue E",
                        "country": "CA",
                        "cross_street": "",
                        "formatted_address": "945 Fleury Rue E, Montr\u00e9al QC H2C 1P6",
                        "locality": "Montreal",
                        "postcode": "H2C 1P6",
                        "region": "QC"
                  },
                  "name": "Sushi Sama Fusion 1",
                  "popularity": 0.6359647047691143,
                  "price": 2
            },
            {
                  "distance": 506,
                  "location": {
                        "address": "589 Henri-Bourassa Blvd E",
                        "country": "CA",
                        "cross_street": "",
                        "formatted_address": "589 Henri-Bourassa Blvd E, Montr\u00e9al QC H2C 1E2",
                        "locality": "Montreal",
                        "postcode": "H2C 1E2",
                        "region": "QC"
                  },
                  "name": "Bar Lajeunesse",
                  "popularity": 0.21678652535957607,
                  "price": 2
            },
            {
                  "distance": 598,
                  "location": {
                        "address": "10 215 Blvd Saint Laurent",
                        "country": "CA",
                        "cross_street": "entre Sauriol & Fleury",
                        "formatted_address": "10 215 Blvd Saint Laurent (entre Sauriol & Fleury), Montr\u00e9al QC H3L 2N5",
                        "locality": "Montreal",
                        "postcode": "H3L 2N5",
                        "region": "QC"
                  },
                  "name": "Boulevard Cafe Bistro Lounge",
                  "popularity": 0.9051499810749433,
                  "price": 2
            },
            {
                  "distance": 654,
                  "location": {
                        "address": "426 Fleury Rue O",
                        "country": "CA",
                        "cross_street": "St-Laurent",
                        "formatted_address": "426 Fleury Rue O (St-Laurent), Montr\u00e9al QC H3L 1V7",
                        "locality": "Montreal",
                        "postcode": "H3L 1V7",
                        "region": "QC"
                  },
                  "name": "Sushi 426",
                  "popularity": 0.5590106926570779,
                  "price": 2
            },
            {
                  "distance": 654,
                  "location": {
                        "address": "10820 Millen Ave",
                        "country": "CA",
                        "cross_street": "Gouin",
                        "formatted_address": "10820 Millen Ave (Gouin), Montr\u00e9al QC H2C 0A5",
                        "locality": "Montreal",
                        "postcode": "H2C 0A5",
                        "region": "QC"
                  },
                  "name": "Tutti Frutti d\u00e9jeuner et diner",
                  "popularity": 0.92153198334595,
                  "price": 1
            },
            {
                  "distance": 665,
                  "location": {
                        "address": "1185 Fleury Rue E",
                        "country": "CA",
                        "cross_street": "Georges- baril",
                        "formatted_address": "1185 Fleury Rue E (Georges- baril), Montr\u00e9al QC H2C 1P9",
                        "locality": "Montreal",
                        "postcode": "H2C 1P9",
                        "region": "QC"
                  },
                  "name": "Sushi Wawa",
                  "popularity": 0.8912282361847086,
                  "price": 2
            },
            {
                  "distance": 674,
                  "location": {
                        "address": "10118 Saint-Laurent Blvd",
                        "country": "CA",
                        "cross_street": "",
                        "formatted_address": "10118 Saint-Laurent Blvd, Montr\u00e9al QC H3L 2N7",
                        "locality": "Montreal",
                        "postcode": "H3L 2N7",
                        "region": "QC"
                  },
                  "name": "Les Importations Edika",
                  "popularity": 0.48027062831188494
            },
            {
                  "distance": 717,
                  "location": {
                        "address": "69 Fleury Rue O",
                        "country": "CA",
                        "cross_street": "",
                        "formatted_address": "69 Fleury Rue O, Montreal QC H3L 1T1",
                        "locality": "Montreal",
                        "postcode": "H3L 1T1",
                        "region": "QC"
                  },
                  "name": "Chocolaterie Bonneau",
                  "popularity": 0.36265140045420136,
                  "price": 1
            },
            {
                  "distance": 765,
                  "location": {
                        "address": "1001 Sauve Rue E",
                        "country": "CA",
                        "cross_street": "Saint-Hubert",
                        "formatted_address": "1001 Sauve Rue E (Saint-Hubert), Montr\u00e9al QC",
                        "locality": "Montreal",
                        "region": "QC"
                  },
                  "name": "Casse-Croute March\u00e9 d'Or",
                  "popularity": 0.09350160862982589,
                  "price": 1
            },
            {
                  "distance": 771,
                  "location": {
                        "address": "9920 Saint Laurent Blvd",
                        "country": "CA",
                        "cross_street": "Sauv\u00e9 O.",
                        "formatted_address": "9920 Saint Laurent Blvd (Sauv\u00e9 O.), Montr\u00e9al QC H3L 2N7",
                        "locality": "Montreal",
                        "postcode": "H3L 2N7",
                        "region": "QC"
                  },
                  "name": "Caraibec",
                  "popularity": 0.8549985806207419,
                  "price": 2
            },
            {
                  "distance": 786,
                  "location": {
                        "address": "124 Fleury Rue O",
                        "country": "CA",
                        "formatted_address": "124 Fleury Rue O, Montr\u00e9al QC H3L 1T4",
                        "locality": "Montreal",
                        "postcode": "H3L 1T4",
                        "region": "QC"
                  },
                  "name": "Madre Sur Fleury",
                  "popularity": 0.8650998296744891,
                  "price": 4
            },
            {
                  "distance": 786,
                  "location": {
                        "address": "10710 Saint-Laurent Blvd",
                        "country": "CA",
                        "cross_street": "Henri-Bourassa",
                        "formatted_address": "10710 Saint-Laurent Blvd (Henri-Bourassa), Montr\u00e9al QC H3L 2P7",
                        "locality": "Montreal",
                        "postcode": "H3L 2P7",
                        "region": "QC"
                  },
                  "name": "Bar Ahuntsic",
                  "popularity": 0.9887632475397427,
                  "price": 2
            },
            {
                  "distance": 787,
                  "location": {
                        "address": "1314 Fleury Rue E",
                        "country": "CA",
                        "cross_street": "",
                        "formatted_address": "1314 Fleury Rue E, Montr\u00e9al QC H2C 1R3",
                        "locality": "Montreal",
                        "postcode": "H2C 1R3",
                        "region": "QC"
                  },
                  "name": "William J Walter Fleury",
                  "popularity": 0.9026187547312642
            },
            {
                  "distance": 814,
                  "location": {
                        "address": "138 Fleury Rue O",
                        "country": "CA",
                        "cross_street": "",
                        "formatted_address": "138 Fleury Rue O, Montr\u00e9al QC H3L 1T4",
                        "locality": "Montreal",
                        "postcode": "H3L 1T4",
                        "region": "QC"
                  },
                  "name": "Poissonnerie Fou des \u00celes",
                  "popularity": 0.007617335352006056
            },
            {
                  "distance": 843,
                  "location": {
                        "address": "1348 Fleury Rue E",
                        "country": "CA",
                        "cross_street": "Avenue du Sacr\u00e9-Coeur",
                        "formatted_address": "1348 Fleury Rue E (Avenue du Sacr\u00e9-Coeur), Montr\u00e9al QC H2C 1R3",
                        "locality": "Montreal",
                        "postcode": "H2C 1R3",
                        "region": "QC"
                  },
                  "name": "Le Rendez Vous du Th\u00e9",
                  "popularity": 0.8480672785768357,
                  "price": 2
            },
            {
                  "distance": 867,
                  "location": {
                        "address": "1345 Fleury Rue E",
                        "country": "CA",
                        "cross_street": "",
                        "formatted_address": "1345 Fleury Rue E, Montr\u00e9al QC H2C 1R4",
                        "locality": "Montreal",
                        "postcode": "H2C 1R4",
                        "region": "QC"
                  },
                  "name": "Au Vieux Farfadet",
                  "popularity": 0.0667108251324754
            },
            {
                  "distance": 870,
                  "location": {
                        "address": "9705 Saint-Laurent Blvd",
                        "country": "CA",
                        "cross_street": "Boulevard Saint-Laurent",
                        "formatted_address": "9705 Saint-Laurent Blvd (Boulevard Saint-Laurent), Montr\u00e9al QC H3L 2N4",
                        "locality": "Montreal",
                        "postcode": "H3L 2N4",
                        "region": "QC"
                  },
                  "name": "Domino's Pizza",
                  "popularity": 0.9154759651778955,
                  "price": 1
            },
            {
                  "distance": 871,
                  "location": {
                        "address": "160 Fleury Rue O",
                        "country": "CA",
                        "cross_street": "rue Waverly",
                        "formatted_address": "160 Fleury Rue O (rue Waverly), Montr\u00e9al QC H3L 1T5",
                        "locality": "Montreal",
                        "postcode": "H3L 1T5",
                        "region": "QC"
                  },
                  "name": "Le Romarin",
                  "popularity": 0.9091124148372445,
                  "price": 1
            },
            {
                  "distance": 992,
                  "location": {
                        "address": "1432 Fleury Rue E",
                        "country": "CA",
                        "cross_street": "",
                        "formatted_address": "1432 Fleury Rue E, Montr\u00e9al QC H2C 1R8",
                        "locality": "Montreal",
                        "postcode": "H2C 1R8",
                        "region": "QC"
                  },
                  "name": "Le Pourvoyeur",
                  "popularity": 0.9212954201362604,
                  "price": 3
            },
            {
                  "distance": 994,
                  "location": {
                        "address": "234 Fleury Rue O",
                        "country": "CA",
                        "cross_street": "",
                        "formatted_address": "234 Fleury Rue O, Montr\u00e9al QC H3L 1T7",
                        "locality": "Montreal",
                        "postcode": "H3L 1T7",
                        "region": "QC"
                  },
                  "name": "Cerise Caf\u00e9-Buvette",
                  "popularity": 0.935560181680545
            }
      ],
      "context": {
            "geo_bounds": {
                  "circle": {
                        "center": {
                              "latitude": 45.55340009,
                              "longitude": -73.66225451
                        },
                        "radius": 1000
                  }
            }
      }
}