{
      "results": [
            {
                  "distance": 877,
                  "location": {
                        "address": "2510 Beaubien Rue E",
                        "country": "CA",
                        "cross_street": "d'Iberville",
                        "formatted_address": "2510 Beaubien Rue E (d'Iberville), Montr\u00e9al QC H1Y 1G2",
                        "locality": "Montreal",
                        "postcode": "H1Y 1G2",
                        "region": "QC"
                  },
                  "name": "Pizzeria Geppetto",
                  "popularity": 0.8779570401211204,
                  "price": 2,
                  "rating": 8.4
            },
            {
                  "distance": 894,
                  "location": {
                        "address": "2500 Beaubien Rue E",
                        "country": "CA",
                        "cross_street": "coin d'Iberville",
                        "formatted_address": "2500 Beaubien Rue E (coin d'Iberville), Montr\u00e9al QC H1Y 1G2",
                        "locality": "Montreal",
                        "postcode": "H1Y 1G2",
                        "region": "QC"
                  },
                  "name": "Resto la Grand-M\u00e8re Poule",
                  "popularity": 0.9470926381529144,
                  "price": 1,
                  "rating": 7.6
            },
            {
                  "distance": 712,
                  "location": {
                        "address": "3296 Jean-Talon Rue E",
                        "country": "CA",
                        "cross_street": "Boul.St-Michel",
                        "formatted_address": "3296 Jean-Talon Rue E (Boul.St-Michel), Montr\u00e9al QC H2A 1W3",
                        "locality": "Montreal",
                        "postcode": "H2A 1W3",
                        "region": "QC"
                  },
                  "name": "Bar Zoe Karaoke et Cocktails",
                  "popularity": 0.974522142316427,
                  "price": 2,
                  "rating": 7.6
            },
            {
                  "distance": 923,
                  "location": {
                        "address": "2480 Beaubien Rue E",
                        "country": "CA",
                        "cross_street": "btwn Louis-H\u00e9bert & Iberville",
                        "formatted_address": "2480 Beaubien Rue E (btwn Louis-H\u00e9bert & Iberville), Montr\u00e9al QC H2G 1N4",
                        "locality": "Montreal",
                        "postcode": "H2G 1N4",
                        "region": "QC"
                  },
                  "name": "Bistro D\u00e9tour",
                  "popularity": 0.8823926003028009,
                  "price": 3,
                  "rating": 7.3
            },
            {
                  "distance": 903,
                  "location": {
                        "address": "4023 Beaubien Rue E",
                        "country": "CA",
                        "formatted_address": "4023 Beaubien Rue E, Montr\u00e9al QC H1X 1H7",
                        "locality": "Montreal",
                        "postcode": "H1X 1H7",
                        "region": "QC"
                  },
                  "name": "Beaubien Deli",
                  "popularity": 0.9816072104466314,
                  "price": 2,
                  "rating": 7.2
            },
            {
                  "distance": 71,
                  "location": {
                        "address": "3397 Saint-Zotique Rue E",
                        "country": "CA",
                        "cross_street": "",
                        "formatted_address": "3397 Saint-Zotique Rue E, Montr\u00e9al QC H1X 1C7",
                        "locality": "Montreal",
                        "postcode": "H1X 1C7",
                        "region": "QC"
                  },
                  "name": "Au Coq",
                  "popularity": 0.962043433005299,
                  "price": 1,
                  "rating": 6.7
            },
            {
                  "distance": 350,
                  "location": {
                        "address": "3410 Belanger Rue",
                        "country": "CA",
                        "cross_street": "13th Avenue",
                        "formatted_address": "3410 Belanger Rue (13th Avenue), Montr\u00e9al QC H1X 1A6",
                        "locality": "Montreal",
                        "postcode": "H1X 1A6",
                        "region": "QC"
                  },
                  "name": "Merson's Patisserie",
                  "popularity": 0.8872776305828918,
                  "price": 2,
                  "rating": 5.9
            },
            {
                  "distance": 781,
                  "location": {
                        "address": "3255 Rosemont Blvd",
                        "country": "CA",
                        "formatted_address": "3255 Rosemont Blvd, Montr\u00e9al QC H1X 1K1",
                        "locality": "Montreal",
                        "postcode": "H1X 1K1",
                        "region": "QC"
                  },
                  "name": "Restaurant le Petit Quebec",
                  "popularity": 0.9626703255109765,
                  "price": 1,
                  "rating": 5.2
            },
            {
                  "distance": 240,
                  "location": {
                        "address": "3222 Beaubien Rue E",
                        "country": "CA",
                        "cross_street": "St-Michel",
                        "formatted_address": "3222 Beaubien Rue E (St-Michel), Montr\u00e9al QC H1Y 1H7",
                        "locality": "Montreal",
                        "postcode": "H1Y 1H7",
                        "region": "QC"
                  },
                  "name": "Pho Hung Restaurant",
                  "popularity": 0.03770817562452687,
                  "price": 2
            },
            {
                  "distance": 258,
                  "location": {
                        "address": "3240 Beaubien Rue E",
                        "country": "CA",
                        "cross_street": "",
                        "formatted_address": "3240 Beaubien Rue E, Montr\u00e9al QC H1Y 1H7",
                        "locality": "Montreal",
                        "postcode": "H1Y 1H7",
                        "region": "QC"
                  },
                  "name": "Caf\u00e9 Hologramme",
                  "popularity": 0.2952663701741105,
                  "price": 1
            },
            {
                  "distance": 294,
                  "location": {
                        "address": "3251 Beaubien Rue E",
                        "country": "CA",
                        "cross_street": "",
                        "formatted_address": "3251 Beaubien Rue E, Montr\u00e9al QC H1X 1G4",
                        "locality": "Montreal",
                        "postcode": "H1X 1G4",
                        "region": "QC"
                  },
                  "name": "A&W Restaurant",
                  "popularity": 0.9718253217259651,
                  "price": 1,
                  "store_id": "5590"
            },
            {
                  "distance": 316,
                  "location": {
                        "address": "3350 Beaubien Rue E",
                        "country": "CA",
                        "cross_street": "",
                        "formatted_address": "3350 Beaubien Rue E, Montr\u00e9al QC H1X 1G6",
                        "locality": "Montreal",
                        "postcode": "H1X 1G6",
                        "region": "QC"
                  },
                  "name": "Zytynsky's",
                  "popularity": 0.9171555639666918,
                  "price": 2
            },
            {
                  "distance": 398,
                  "location": {
                        "address": "3124 Beaubien Rue E",
                        "country": "CA",
                        "cross_street": "",
                        "formatted_address": "3124 Beaubien Rue E, Montr\u00e9al QC H1Y 1H3",
                        "locality": "Montreal",
                        "postcode": "H1Y 1H3",
                        "region": "QC"
                  },
                  "name": "Bairrada",
                  "popularity": 0.6641157267221802,
                  "price": 1
            },
            {
                  "distance": 475,
                  "location": {
                        "address": "3391 Belair Rue",
                        "country": "CA",
                        "cross_street": "13e avenue",
                        "formatted_address": "3391 Belair Rue (13e avenue), Montr\u00e9al QC H2A 2A6",
                        "locality": "Montreal",
                        "postcode": "H2A 2A6",
                        "region": "QC"
                  },
                  "name": "Montr\u00e9al Caf\u00e9 Restaurent Carthage",
                  "popularity": 0.8973788796366389,
                  "price": 1
            },
            {
                  "distance": 806,
                  "location": {
                        "address": "2613 Jean Talon Rue E",
                        "country": "CA",
                        "cross_street": "",
                        "formatted_address": "2613 Jean Talon Rue E, Montr\u00e9al QC",
                        "locality": "Montreal",
                        "region": "QC"
                  },
                  "name": "Resto Cafe Tamaris",
                  "popularity": 0.09826835730507191,
                  "price": 2
            },
            {
                  "distance": 812,
                  "location": {
                        "address": "3224 Rosemont Blvd",
                        "country": "CA",
                        "cross_street": "",
                        "formatted_address": "3224 Rosemont Blvd, Montr\u00e9al QC H1Y 1M7",
                        "locality": "Montreal",
                        "postcode": "H1Y 1M7",
                        "region": "QC"
                  },
                  "name": "Poulet 3 Pattes",
                  "popularity": 0.8786430734292203,
                  "price": 2
            },
            {
                  "distance": 838,
                  "location": {
                        "address": "2522 Beaubien Rue E",
                        "country": "CA",
                        "cross_street": "Rue d'Iberville",
                        "formatted_address": "2522 Beaubien Rue E (Rue d'Iberville), Montr\u00e9al QC H1Y 1G2",
                        "locality": "Montreal",
                        "postcode": "H1Y 1G2",
                        "region": "QC"
                  },
                  "name": "La Brass\u00e9e",
                  "popularity": 0.9355483535200606,
                  "price": 1
            },
            {
                  "distance": 872,
                  "location": {
                        "address": "2548 Belanger Rue",
                        "country": "CA",
                        "cross_street": "Belanger",
                        "formatted_address": "2548 Belanger Rue (Belanger), Montr\u00e9al QC H1Y 1A1",
                        "locality": "Montreal",
                        "postcode": "H1Y 1A1",
                        "region": "QC"
                  },
                  "name": "Bar Excel",
                  "popularity": 0.9128974261922785,
                  "price": 3
            },
            {
                  "distance": 957,
                  "location": {
                        "address": "7001 Pie-Ix Blvd",
                        "country": "CA",
                        "cross_street": "",
                        "formatted_address": "7001 Pie-Ix Blvd, Montr\u00e9al QC H2A 2G3",
                        "locality": "Montreal",
                        "postcode": "H2A 2G3",
                        "region": "QC"
                  },
                  "name": "All\u00f4! Mon Coco",
                  "popularity": 0.992335352006056,
                  "price": 2
            },
            {
                  "distance": 975,
                  "location": {
                        "address": "2566 Jean Talon Rue E",
                        "country": "CA",
                        "cross_street": "",
                        "formatted_address": "2566 Jean Talon Rue E, Montr\u00e9al QC H2A 1T9",
                        "locality": "Montreal",
                        "postcode": "H2A 1T9",
                        "region": "QC"
                  },
                  "name": "Kokoriko",
                  "popularity": 0.6628737698713096,
                  "price": 2
            },
            {
                  "distance": 999,
                  "location": {
                        "address": "3924 Jean-Talon Rue E",
                        "country": "CA",
                        "cross_street": "",
                        "formatted_address": "3924 Jean-Talon Rue E, Montr\u00e9al QC H2A 1Y8",
                        "locality": "Montreal",
                        "postcode": "H2A 1Y8",
                        "region": "QC"
                  },
                  "name": "Caf\u00e9 Sable d'Or",
                  "popularity": 0.9942633421650265,
                  "price": 1
            },
            {
                  "distance": 1012,
                  "location": {
                        "address": "2381 Beaubien Rue E",
                        "country": "CA",
                        "cross_street": "",
                        "formatted_address": "2381 Beaubien Rue E, Montr\u00e9al QC H2G 1N3",
                        "locality": "Montreal",
                        "postcode": "H2G 1N3",
                        "region": "QC"
                  },
                  "name": "Le Elsdale",
                  "popularity": 0.9026778955336866,
                  "price": 1
            },
            {
                  "distance": 2774,
                  "location": {
                        "address": "2862 Rosemont Blvd",
                        "country": "CA",
                        "cross_street": "5e Avenue",
                        "formatted_address": "2862 Rosemont Blvd (5e Avenue), Montr\u00e9al QC H1Y 1L7",
                        "locality": "Montreal",
                        "postcode": "H1Y 1L7",
                        "region": "QC"
                  },
                  "name": "O Fuzion",
                  "popularity": 0.09026069265707796,
                  "price": 2
            },
            {
                  "distance": 294,
                  "location": {
                        "address": "3231 Beaubien Rue E",
                        "country": "CA",
                        "formatted_address": "3231 Beaubien Rue E, Montreal QC H1Y 1H6",
                        "locality": "Montreal",
                        "postcode": "H1Y 1H6",
                        "region": "QC"
                  },
                  "name": "Restaurant Famili"
            },
            {
                  "distance": 311,
                  "location": {
                        "address": "3234 Beaubien Rue E",
                        "country": "CA",
                        "formatted_address": "3234 Beaubien Rue E, Montreal QC H1Y 1H7",
                        "locality": "Montreal",
                        "postcode": "H1Y 1H7",
                        "region": "QC"
                  },
                  "name": "Taverne"
            },
            {
                  "distance": 419,
                  "location": {
                        "address": "3181 Belanger Rue",
                        "country": "CA",
                        "formatted_address": "3181 Belanger Rue, Montreal QC H1Y 1B6",
                        "locality": "Montreal",
                        "postcode": "H1Y 1B6",
                        "region": "QC"
                  },
                  "name": "Restaurant Pnt Inc"
            },
            {
                  "distance": 698,
                  "location": {
                        "address": "3436 Jean-Talon Rue E",
                        "country": "CA",
                        "formatted_address": "3436 Jean-Talon Rue E, Montreal QC H2A 1W9",
                        "locality": "Montreal",
                        "postcode": "H2A 1W9",
                        "region": "QC"
                  },
                  "name": "La Kasbah"
            },
            {
                  "distance": 702,
                  "location": {
                        "address": "3296 Jean-Talon Rue E",
                        "country": "CA",
                        "formatted_address": "3296 Jean-Talon Rue E, Montreal QC H2A 1W3",
                        "locality": "Montreal",
                        "postcode": "H2A 1W3",
                        "region": "QC"
                  },
                  "name": "Zo\u00e9 Fondues-Karaoke"
            },
            {
                  "distance": 735,
                  "location": {
                        "address": "3598 Jean Talon Rue E",
                        "country": "CA",
                        "formatted_address": "3598 Jean Talon Rue E, Montreal QC H2A 1X5",
                        "locality": "Montreal",
                        "postcode": "H2A 1X5",
                        "region": "QC"
                  },
                  "name": "Caf\u00e9-resto D\u00e9lices F\u00e8s"
            },
            {
                  "distance": 763,
                  "location": {
                        "address": "3575 Jean-Talon Rue E",
                        "country": "CA",
                        "formatted_address": "3575 Jean-Talon Rue E, Montreal QC H2A 1X4",
                        "locality": "Montreal",
                        "postcode": "H2A 1X4",
                        "region": "QC"
                  },
                  "name": "Caf\u00e9 Resto le M\u00e9dit\u00e9rran\u00e9en"
            },
            {
                  "distance": 782,
                  "location": {
                        "address": "2555 Belanger Rue",
                        "country": "CA",
                        "formatted_address": "2555 Belanger Rue, Montreal QC H1Y 1A3",
                        "locality": "Montreal",
                        "postcode": "H1Y 1A3",
                        "region": "QC"
                  },
                  "name": "Pura Felicita Caf\u00e9 Traiteur"
            },
            {
                  "distance": 839,
                  "location": {
                        "address": "2534 Beaubien Rue E",
                        "country": "CA",
                        "formatted_address": "2534 Beaubien Rue E, Montreal QC H1Y 1G2",
                        "locality": "Montreal",
                        "postcode": "H1Y 1G2",
                        "region": "QC"
                  },
                  "name": "Pat' e Palo"
            },
            {
                  "distance": 897,
                  "location": {
                        "address": "2490 Belanger Rue",
                        "country": "CA",
                        "formatted_address": "2490 Belanger Rue, Montreal QC H2G 1E5",
                        "locality": "Montreal",
                        "postcode": "H2G 1E5",
                        "region": "QC"
                  },
                  "name": "Restaurant Grill Tasqueria la Sharade"
            },
            {
                  "distance": 914,
                  "location": {
                        "address": "2862 Rosemont Blvd",
                        "country": "CA",
                        "formatted_address": "2862 Rosemont Blvd, Montreal QC H1Y 1L7",
                        "locality": "Montreal",
                        "postcode": "H1Y 1L7",
                        "region": "QC"
                  },
                  "name": "Casse-Cro\u00fbte"
            },
            {
                  "distance": 934,
                  "location": {
                        "address": "2583 Jean-Talon Rue E",
                        "country": "CA",
                        "formatted_address": "2583 Jean-Talon Rue E, Montreal QC H2A 1V1",
                        "locality": "Montreal",
                        "postcode": "H2A 1V1",
                        "region": "QC"
                  },
                  "name": "Pamela Sue"
            }
      ],
      "context": {
            "geo_bounds": {
                  "circle": {
                        "center": {
                              "latitude": 45.55686673,
                              "longitude": -73.58930647
                        },
                        "radius": 1000
                  }
            }
      }
}