{
      "results": [
            {
                  "distance": 324,
                  "location": {
                        "address": "114 Fleury Rue O",
                        "country": "CA",
                        "cross_street": "",
                        "formatted_address": "114 Fleury Rue O, Montr\u00e9al QC H3L 1T4",
                        "locality": "Montreal",
                        "postcode": "H3L 1T4",
                        "region": "QC"
                  },
                  "name": "La B\u00eate \u00e0 Pain",
                  "popularity": 0.9146953065859198,
                  "price": 1,
                  "rating": 8.1
            },
            {
                  "distance": 67,
                  "location": {
                        "address": "343 Fleury Rue O",
                        "country": "CA",
                        "cross_street": "Jeanne-Mance",
                        "formatted_address": "343 Fleury Rue O (Jeanne-Mance), Montr\u00e9al QC H3L 1V5",
                        "locality": "Montreal",
                        "postcode": "H3L 1V5",
                        "region": "QC"
                  },
                  "name": "Le Br\u00fbloir",
                  "popularity": 0.9796673921271764,
                  "price": 1,
                  "rating": 8.0
            },
            {
                  "distance": 355,
                  "location": {
                        "address": "96 Fleury Rue O",
                        "country": "CA",
                        "cross_street": "St-Urbain",
                        "formatted_address": "96 Fleury Rue O (St-Urbain), Montr\u00e9al QC H3L 1T2",
                        "locality": "Montreal",
                        "postcode": "H3L 1T2",
                        "region": "QC"
                  },
                  "name": "Restaurant le St-Urbain",
                  "popularity": 0.8887679788039364,
                  "price": 3,
                  "rating": 7.8
            },
            {
                  "distance": 936,
                  "location": {
                        "address": "9705 De. l'Acadie Blvd",
                        "country": "CA",
                        "cross_street": "Boul Sauv\u00e9",
                        "formatted_address": "9705 De. l'Acadie Blvd (Boul Sauv\u00e9), Montr\u00e9al QC H4N 2W2",
                        "locality": "Montreal",
                        "postcode": "H4N 2W2",
                        "region": "QC"
                  },
                  "name": "Patisserie Mahrouse",
                  "popularity": 0.9907030658591975,
                  "rating": 7.6
            },
            {
                  "distance": 931,
                  "location": {
                        "address": "9835 Blvd de l'Acadie",
                        "country": "CA",
                        "cross_street": "",
                        "formatted_address": "9835 Blvd de l'Acadie, Montr\u00e9al QC H4N 2W2",
                        "locality": "Montreal",
                        "postcode": "H4N 2W2",
                        "region": "QC"
                  },
                  "name": "Mikasa Sushi Bar",
                  "popularity": 0.9356074943224829,
                  "price": 2,
                  "rating": 7.6
            },
            {
                  "distance": 556,
                  "location": {
                        "address": "340 Henri-Bourassa Blvd O",
                        "country": "CA",
                        "cross_street": "Tanguay",
                        "formatted_address": "340 Henri-Bourassa Blvd O (Tanguay), Montr\u00e9al QC H3L 1P1",
                        "locality": "Montreal",
                        "postcode": "H3L 1P1",
                        "region": "QC"
                  },
                  "name": "Restaurant l'Oeuforie Matinale",
                  "popularity": 0.9501679598788796,
                  "price": 1,
                  "rating": 7.2
            },
            {
                  "distance": 765,
                  "location": {
                        "address": "9720 St Laurent Blvd",
                        "country": "CA",
                        "cross_street": "Port-Royal",
                        "formatted_address": "9720 St Laurent Blvd (Port-Royal), Montr\u00e9al QC H3L 2N3",
                        "locality": "Montreal",
                        "postcode": "H3L 2N3",
                        "region": "QC"
                  },
                  "name": "Subway",
                  "popularity": 0.9250212906888721,
                  "price": 1,
                  "rating": 6.6,
                  "store_id": "Restaurant #29723"
            },
            {
                  "distance": 944,
                  "location": {
                        "address": "1805 Sauve Rue O",
                        "address_extended": "Suite 101",
                        "country": "CA",
                        "cross_street": "",
                        "formatted_address": "1805 Sauve Rue O, Montr\u00e9al QC H4N 3B8",
                        "locality": "Montreal",
                        "postcode": "H4N 3B8",
                        "region": "QC"
                  },
                  "name": "Solemer",
                  "popularity": 0.9202072293716881,
                  "price": 3,
                  "rating": 6.2
            },
            {
                  "distance": 888,
                  "location": {
                        "address": "9901 Blvd de l'Acadie",
                        "country": "CA",
                        "cross_street": "",
                        "formatted_address": "9901 Blvd de l'Acadie, Montr\u00e9al QC H4N 3K3",
                        "locality": "Montreal",
                        "postcode": "H4N 3K3",
                        "region": "QC"
                  },
                  "name": "A&W Restaurant",
                  "popularity": 0.9576078728236185,
                  "price": 1,
                  "rating": 6.2,
                  "store_id": "5507"
            },
            {
                  "distance": 981,
                  "location": {
                        "address": "9735 Blvd de l'Acadie",
                        "country": "CA",
                        "cross_street": "",
                        "formatted_address": "9735 Blvd de l'Acadie, Montr\u00e9al QC H4N 2W2",
                        "locality": "Montreal",
                        "postcode": "H4N 2W2",
                        "region": "QC"
                  },
                  "name": "Pizza Pizza",
                  "popularity": 0.9087102573807722,
                  "price": 1,
                  "rating": 6.2,
                  "store_id": "317"
            },
            {
                  "distance": 304,
                  "location": {
                        "address": "128 Fleury Rue O",
                        "country": "CA",
                        "cross_street": "",
                        "formatted_address": "128 Fleury Rue O, Montr\u00e9al QC H3L 1T4",
                        "locality": "Montreal",
                        "postcode": "H3L 1T4",
                        "region": "QC"
                  },
                  "name": "Frite Alors",
                  "popularity": 0.8639761544284633,
                  "price": 2,
                  "rating": 6.1
            },
            {
                  "distance": 114,
                  "location": {
                        "address": "234 Fleury Rue O",
                        "country": "CA",
                        "cross_street": "",
                        "formatted_address": "234 Fleury Rue O, Montr\u00e9al QC H3L 1T7",
                        "locality": "Montreal",
                        "postcode": "H3L 1T7",
                        "region": "QC"
                  },
                  "name": "Cerise Caf\u00e9-Buvette",
                  "popularity": 0.935560181680545
            },
            {
                  "distance": 237,
                  "location": {
                        "address": "160 Fleury Rue O",
                        "country": "CA",
                        "cross_street": "rue Waverly",
                        "formatted_address": "160 Fleury Rue O (rue Waverly), Montr\u00e9al QC H3L 1T5",
                        "locality": "Montreal",
                        "postcode": "H3L 1T5",
                        "region": "QC"
                  },
                  "name": "Le Romarin",
                  "popularity": 0.9091124148372445,
                  "price": 1
            },
            {
                  "distance": 295,
                  "location": {
                        "address": "138 Fleury Rue O",
                        "country": "CA",
                        "cross_street": "",
                        "formatted_address": "138 Fleury Rue O, Montr\u00e9al QC H3L 1T4",
                        "locality": "Montreal",
                        "postcode": "H3L 1T4",
                        "region": "QC"
                  },
                  "name": "Poissonnerie Fou des \u00celes",
                  "popularity": 0.007617335352006056
            },
            {
                  "distance": 323,
                  "location": {
                        "address": "124 Fleury Rue O",
                        "country": "CA",
                        "formatted_address": "124 Fleury Rue O, Montr\u00e9al QC H3L 1T4",
                        "locality": "Montreal",
                        "postcode": "H3L 1T4",
                        "region": "QC"
                  },
                  "name": "Madre Sur Fleury",
                  "popularity": 0.8650998296744891,
                  "price": 4
            },
            {
                  "distance": 391,
                  "location": {
                        "address": "69 Fleury Rue O",
                        "country": "CA",
                        "cross_street": "",
                        "formatted_address": "69 Fleury Rue O, Montreal QC H3L 1T1",
                        "locality": "Montreal",
                        "postcode": "H3L 1T1",
                        "region": "QC"
                  },
                  "name": "Chocolaterie Bonneau",
                  "popularity": 0.36265140045420136,
                  "price": 1
            },
            {
                  "distance": 455,
                  "location": {
                        "address": "426 Fleury Rue O",
                        "country": "CA",
                        "cross_street": "St-Laurent",
                        "formatted_address": "426 Fleury Rue O (St-Laurent), Montr\u00e9al QC H3L 1V7",
                        "locality": "Montreal",
                        "postcode": "H3L 1V7",
                        "region": "QC"
                  },
                  "name": "Sushi 426",
                  "popularity": 0.5590106926570779,
                  "price": 2
            },
            {
                  "distance": 522,
                  "location": {
                        "address": "10118 Saint-Laurent Blvd",
                        "country": "CA",
                        "cross_street": "",
                        "formatted_address": "10118 Saint-Laurent Blvd, Montr\u00e9al QC H3L 2N7",
                        "locality": "Montreal",
                        "postcode": "H3L 2N7",
                        "region": "QC"
                  },
                  "name": "Les Importations Edika",
                  "popularity": 0.48027062831188494
            },
            {
                  "distance": 541,
                  "location": {
                        "address": "10 215 Blvd Saint Laurent",
                        "country": "CA",
                        "cross_street": "entre Sauriol & Fleury",
                        "formatted_address": "10 215 Blvd Saint Laurent (entre Sauriol & Fleury), Montr\u00e9al QC H3L 2N5",
                        "locality": "Montreal",
                        "postcode": "H3L 2N5",
                        "region": "QC"
                  },
                  "name": "Boulevard Cafe Bistro Lounge",
                  "popularity": 0.9051499810749433,
                  "price": 2
            },
            {
                  "distance": 552,
                  "location": {
                        "address": "196 Henri-Bourassa Blvd O",
                        "country": "CA",
                        "cross_street": "",
                        "formatted_address": "196 Henri-Bourassa Blvd O, Montr\u00e9al QC H3L 1N3",
                        "locality": "Montreal",
                        "postcode": "H3L 1N3",
                        "region": "QC"
                  },
                  "name": "Pizza Roni",
                  "popularity": 0.9674370741862226,
                  "price": 1
            },
            {
                  "distance": 646,
                  "location": {
                        "address": "290 Port Royal W",
                        "country": "CA",
                        "cross_street": "",
                        "formatted_address": "290 Port Royal W, Montr\u00e9al QC",
                        "locality": "Montreal",
                        "region": "QC"
                  },
                  "name": "Terra Cafe",
                  "popularity": 0.9568745268735807,
                  "price": 1
            },
            {
                  "distance": 748,
                  "location": {
                        "address": "9920 Saint Laurent Blvd",
                        "country": "CA",
                        "cross_street": "Sauv\u00e9 O.",
                        "formatted_address": "9920 Saint Laurent Blvd (Sauv\u00e9 O.), Montr\u00e9al QC H3L 2N7",
                        "locality": "Montreal",
                        "postcode": "H3L 2N7",
                        "region": "QC"
                  },
                  "name": "Caraibec",
                  "popularity": 0.8549985806207419,
                  "price": 2
            },
            {
                  "distance": 753,
                  "location": {
                        "address": "10710 Saint-Laurent Blvd",
                        "country": "CA",
                        "cross_street": "Henri-Bourassa",
                        "formatted_address": "10710 Saint-Laurent Blvd (Henri-Bourassa), Montr\u00e9al QC H3L 2P7",
                        "locality": "Montreal",
                        "postcode": "H3L 2P7",
                        "region": "QC"
                  },
                  "name": "Bar Ahuntsic",
                  "popularity": 0.9887632475397427,
                  "price": 2
            },
            {
                  "distance": 824,
                  "location": {
                        "address": "9705 Saint-Laurent Blvd",
                        "country": "CA",
                        "cross_street": "Boulevard Saint-Laurent",
                        "formatted_address": "9705 Saint-Laurent Blvd (Boulevard Saint-Laurent), Montr\u00e9al QC H3L 2N4",
                        "locality": "Montreal",
                        "postcode": "H3L 2N4",
                        "region": "QC"
                  },
                  "name": "Domino's Pizza",
                  "popularity": 0.9154759651778955,
                  "price": 1
            },
            {
                  "distance": 894,
                  "location": {
                        "address": "1150 Sauve Rue O",
                        "country": "CA",
                        "cross_street": "Birman",
                        "formatted_address": "1150 Sauve Rue O (Birman), Montr\u00e9al QC H4N 0C6",
                        "locality": "Montreal",
                        "postcode": "H4N 0C6",
                        "region": "QC"
                  },
                  "name": "Kokoro Sushi",
                  "popularity": 0.8590083270249811,
                  "price": 2
            },
            {
                  "distance": 896,
                  "location": {
                        "address": "75 de Port Royal Est",
                        "country": "CA",
                        "formatted_address": "75 de Port Royal Est, Montr\u00e9al QC H3L 3T1",
                        "locality": "Montreal",
                        "postcode": "H3L 3T1",
                        "region": "QC"
                  },
                  "name": "Cultures",
                  "popularity": 0.0521030469341408,
                  "price": 1
            },
            {
                  "distance": 971,
                  "location": {
                        "address": "9805 Blvd de l'Acadie",
                        "country": "CA",
                        "cross_street": "",
                        "formatted_address": "9805 Blvd de l'Acadie, Montr\u00e9al QC H4N 2W2",
                        "locality": "Montreal",
                        "postcode": "H4N 2W2",
                        "region": "QC"
                  },
                  "name": "B12 Burger",
                  "popularity": 0.9134415215745647,
                  "price": 1
            },
            {
                  "distance": 53,
                  "location": {
                        "address": "318 Fleury Rue O",
                        "country": "CA",
                        "formatted_address": "318 Fleury Rue O, Montreal QC H3L 1V3",
                        "locality": "Montreal",
                        "postcode": "H3L 1V3",
                        "region": "QC"
                  },
                  "name": "Le Bruloir"
            },
            {
                  "distance": 72,
                  "location": {
                        "address": "335 Fleury Rue O",
                        "country": "CA",
                        "formatted_address": "335 Fleury Rue O, Montreal QC H3L 1V5",
                        "locality": "Montreal",
                        "postcode": "H3L 1V5",
                        "region": "QC"
                  },
                  "name": "Bar Cafe EVA"
            },
            {
                  "distance": 123,
                  "location": {
                        "address": "234 Fleury Rue O",
                        "country": "CA",
                        "formatted_address": "234 Fleury Rue O, Montreal QC",
                        "locality": "Montreal",
                        "region": "QC"
                  },
                  "name": "Le Lucie"
            },
            {
                  "distance": 156,
                  "location": {
                        "address": "370 Fleury Rue O",
                        "country": "CA",
                        "formatted_address": "370 Fleury Rue O, Montreal QC H3L 1V7",
                        "locality": "Montreal",
                        "postcode": "H3L 1V7",
                        "region": "QC"
                  },
                  "name": "Boulangerie et P\u00e2tisserie Mexicaine Patricia"
            },
            {
                  "distance": 185,
                  "location": {
                        "address": "414 Fleury Rue O",
                        "country": "CA",
                        "formatted_address": "414 Fleury Rue O, Montreal QC H3L 1V7",
                        "locality": "Montreal",
                        "postcode": "H3L 1V7",
                        "region": "QC"
                  },
                  "name": "A.J. Gourmet du Monde"
            },
            {
                  "distance": 485,
                  "location": {
                        "address": "31 Fleury Rue O",
                        "country": "CA",
                        "formatted_address": "31 Fleury Rue O, Montreal QC H3L 1S7",
                        "locality": "Montreal",
                        "postcode": "H3L 1S7",
                        "region": "QC"
                  },
                  "name": "Maison de Sushi"
            },
            {
                  "distance": 552,
                  "location": {
                        "address": "740 Blvd de la C\u00f4te-Vertu",
                        "country": "CA",
                        "formatted_address": "740 Blvd de la C\u00f4te-Vertu, Saint-Laurent QC H4L 5C8",
                        "locality": "Saint-Laurent",
                        "postcode": "H4L 5C8",
                        "region": "QC"
                  },
                  "name": "Nouilles Express Halal"
            },
            {
                  "distance": 574,
                  "location": {
                        "address": "391 Henri-Bourassa Blvd O",
                        "country": "CA",
                        "formatted_address": "391 Henri-Bourassa Blvd O, Montreal QC H3L 1P2",
                        "locality": "Montreal",
                        "postcode": "H3L 1P2",
                        "region": "QC"
                  },
                  "name": "L'oeuforie"
            }
      ],
      "context": {
            "geo_bounds": {
                  "circle": {
                        "center": {
                              "latitude": 45.54407915,
                              "longitude": -73.66735741
                        },
                        "radius": 1000
                  }
            }
      }
}