{
      "results": [
            {
                  "distance": 843,
                  "location": {
                        "address": "5456 Sherbrooke Rue O",
                        "country": "CA",
                        "cross_street": "at Addington",
                        "formatted_address": "5456 Sherbrooke Rue O (at Addington), Montr\u00e9al QC H4A 1V9",
                        "locality": "Montreal",
                        "postcode": "H4A 1V9",
                        "region": "QC"
                  },
                  "name": "Chalet Bar B-Q",
                  "popularity": 0.9907385503406511,
                  "price": 2,
                  "rating": 8.8
            },
            {
                  "distance": 577,
                  "location": {
                        "address": "5033 Sherbrooke Rue O",
                        "country": "CA",
                        "cross_street": "Grey Street",
                        "formatted_address": "5033 Sherbrooke Rue O (Grey Street), Montr\u00e9al QC H4A 1S8",
                        "locality": "Montreal",
                        "postcode": "H4A 1S8",
                        "region": "QC"
                  },
                  "name": "Mandy's",
                  "popularity": 0.9639477668433005,
                  "price": 1,
                  "rating": 8.7
            },
            {
                  "distance": 746,
                  "location": {
                        "address": "5338 Sherbrooke Rue O",
                        "country": "CA",
                        "cross_street": "Decarie",
                        "formatted_address": "5338 Sherbrooke Rue O (Decarie), Montr\u00e9al QC H4A 1V5",
                        "locality": "Montreal",
                        "postcode": "H4A 1V5",
                        "region": "QC"
                  },
                  "name": "Boulangerie Chez Fred",
                  "popularity": 0.9809684897804694,
                  "price": 1,
                  "rating": 8.5
            },
            {
                  "distance": 630,
                  "location": {
                        "address": "5175A Sherbrooke Rue O",
                        "country": "CA",
                        "formatted_address": "5175A Sherbrooke Rue O, Montr\u00e9al QC H4A 1T5",
                        "locality": "Montreal",
                        "postcode": "H4A 1T5",
                        "region": "QC"
                  },
                  "name": "Nextdoor Pub & Grill",
                  "popularity": 0.9476840461771385,
                  "price": 1,
                  "rating": 8.4
            },
            {
                  "distance": 921,
                  "location": {
                        "address": "5500 Ave de Monkland",
                        "country": "CA",
                        "formatted_address": "5500 Ave de Monkland, Montr\u00e9al QC H4A 1C7",
                        "locality": "Montreal",
                        "postcode": "H4A 1C7",
                        "region": "QC"
                  },
                  "name": "Boulangerie Premi\u00e8re Moisson",
                  "popularity": 0.9813351627554883,
                  "price": 1,
                  "rating": 8.1
            },
            {
                  "distance": 659,
                  "location": {
                        "address": "5227 Sherbrooke Rue O",
                        "country": "CA",
                        "cross_street": "Northcliffe",
                        "formatted_address": "5227 Sherbrooke Rue O (Northcliffe), Montr\u00e9al QC H4A 1T7",
                        "locality": "Montreal",
                        "postcode": "H4A 1T7",
                        "region": "QC"
                  },
                  "name": "Soba et Sushi Bar",
                  "popularity": 0.9569691521574565,
                  "price": 2,
                  "rating": 8.1
            },
            {
                  "distance": 690,
                  "location": {
                        "address": "378 Victoria Ave",
                        "country": "CA",
                        "formatted_address": "378 Victoria Ave, Westmount QC H3Z 2N4",
                        "locality": "Westmount",
                        "postcode": "H3Z 2N4",
                        "region": "QC"
                  },
                  "name": "Park Restaurant",
                  "popularity": 0.9417234965902046,
                  "price": 2,
                  "rating": 8.1
            },
            {
                  "distance": 980,
                  "location": {
                        "address": "5555 Ave de Monkland",
                        "country": "CA",
                        "cross_street": "",
                        "formatted_address": "5555 Ave de Monkland, Montr\u00e9al QC H4A 1E1",
                        "locality": "Montreal",
                        "postcode": "H4A 1E1",
                        "region": "QC"
                  },
                  "name": "Monkland Taverne",
                  "popularity": 0.8456425056775171,
                  "price": 3,
                  "rating": 7.8
            },
            {
                  "distance": 481,
                  "location": {
                        "address": "4011 Decarie Blvd",
                        "country": "CA",
                        "cross_street": "Notre-Dame-de-Gr\u00e2ce",
                        "formatted_address": "4011 Decarie Blvd (Notre-Dame-de-Gr\u00e2ce), Montr\u00e9al QC H4A 3J8",
                        "locality": "Montreal",
                        "postcode": "H4A 3J8",
                        "region": "QC"
                  },
                  "name": "Orange Caf\u00e9",
                  "popularity": 0.9772544473883422,
                  "price": 1,
                  "rating": 7.7
            },
            {
                  "distance": 901,
                  "location": {
                        "address": "5221 Blvd de Maisonneuve Ouest",
                        "country": "CA",
                        "cross_street": "Northcliffe",
                        "formatted_address": "5221 Blvd de Maisonneuve Ouest (Northcliffe), Montr\u00e9al QC H4A 0A4",
                        "locality": "Montreal",
                        "postcode": "H4A 0A4",
                        "region": "QC"
                  },
                  "name": "Pick Thai",
                  "popularity": 0.9863266464799394,
                  "price": 2,
                  "rating": 7.6
            },
            {
                  "distance": 557,
                  "location": {
                        "address": "4943 Sherbrooke St W",
                        "country": "CA",
                        "formatted_address": "4943 Sherbrooke St W, Montr\u00e9al QC H2Z 1H2",
                        "locality": "Montreal",
                        "postcode": "H2Z 1H2",
                        "region": "QC"
                  },
                  "name": "Starbucks",
                  "popularity": 0.972101673899566,
                  "price": 1,
                  "rating": 7.4,
                  "store_id": "831"
            },
            {
                  "distance": 599,
                  "location": {
                        "address": "5127 Sherbrooke Rue O",
                        "country": "CA",
                        "cross_street": "",
                        "formatted_address": "5127 Sherbrooke Rue O, Montr\u00e9al QC H4A 1T3",
                        "locality": "Montreal",
                        "postcode": "H4A 1T3",
                        "region": "QC"
                  },
                  "name": "The Standard",
                  "popularity": 0.9194620552611658,
                  "price": 1,
                  "rating": 7.4
            },
            {
                  "distance": 674,
                  "location": {
                        "address": "5259 Sherbrooke Rue O",
                        "country": "CA",
                        "cross_street": "",
                        "formatted_address": "5259 Sherbrooke Rue O, Montr\u00e9al QC H4A 1V1",
                        "locality": "Montreal",
                        "postcode": "H4A 1V1",
                        "region": "QC"
                  },
                  "name": "Thai Express",
                  "popularity": 0.9259675435276306,
                  "price": 2,
                  "rating": 6.6,
                  "store_id": "1939"
            },
            {
                  "distance": 975,
                  "location": {
                        "address": "5550 Monkland Ave",
                        "country": "CA",
                        "formatted_address": "5550 Monkland Ave, Montr\u00e9al QC H4A 1C9",
                        "locality": "Montreal",
                        "postcode": "H4A 1C9",
                        "region": "QC"
                  },
                  "name": "Second Cup Coffee Co",
                  "popularity": 0.9391322861468584,
                  "price": 1,
                  "rating": 6.3
            },
            {
                  "distance": 660,
                  "location": {
                        "address": "4241 Decarie Blvd",
                        "country": "CA",
                        "cross_street": "Monkland",
                        "formatted_address": "4241 Decarie Blvd (Monkland), Montr\u00e9al QC H4A 3K4",
                        "locality": "Montreal",
                        "postcode": "H4A 3K4",
                        "region": "QC"
                  },
                  "name": "Quartier-Perse",
                  "popularity": 0.9122232210446631,
                  "rating": 6.2
            },
            {
                  "distance": 761,
                  "location": {
                        "address": "357 Victoria Ave",
                        "country": "CA",
                        "cross_street": "Sommerville",
                        "formatted_address": "357 Victoria Ave (Sommerville), Westmount QC H3Z 2N1",
                        "locality": "Westmount",
                        "postcode": "H3Z 2N1",
                        "region": "QC"
                  },
                  "name": "Importations Cafe Creme",
                  "popularity": 0.8642281463112214,
                  "price": 1,
                  "rating": 6.0
            },
            {
                  "distance": 741,
                  "location": {
                        "address": "2160 Decarie Blvd",
                        "country": "CA",
                        "cross_street": "Corner Sherbrooke W",
                        "formatted_address": "2160 Decarie Blvd (Corner Sherbrooke W), Montr\u00e9al QC H4A 3J3",
                        "locality": "Montreal",
                        "postcode": "H4A 3J3",
                        "region": "QC"
                  },
                  "name": "Tim Hortons",
                  "popularity": 0.9646574564723694,
                  "price": 1,
                  "rating": 5.9
            },
            {
                  "distance": 896,
                  "location": {
                        "address": "5181 Blvd de Maisonneuve Ouest",
                        "country": "CA",
                        "cross_street": "Station Vend\u00f4me",
                        "formatted_address": "5181 Blvd de Maisonneuve Ouest (Station Vend\u00f4me), Montr\u00e9al QC H4A 1Z3",
                        "locality": "Montreal",
                        "postcode": "H4A 1Z3",
                        "region": "QC"
                  },
                  "name": "Restaurant Copoli",
                  "popularity": 0.5637892694928085,
                  "price": 1,
                  "rating": 5.9
            },
            {
                  "distance": 853,
                  "location": {
                        "address": "5065 Blvd de Maisonneuve Ouest",
                        "country": "CA",
                        "formatted_address": "5065 Blvd de Maisonneuve Ouest, Montr\u00e9al QC H4A 1Y9",
                        "locality": "Montreal",
                        "postcode": "H4A 1Y9",
                        "region": "QC"
                  },
                  "name": "Teheran Restaurant",
                  "popularity": 0.9074328160484482,
                  "price": 2,
                  "rating": 5.4
            },
            {
                  "distance": 555,
                  "location": {
                        "address": "5011 Sherbrooke Rue O",
                        "country": "CA",
                        "formatted_address": "5011 Sherbrooke Rue O, Westmount QC H3Z 1H5",
                        "locality": "Westmount",
                        "postcode": "H3Z 1H5",
                        "region": "QC"
                  },
                  "name": "McDonald's",
                  "popularity": 0.9869807811531308,
                  "price": 1,
                  "rating": 5.0,
                  "store_id": "40002"
            },
            {
                  "distance": 556,
                  "location": {
                        "address": "5003 Sherbrooke Rue O",
                        "country": "CA",
                        "cross_street": "",
                        "formatted_address": "5003 Sherbrooke Rue O, Westmount QC H3Z 1H5",
                        "locality": "Westmount",
                        "postcode": "H3Z 1H5",
                        "region": "QC"
                  },
                  "name": "Copper Branch",
                  "popularity": 0.8146311221326721,
                  "price": 2
            },
            {
                  "distance": 586,
                  "location": {
                        "address": "5128 Sherbrooke Rue O",
                        "country": "CA",
                        "cross_street": "",
                        "formatted_address": "5128 Sherbrooke Rue O, Montr\u00e9al QC",
                        "locality": "Montreal",
                        "region": "QC"
                  },
                  "name": "Rejuice Nutrition",
                  "popularity": 0.8773774602573807,
                  "price": 1
            },
            {
                  "distance": 589,
                  "location": {
                        "address": "4865 Sherbrooke Rue O",
                        "country": "CA",
                        "cross_street": "",
                        "formatted_address": "4865 Sherbrooke Rue O, Westmount QC H3Z 1G9",
                        "locality": "Westmount",
                        "postcode": "H3Z 1G9",
                        "region": "QC"
                  },
                  "name": "C\u00f4t\u00e9 cuisine",
                  "popularity": 0.6683199008059516,
                  "price": 3
            },
            {
                  "distance": 601,
                  "location": {
                        "address": "5100 Sherbrooke Rue O",
                        "country": "CA",
                        "cross_street": "",
                        "formatted_address": "5100 Sherbrooke Rue O, Montr\u00e9al QC H4A 1T1",
                        "locality": "Montreal",
                        "postcode": "H4A 1T1",
                        "region": "QC"
                  },
                  "name": "MeiWei Dumplings Restaurant",
                  "popularity": 0.8265755109765329,
                  "price": 1
            },
            {
                  "distance": 601,
                  "location": {
                        "address": "4922 Sherbrooke Rue O",
                        "country": "CA",
                        "cross_street": "",
                        "formatted_address": "4922 Sherbrooke Rue O, Westmount QC H3Z 1H3",
                        "locality": "Westmount",
                        "postcode": "H3Z 1H3",
                        "region": "QC"
                  },
                  "name": "La Sobremesa",
                  "popularity": 0.8735275883446993,
                  "price": 2
            },
            {
                  "distance": 603,
                  "location": {
                        "address": "4896 Sherbrooke Rue O",
                        "country": "CA",
                        "cross_street": "",
                        "formatted_address": "4896 Sherbrooke Rue O, Westmount QC H3Z 1H1",
                        "locality": "Westmount",
                        "postcode": "H3Z 1H1",
                        "region": "QC"
                  },
                  "name": "Aux Vivres Westmount",
                  "popularity": 0.9392436453812771,
                  "price": 2
            },
            {
                  "distance": 657,
                  "location": {
                        "address": "5223 Sherbrooke Rue O",
                        "country": "CA",
                        "cross_street": "",
                        "formatted_address": "5223 Sherbrooke Rue O, Montr\u00e9al QC H4A 1T7",
                        "locality": "Montreal",
                        "postcode": "H4A 1T7",
                        "region": "QC"
                  },
                  "name": "Labothery",
                  "popularity": 0.8519114307342922
            },
            {
                  "distance": 698,
                  "location": {
                        "address": "374 Victoria Ave",
                        "country": "CA",
                        "cross_street": "",
                        "formatted_address": "374 Victoria Ave, Westmount QC H3Z 2N4",
                        "locality": "Westmount",
                        "postcode": "H3Z 2N4",
                        "region": "QC"
                  },
                  "name": "Bistro la Franquette",
                  "popularity": 0.4066955982641042
            },
            {
                  "distance": 738,
                  "location": {
                        "address": "351 Prince Albert Ave",
                        "country": "CA",
                        "cross_street": "",
                        "formatted_address": "351 Prince Albert Ave, Westmount QC H3Z 2N9",
                        "locality": "Westmount",
                        "postcode": "H3Z 2N9",
                        "region": "QC"
                  },
                  "name": "Toucheh",
                  "popularity": 0.9355238685678859,
                  "price": 2
            },
            {
                  "distance": 748,
                  "location": {
                        "address": "364 Victoria Ave",
                        "country": "CA",
                        "cross_street": "",
                        "formatted_address": "364 Victoria Ave, Westmount QC H3Z 2N4",
                        "locality": "Westmount",
                        "postcode": "H3Z 2N4",
                        "region": "QC"
                  },
                  "name": "Pizzeria No. 900",
                  "popularity": 0.7513949163050218,
                  "price": 1
            },
            {
                  "distance": 856,
                  "location": {
                        "address": "4843 Sherbrooke Rue W",
                        "country": "CA",
                        "cross_street": "",
                        "formatted_address": "4843 Sherbrooke Rue W, Westmount QC H3Z 1G6",
                        "locality": "Westmount",
                        "postcode": "H3Z 1G6",
                        "region": "QC"
                  },
                  "name": "Depanneur",
                  "popularity": 0.48824280847842544,
                  "price": 1
            },
            {
                  "distance": 868,
                  "location": {
                        "address": "318 Victoria Ave",
                        "country": "CA",
                        "cross_street": "Victoria Ave",
                        "formatted_address": "318 Victoria Ave (Victoria Ave), Westmount QC H3Z 2M8",
                        "locality": "Westmount",
                        "postcode": "H3Z 2M8",
                        "region": "QC"
                  },
                  "name": "Leonidas Chocolate Culture",
                  "popularity": 0.87042777433354,
                  "price": 1
            },
            {
                  "distance": 920,
                  "location": {
                        "address": "5311 Blvd de Maisonneuve O",
                        "address_extended": "# 101",
                        "country": "CA",
                        "cross_street": "Decarie",
                        "formatted_address": "5311 Blvd de Maisonneuve O (Decarie), Montr\u00e9al QC H4A 1Z5",
                        "locality": "Montreal",
                        "postcode": "H4A 1Z5",
                        "region": "QC"
                  },
                  "name": "Caribbean Food Factory",
                  "popularity": 0.9848599545798638,
                  "price": 2
            },
            {
                  "distance": 938,
                  "location": {
                        "address": "5526 Monkland Ave",
                        "country": "CA",
                        "cross_street": "",
                        "formatted_address": "5526 Monkland Ave, Montr\u00e9al QC H4A 1C7",
                        "locality": "Montreal",
                        "postcode": "H4A 1C7",
                        "region": "QC"
                  },
                  "name": "Columbus Caf\u00e9",
                  "popularity": 0.9608014761544285,
                  "price": 1
            },
            {
                  "distance": 946,
                  "location": {
                        "address": "5533 Ave de Monkland",
                        "country": "CA",
                        "cross_street": "at Girouard",
                        "formatted_address": "5533 Ave de Monkland (at Girouard), Montr\u00e9al QC H4A 1C8",
                        "locality": "Montreal",
                        "postcode": "H4A 1C8",
                        "region": "QC"
                  },
                  "name": "Sushi Star",
                  "popularity": 0.9022993943981832,
                  "price": 2
            }
      ],
      "context": {
            "geo_bounds": {
                  "circle": {
                        "center": {
                              "latitude": 45.48046706,
                              "longitude": -73.61122308
                        },
                        "radius": 1000
                  }
            }
      }
}