{
      "results": [
            {
                  "distance": 630,
                  "location": {
                        "address": "4673 Jarry Rue E",
                        "country": "CA",
                        "formatted_address": "4673 Jarry Rue E, Montr\u00e9al QC H1R 1X6",
                        "locality": "Montreal",
                        "postcode": "H1R 1X6",
                        "region": "QC"
                  },
                  "name": "Phuket",
                  "popularity": 0.988526684330053,
                  "price": 2,
                  "rating": 8.5
            },
            {
                  "distance": 874,
                  "location": {
                        "address": "4310 Belanger Rue",
                        "country": "CA",
                        "cross_street": "",
                        "formatted_address": "4310 Belanger Rue, Montr\u00e9al QC H1T 1A7",
                        "locality": "Montreal",
                        "postcode": "H1T 1A7",
                        "region": "QC"
                  },
                  "name": "Restobar Chez Toutou",
                  "popularity": 0.9815717259651779,
                  "price": 2,
                  "rating": 7.5
            },
            {
                  "distance": 951,
                  "location": {
                        "address": "5106 Jean-Talon Rue E",
                        "country": "CA",
                        "cross_street": "",
                        "formatted_address": "5106 Jean-Talon Rue E, Montr\u00e9al QC H1S 1K7",
                        "locality": "Montreal",
                        "postcode": "H1S 1K7",
                        "region": "QC"
                  },
                  "name": "Maison Istanbul",
                  "popularity": 0.9577734670704012,
                  "price": 2,
                  "rating": 7.2
            },
            {
                  "distance": 779,
                  "location": {
                        "address": "5005 Jean-Talon Rue E",
                        "country": "CA",
                        "cross_street": "at Viau",
                        "formatted_address": "5005 Jean-Talon Rue E (at Viau), Saint-Leonard QC H1S 1K5",
                        "locality": "Saint-L\u00e9onard",
                        "postcode": "H1S 1K5",
                        "region": "QC"
                  },
                  "name": "Tim Hortons",
                  "popularity": 0.9980483535200606,
                  "price": 1,
                  "rating": 7.1
            },
            {
                  "distance": 873,
                  "location": {
                        "address": "5060 Jean-Talon Rue E",
                        "country": "CA",
                        "cross_street": "",
                        "formatted_address": "5060 Jean-Talon Rue E, Saint-Leonard QC H1S 1K6",
                        "locality": "Saint-L\u00e9onard",
                        "postcode": "H1S 1K6",
                        "region": "QC"
                  },
                  "name": "A&W Restaurant",
                  "popularity": 0.976367335352006,
                  "price": 1,
                  "rating": 7.1,
                  "store_id": "5195"
            },
            {
                  "distance": 697,
                  "location": {
                        "address": "8101 Pie-Ix Blvd",
                        "country": "CA",
                        "cross_street": "rue Jarry Est",
                        "formatted_address": "8101 Pie-Ix Blvd (rue Jarry Est), Montr\u00e9al QC H1Z 3T5",
                        "locality": "Montreal",
                        "postcode": "H1Z 3T5",
                        "region": "QC"
                  },
                  "name": "Subway",
                  "popularity": 0.9873083838001514,
                  "price": 1,
                  "rating": 6.4,
                  "store_id": "29313"
            },
            {
                  "distance": 746,
                  "location": {
                        "address": "4100 Jean-Talon St E",
                        "address_extended": "Le Boulevard Shopping Centre",
                        "country": "CA",
                        "cross_street": "",
                        "formatted_address": "4100 Jean-Talon St E, Montreal QC H1S 2V4",
                        "locality": "Montreal",
                        "postcode": "H1S 2V4",
                        "region": "QC"
                  },
                  "name": "Subway",
                  "popularity": 0.9066048448145344,
                  "price": 1,
                  "rating": 6.4,
                  "store_id": "26167"
            },
            {
                  "distance": 910,
                  "location": {
                        "address": "5040 Jean-Talon Rue E",
                        "address_extended": "Place Michelet",
                        "country": "CA",
                        "cross_street": "Boul. Viau",
                        "formatted_address": "5040 Jean-Talon Rue E (Boul. Viau), Saint-Leonard QC H1S 1K6",
                        "locality": "Saint-L\u00e9onard",
                        "postcode": "H1S 1K6",
                        "region": "QC"
                  },
                  "name": "Thai Express",
                  "popularity": 0.9278009084027252,
                  "price": 2,
                  "rating": 6.0,
                  "store_id": "205"
            },
            {
                  "distance": 442,
                  "location": {
                        "address": "4275 Jean-Talon Rue E",
                        "country": "CA",
                        "formatted_address": "4275 Jean-Talon Rue E, Montr\u00e9al QC H1S 1J9",
                        "locality": "Montreal",
                        "postcode": "H1S 1J9",
                        "region": "QC"
                  },
                  "name": "Fu Lam",
                  "popularity": 0.9726769492808478,
                  "rating": 5.7
            },
            {
                  "distance": 769,
                  "location": {
                        "address": "4900 Jean-Talon Rue E",
                        "country": "CA",
                        "cross_street": "coin Viau",
                        "formatted_address": "4900 Jean-Talon Rue E (coin Viau), Saint-Leonard QC H1S 2V9",
                        "locality": "Saint-L\u00e9onard",
                        "postcode": "H1S 2V9",
                        "region": "QC"
                  },
                  "name": "McDonald's",
                  "popularity": 0.8837055261165784,
                  "price": 1,
                  "rating": 5.6
            },
            {
                  "distance": 746,
                  "location": {
                        "address": "8100 Pie Ix Blvd",
                        "country": "CA",
                        "formatted_address": "8100 Pie Ix Blvd, Montr\u00e9al QC H1Z 4P1",
                        "locality": "Montreal",
                        "postcode": "H1Z 4P1",
                        "region": "QC"
                  },
                  "name": "Tim Hortons",
                  "popularity": 0.9972203822861468,
                  "price": 1,
                  "rating": 5.5
            },
            {
                  "distance": 837,
                  "location": {
                        "address": "5090 Metropolitain Blvd E",
                        "country": "CA",
                        "cross_street": "at Boischatel",
                        "formatted_address": "5090 Metropolitain Blvd E (at Boischatel), Saint-Leonard QC H1S 2V7",
                        "locality": "Saint-L\u00e9onard",
                        "postcode": "H1S 2V7",
                        "region": "QC"
                  },
                  "name": "McDonald's",
                  "popularity": 0.9976816805450416,
                  "price": 1,
                  "rating": 4.9,
                  "store_id": "26046"
            },
            {
                  "distance": 271,
                  "location": {
                        "address": "7600 Viau Blvd",
                        "country": "CA",
                        "cross_street": "",
                        "formatted_address": "7600 Viau Blvd, Montr\u00e9al QC H1S 2P3",
                        "locality": "Montreal",
                        "postcode": "H1S 2P3",
                        "region": "QC"
                  },
                  "name": "Yeh",
                  "popularity": 0.2801499810749432,
                  "price": 1
            },
            {
                  "distance": 350,
                  "location": {
                        "address": "7600 Viau Blvd",
                        "country": "CA",
                        "cross_street": "",
                        "formatted_address": "7600 Viau Blvd, Saint-Leonard QC H1S 2P3",
                        "locality": "Saint-L\u00e9onard",
                        "postcode": "H1S 2P3",
                        "region": "QC"
                  },
                  "name": "Restaurant Istambul Gunes Kebab",
                  "popularity": 0.9856051286903861,
                  "price": 2
            },
            {
                  "distance": 530,
                  "location": {
                        "address": "4247 Jean-Talon Rue E",
                        "country": "CA",
                        "formatted_address": "4247 Jean-Talon Rue E, Saint-Leonard QC H1S 1J9",
                        "locality": "Saint-L\u00e9onard",
                        "postcode": "H1S 1J9",
                        "region": "QC"
                  },
                  "name": "Harvey's",
                  "popularity": 0.9872610711582135,
                  "price": 1,
                  "store_id": "2474"
            },
            {
                  "distance": 567,
                  "location": {
                        "address": "4755 Metropolitain",
                        "country": "CA",
                        "cross_street": "",
                        "formatted_address": "4755 Metropolitain, Montr\u00e9al QC",
                        "locality": "Montreal",
                        "region": "QC"
                  },
                  "name": "JeeRa Lounge",
                  "popularity": 0.1345689818319455,
                  "price": 3
            },
            {
                  "distance": 597,
                  "location": {
                        "address": "4549 Jarry Rue E",
                        "country": "CA",
                        "cross_street": "",
                        "formatted_address": "4549 Jarry Rue E, Saint-Leonard QC H1R 1X6",
                        "locality": "Saint-L\u00e9onard",
                        "postcode": "H1R 1X6",
                        "region": "QC"
                  },
                  "name": "Pho Mai",
                  "popularity": 0.9818792581377744,
                  "price": 2
            },
            {
                  "distance": 610,
                  "location": {
                        "address": "4745 Jean-Talon Rue E",
                        "country": "CA",
                        "cross_street": "",
                        "formatted_address": "4745 Jean-Talon Rue E, Montr\u00e9al QC H1S 1K4",
                        "locality": "Montreal",
                        "postcode": "H1S 1K4",
                        "region": "QC"
                  },
                  "name": "Restaurant TGV",
                  "popularity": 0.9070897993943982
            },
            {
                  "distance": 625,
                  "location": {
                        "address": "4647 Jarry Rue E",
                        "country": "CA",
                        "cross_street": "",
                        "formatted_address": "4647 Jarry Rue E, Saint-Leonard QC H1R 1X6",
                        "locality": "Saint-Leonard",
                        "postcode": "H1R 1X6",
                        "region": "QC"
                  },
                  "name": "Restaurant Binh Minh",
                  "popularity": 0.561222558667676,
                  "price": 2
            },
            {
                  "distance": 678,
                  "location": {
                        "address": "4136 Jean- Talon Rue E",
                        "country": "CA",
                        "cross_street": "",
                        "formatted_address": "4136 Jean- Talon Rue E, Montr\u00e9al QC H1S 2V4",
                        "locality": "Montreal",
                        "postcode": "H1S 2V4",
                        "region": "QC"
                  },
                  "name": "Basha",
                  "popularity": 0.38836582134746406,
                  "price": 2
            },
            {
                  "distance": 759,
                  "location": {
                        "address": "3924 Jean-Talon Rue E",
                        "country": "CA",
                        "cross_street": "",
                        "formatted_address": "3924 Jean-Talon Rue E, Montr\u00e9al QC H2A 1Y8",
                        "locality": "Montreal",
                        "postcode": "H2A 1Y8",
                        "region": "QC"
                  },
                  "name": "Caf\u00e9 Sable d'Or",
                  "popularity": 0.9942633421650265,
                  "price": 1
            },
            {
                  "distance": 840,
                  "location": {
                        "address": "4919 Jarry Rue E",
                        "country": "CA",
                        "cross_street": "",
                        "formatted_address": "4919 Jarry Rue E, Saint-Leonard QC H1R 1Y1",
                        "locality": "Saint-L\u00e9onard",
                        "postcode": "H1R 1Y1",
                        "region": "QC"
                  },
                  "name": "Du Boucher a la Table",
                  "popularity": 0.9879471044663134,
                  "price": 2
            },
            {
                  "distance": 861,
                  "location": {
                        "address": "4541 Belanger Rue",
                        "country": "CA",
                        "cross_street": "30th Ave",
                        "formatted_address": "4541 Belanger Rue (30th Ave), Montr\u00e9al QC H1T 1B7",
                        "locality": "Montreal",
                        "postcode": "H1T 1B7",
                        "region": "QC"
                  },
                  "name": "Akwaba",
                  "popularity": 0.9619842922028766,
                  "price": 2
            },
            {
                  "distance": 872,
                  "location": {
                        "address": "4326 Belanger Rue",
                        "country": "CA",
                        "cross_street": "26e Avenue",
                        "formatted_address": "4326 Belanger Rue (26e Avenue), Montr\u00e9al QC H1T 1A7",
                        "locality": "Montreal",
                        "postcode": "H1T 1A7",
                        "region": "QC"
                  },
                  "name": "Sushi Bako",
                  "popularity": 0.10050387963663891,
                  "price": 2
            },
            {
                  "distance": 875,
                  "location": {
                        "address": "4444A Belanger Rue",
                        "country": "CA",
                        "cross_street": "",
                        "formatted_address": "4444A Belanger Rue, Montreal QC H1T 1B5",
                        "locality": "Montreal",
                        "postcode": "H1T 1B5",
                        "region": "QC"
                  },
                  "name": "Cornet Glac\u00e9",
                  "popularity": 0.10896101438304315,
                  "price": 1
            },
            {
                  "distance": 887,
                  "location": {
                        "address": "7001 Pie-Ix Blvd",
                        "country": "CA",
                        "cross_street": "",
                        "formatted_address": "7001 Pie-Ix Blvd, Montr\u00e9al QC H2A 2G3",
                        "locality": "Montreal",
                        "postcode": "H2A 2G3",
                        "region": "QC"
                  },
                  "name": "All\u00f4! Mon Coco",
                  "popularity": 0.992335352006056,
                  "price": 2
            },
            {
                  "distance": 925,
                  "location": {
                        "address": "7190 Michelet Rue",
                        "country": "CA",
                        "cross_street": "",
                        "formatted_address": "7190 Michelet Rue, Montreal QC H1S 2L9",
                        "locality": "Saint-L\u00e9onard",
                        "postcode": "H1S 2L9",
                        "region": "QC"
                  },
                  "name": "St-Hubert Express",
                  "popularity": 0.9727952308856926,
                  "price": 2,
                  "store_id": "100171"
            },
            {
                  "distance": 317,
                  "location": {
                        "address": "7600 Viau Blvd",
                        "country": "CA",
                        "formatted_address": "7600 Viau Blvd, Saint-Leonard QC H1S 2P3",
                        "locality": "Saint-Leonard",
                        "postcode": "H1S 2P3",
                        "region": "QC"
                  },
                  "name": "Le Dejeuner Cosmopolitain"
            },
            {
                  "distance": 420,
                  "location": {
                        "address": "7515 Pie-Ix Blvd",
                        "country": "CA",
                        "formatted_address": "7515 Pie-Ix Blvd, Montreal QC H2A 2G7",
                        "locality": "Montreal",
                        "postcode": "H2A 2G7",
                        "region": "QC"
                  },
                  "name": "Real Nightlife Productions"
            },
            {
                  "distance": 515,
                  "location": {
                        "address": "4460 Jean-Talon Rue E",
                        "country": "CA",
                        "formatted_address": "4460 Jean-Talon Rue E, Saint-Leonard QC H1S 1K1",
                        "locality": "Saint-Leonard",
                        "postcode": "H1S 1K1",
                        "region": "QC"
                  },
                  "name": "Pho Khanh"
            },
            {
                  "distance": 515,
                  "location": {
                        "address": "4460 Jean Talon Rue E",
                        "country": "CA",
                        "formatted_address": "4460 Jean Talon Rue E, Saint-Leonard QC H1S 1K1",
                        "locality": "Saint-Leonard",
                        "postcode": "H1S 1K1",
                        "region": "QC"
                  },
                  "name": "Cabana Dacilor"
            },
            {
                  "distance": 587,
                  "location": {
                        "address": "4134 Jean-Talon Rue E",
                        "country": "CA",
                        "formatted_address": "4134 Jean-Talon Rue E, Montreal QC H1S 2V4",
                        "locality": "Montreal",
                        "postcode": "H1S 2V4",
                        "region": "QC"
                  },
                  "name": "Pizza Go"
            },
            {
                  "distance": 589,
                  "location": {
                        "address": "4664 Jarry Rue E",
                        "country": "CA",
                        "formatted_address": "4664 Jarry Rue E, Saint-Leonard QC H1R 1X3",
                        "locality": "Saint-Leonard",
                        "postcode": "H1R 1X3",
                        "region": "QC"
                  },
                  "name": "Cafe Capo-Chino"
            },
            {
                  "distance": 590,
                  "location": {
                        "address": "4696 Jarry Rue E",
                        "country": "CA",
                        "formatted_address": "4696 Jarry Rue E, Saint-Leonard QC H1R 1X3",
                        "locality": "Saint-Leonard",
                        "postcode": "H1R 1X3",
                        "region": "QC"
                  },
                  "name": "Restaurant barbec tropical"
            },
            {
                  "distance": 597,
                  "location": {
                        "address": "4688 Jarry Rue E",
                        "country": "CA",
                        "formatted_address": "4688 Jarry Rue E, Saint-Leonard QC H1R 1X3",
                        "locality": "Saint-Leonard",
                        "postcode": "H1R 1X3",
                        "region": "QC"
                  },
                  "name": "Cafe Sino"
            }
      ],
      "context": {
            "geo_bounds": {
                  "circle": {
                        "center": {
                              "latitude": 45.57237806,
                              "longitude": -73.59370463
                        },
                        "radius": 1000
                  }
            }
      }
}