{
      "results": [
            {
                  "distance": 802,
                  "location": {
                        "address": "5524 Saint Patrick Rue",
                        "address_extended": "Suite 200",
                        "country": "CA",
                        "cross_street": "",
                        "formatted_address": "5524 Saint Patrick Rue, Montr\u00e9al QC H4E 1A8",
                        "locality": "Montreal",
                        "postcode": "H4E 1A8",
                        "region": "QC"
                  },
                  "name": "McKiernan Luncheonette",
                  "popularity": 0.9810867713853142,
                  "price": 2,
                  "rating": 8.4
            },
            {
                  "distance": 502,
                  "location": {
                        "address": "6588 Monk Blvd",
                        "country": "CA",
                        "cross_street": "",
                        "formatted_address": "6588 Monk Blvd, Montr\u00e9al QC H4E 3J1",
                        "locality": "Montreal",
                        "postcode": "H4E 3J1",
                        "region": "QC"
                  },
                  "name": "Restaurant Pizza Nino",
                  "popularity": 0.9347795230885693,
                  "price": 4,
                  "rating": 7.9
            },
            {
                  "distance": 708,
                  "location": {
                        "address": "2376 Allard Rue",
                        "country": "CA",
                        "cross_street": "",
                        "formatted_address": "2376 Allard Rue, Montr\u00e9al QC H4E 2K9",
                        "locality": "Montreal",
                        "postcode": "H4E 2K9",
                        "region": "QC"
                  },
                  "name": "Caf\u00e9 Central",
                  "popularity": 0.9587906888720666,
                  "price": 1,
                  "rating": 7.8
            },
            {
                  "distance": 705,
                  "location": {
                        "address": "2851 Allard Rue",
                        "country": "CA",
                        "cross_street": "",
                        "formatted_address": "2851 Allard Rue, Montr\u00e9al QC H4E 2M1",
                        "locality": "Montreal",
                        "postcode": "H4E 2M1",
                        "region": "QC"
                  },
                  "name": "Dilallo Burger Original 1929",
                  "popularity": 0.9933289174867524,
                  "price": 1,
                  "rating": 7.7
            },
            {
                  "distance": 150,
                  "location": {
                        "address": "6125 Monk Blvd",
                        "country": "CA",
                        "cross_street": "Jolicoeur",
                        "formatted_address": "6125 Monk Blvd (Jolicoeur), Montr\u00e9al QC H4E 3H5",
                        "locality": "Montreal",
                        "postcode": "H4E 3H5",
                        "region": "QC"
                  },
                  "name": "Tim Hortons",
                  "popularity": 0.9925719152157456,
                  "price": 2,
                  "rating": 6.6
            },
            {
                  "distance": 182,
                  "location": {
                        "address": "6150 Monk Blvd",
                        "country": "CA",
                        "cross_street": "Jolicoeur",
                        "formatted_address": "6150 Monk Blvd (Jolicoeur), Montr\u00e9al QC H4E 3H6",
                        "locality": "Montreal",
                        "postcode": "H4E 3H6",
                        "region": "QC"
                  },
                  "name": "Restaurant Deli Green Stop",
                  "popularity": 0.9044284632853898,
                  "price": 1,
                  "rating": 6.6
            },
            {
                  "distance": 160,
                  "location": {
                        "address": "6201 Monk Blvd",
                        "country": "CA",
                        "cross_street": "Jolicoeur",
                        "formatted_address": "6201 Monk Blvd (Jolicoeur), Montr\u00e9al QC H4E 3H8",
                        "locality": "Montreal",
                        "postcode": "H4E 3H8",
                        "region": "QC"
                  },
                  "name": "Subway",
                  "popularity": 0.8584524034822104,
                  "price": 1,
                  "rating": 6.6,
                  "store_id": "27037"
            },
            {
                  "distance": 202,
                  "location": {
                        "address": "6021 Monk Blvd",
                        "country": "CA",
                        "cross_street": "",
                        "formatted_address": "6021 Monk Blvd, Montr\u00e9al QC H4E 3H5",
                        "locality": "Montreal",
                        "postcode": "H4E 3H5",
                        "region": "QC"
                  },
                  "name": "Maffeo\u2019s Poulet Frit",
                  "popularity": 0.9375591408024224,
                  "price": 1
            },
            {
                  "distance": 204,
                  "location": {
                        "address": "6222 Monk Blvd",
                        "country": "CA",
                        "cross_street": "Jolicoeur",
                        "formatted_address": "6222 Monk Blvd (Jolicoeur), Montr\u00e9al QC H4E 3H7",
                        "locality": "Montreal",
                        "postcode": "H4E 3H7",
                        "region": "QC"
                  },
                  "name": "Chez Ping Restaurant",
                  "popularity": 0.9477550151400455,
                  "price": 1
            },
            {
                  "distance": 284,
                  "location": {
                        "address": "5941 Monk Blvd",
                        "country": "CA",
                        "cross_street": "Biencourt",
                        "formatted_address": "5941 Monk Blvd (Biencourt), Montr\u00e9al QC H4E 3H5",
                        "locality": "Montreal",
                        "postcode": "H4E 3H5",
                        "region": "QC"
                  },
                  "name": "Souchi bar \u00e0 sushi",
                  "popularity": 0.7497516086298259,
                  "price": 2
            },
            {
                  "distance": 286,
                  "location": {
                        "address": "6361 Monk Blvd",
                        "country": "CA",
                        "cross_street": "",
                        "formatted_address": "6361 Monk Blvd, Montr\u00e9al QC H4E 3H8",
                        "locality": "Montreal",
                        "postcode": "H4E 3H8",
                        "region": "QC"
                  },
                  "name": "Archibald & Alistair",
                  "popularity": 0.03835872445117335,
                  "price": 1
            },
            {
                  "distance": 290,
                  "location": {
                        "address": "5980 Monk Blvd",
                        "country": "CA",
                        "cross_street": "",
                        "formatted_address": "5980 Monk Blvd, Montr\u00e9al QC H4E 3H6",
                        "locality": "Montreal",
                        "postcode": "H4E 3H6",
                        "region": "QC"
                  },
                  "name": "Cinq\u00e0sept",
                  "popularity": 0.9719081188493566,
                  "price": 1
            },
            {
                  "distance": 304,
                  "location": {
                        "address": "6375 Monk Blvd",
                        "country": "CA",
                        "cross_street": "",
                        "formatted_address": "6375 Monk Blvd, Montr\u00e9al QC H4E 3H8",
                        "locality": "Montreal",
                        "postcode": "H4E 3H8",
                        "region": "QC"
                  },
                  "name": "U.V.E.",
                  "popularity": 0.6655587623012869,
                  "price": 2
            },
            {
                  "distance": 327,
                  "location": {
                        "address": "5900 Monk Blvd",
                        "country": "CA",
                        "cross_street": "",
                        "formatted_address": "5900 Monk Blvd, Montr\u00e9al QC",
                        "locality": "Montreal",
                        "region": "QC"
                  },
                  "name": "Chef Pascal Inc. H.Q.",
                  "popularity": 0.01847558667676003,
                  "price": 2
            },
            {
                  "distance": 335,
                  "location": {
                        "address": "5906 Monk Blvd",
                        "country": "CA",
                        "cross_street": "",
                        "formatted_address": "5906 Monk Blvd, Montr\u00e9al QC H4E 3H4",
                        "locality": "Montreal",
                        "postcode": "H4E 3H4",
                        "region": "QC"
                  },
                  "name": "Le Lunch Box Comptoir",
                  "popularity": 0.12628926949280847,
                  "price": 2
            },
            {
                  "distance": 430,
                  "location": {
                        "address": "6556 Monk Blvd",
                        "country": "CA",
                        "cross_street": "Springland",
                        "formatted_address": "6556 Monk Blvd (Springland), Montr\u00e9al QC H4E 3J1",
                        "locality": "Montreal",
                        "postcode": "H4E 3J1",
                        "region": "QC"
                  },
                  "name": "Ville-\u00c9mard Bagels",
                  "popularity": 0.8834689629068887,
                  "price": 1
            },
            {
                  "distance": 442,
                  "location": {
                        "address": "6540 Monk Blvd",
                        "country": "CA",
                        "cross_street": "",
                        "formatted_address": "6540 Monk Blvd, Montr\u00e9al QC H4E 3J1",
                        "locality": "Montreal",
                        "postcode": "H4E 3J1",
                        "region": "QC"
                  },
                  "name": "Cafe Collab",
                  "popularity": 0.839598315669947,
                  "price": 1
            },
            {
                  "distance": 600,
                  "location": {
                        "address": "6688 Monk Blvd",
                        "country": "CA",
                        "cross_street": "Boul allard",
                        "formatted_address": "6688 Monk Blvd (Boul allard), Montr\u00e9al QC H4E 3J1",
                        "locality": "Montreal",
                        "postcode": "H4E 3J1",
                        "region": "QC"
                  },
                  "name": "Sports Rock Cafe",
                  "popularity": 0.9659230696442089
            },
            {
                  "distance": 680,
                  "location": {
                        "address": "2437 Allard Rue",
                        "country": "CA",
                        "cross_street": "Beaulieu",
                        "formatted_address": "2437 Allard Rue (Beaulieu), Montr\u00e9al QC H4E 2L3",
                        "locality": "Montreal",
                        "postcode": "H4E 2L3",
                        "region": "QC"
                  },
                  "name": "Gourmet Aldo",
                  "popularity": 0.8908024224072673,
                  "price": 1
            },
            {
                  "distance": 681,
                  "location": {
                        "address": "5530 Saint-Patrick Rue",
                        "address_extended": "Suite 2210",
                        "country": "CA",
                        "formatted_address": "5530 Saint-Patrick Rue, Montr\u00e9al QC H4E 1A8",
                        "locality": "Montreal",
                        "postcode": "H4E 1A8",
                        "region": "QC"
                  },
                  "name": "Caf\u00e9 Dominion",
                  "popularity": 0.8904830620741863,
                  "price": 1
            },
            {
                  "distance": 697,
                  "location": {
                        "address": "5544 Saint Patrick Rue",
                        "country": "CA",
                        "cross_street": "Rue Briand",
                        "formatted_address": "5544 Saint Patrick Rue (Rue Briand), Montr\u00e9al QC H4E 1A8",
                        "locality": "Montreal",
                        "postcode": "H4E 1A8",
                        "region": "QC"
                  },
                  "name": "TT Caf\u00e9",
                  "popularity": 0.9790168433005298,
                  "price": 1
            },
            {
                  "distance": 847,
                  "location": {
                        "address": "5594 Saint Patrick Rue",
                        "country": "CA",
                        "cross_street": "",
                        "formatted_address": "5594 Saint Patrick Rue, Montr\u00e9al QC H4E 4N7",
                        "locality": "Montreal",
                        "postcode": "H4E 4N7",
                        "region": "QC"
                  },
                  "name": "The Wave",
                  "popularity": 0.5488739591218774,
                  "price": 3
            },
            {
                  "distance": 963,
                  "location": {
                        "address": "5590 Laurendeau Rue",
                        "country": "CA",
                        "cross_street": "Le Caron",
                        "formatted_address": "5590 Laurendeau Rue (Le Caron), Montr\u00e9al QC H4E 3W3",
                        "locality": "Montreal",
                        "postcode": "H4E 3W3",
                        "region": "QC"
                  },
                  "name": "Yo & Co Espresso Bar",
                  "popularity": 0.9572293716881151,
                  "price": 1
            },
            {
                  "distance": 990,
                  "location": {
                        "address": "5651 Eadie Rue",
                        "country": "CA",
                        "cross_street": "",
                        "formatted_address": "5651 Eadie Rue, Montr\u00e9al QC H4E 3S9",
                        "locality": "Montreal",
                        "postcode": "H4E 3S9",
                        "region": "QC"
                  },
                  "name": "Purple Haze",
                  "popularity": 0.4194975397426192,
                  "price": 3
            },
            {
                  "distance": 56,
                  "location": {
                        "address": "2633 Jolicoeur Rue",
                        "country": "CA",
                        "formatted_address": "2633 Jolicoeur Rue, Montreal QC H4E 1Y5",
                        "locality": "Montreal",
                        "postcode": "H4E 1Y5",
                        "region": "QC"
                  },
                  "name": "Aj's Bar & Restaurant"
            },
            {
                  "distance": 131,
                  "location": {
                        "address": "2421 Jolicoeur Rue",
                        "country": "CA",
                        "formatted_address": "2421 Jolicoeur Rue, Montreal QC H4E 1Y1",
                        "locality": "Montreal",
                        "postcode": "H4E 1Y1",
                        "region": "QC"
                  },
                  "name": "Paradis Nutrition"
            },
            {
                  "distance": 146,
                  "location": {
                        "address": "2417 Jolicoeur Rue",
                        "country": "CA",
                        "formatted_address": "2417 Jolicoeur Rue, Montreal QC H4E 1Y1",
                        "locality": "Montreal",
                        "postcode": "H4E 1Y1",
                        "region": "QC"
                  },
                  "name": "Bar Mirabelle"
            },
            {
                  "distance": 213,
                  "location": {
                        "address": "6021 Monk Blvd",
                        "country": "CA",
                        "formatted_address": "6021 Monk Blvd, Montreal QC H4E 3H5",
                        "locality": "Montreal",
                        "postcode": "H4E 3H5",
                        "region": "QC"
                  },
                  "name": "Restaurant Monk"
            },
            {
                  "distance": 299,
                  "location": {
                        "address": "6375 Monk Blvd",
                        "country": "CA",
                        "formatted_address": "6375 Monk Blvd, Montreal QC H4E 3H8",
                        "locality": "Montreal",
                        "postcode": "H4E 3H8",
                        "region": "QC"
                  },
                  "name": "Bar et Lounge Universit\u00e9 de Ville-Emard Inc"
            },
            {
                  "distance": 318,
                  "location": {
                        "address": "5917 Monk Blvd",
                        "country": "CA",
                        "formatted_address": "5917 Monk Blvd, Montreal QC H4E 3H5",
                        "locality": "Montreal",
                        "postcode": "H4E 3H5",
                        "region": "QC"
                  },
                  "name": "Bardeco Restaurant"
            },
            {
                  "distance": 335,
                  "location": {
                        "address": "5901 Monk Blvd",
                        "country": "CA",
                        "formatted_address": "5901 Monk Blvd, Montreal QC H4E 3H5",
                        "locality": "Montreal",
                        "postcode": "H4E 3H5",
                        "region": "QC"
                  },
                  "name": "Taverne R V"
            },
            {
                  "distance": 351,
                  "location": {
                        "address": "2110 Jolicoeur Rue",
                        "country": "CA",
                        "formatted_address": "2110 Jolicoeur Rue, Montreal QC H4E 1X6",
                        "locality": "Montreal",
                        "postcode": "H4E 1X6",
                        "region": "QC"
                  },
                  "name": "Restaurant Carmen"
            },
            {
                  "distance": 363,
                  "location": {
                        "address": "5831 Monk Blvd",
                        "country": "CA",
                        "formatted_address": "5831 Monk Blvd, Montreal QC H4E 3H2",
                        "locality": "Montreal",
                        "postcode": "H4E 3H2",
                        "region": "QC"
                  },
                  "name": "Crunchy Restaurant"
            },
            {
                  "distance": 366,
                  "location": {
                        "address": "6445 Monk Blvd",
                        "country": "CA",
                        "formatted_address": "6445 Monk Blvd, Montreal QC H4E 3H8",
                        "locality": "Montreal",
                        "postcode": "H4E 3H8",
                        "region": "QC"
                  },
                  "name": "Royal R\u00f4tisserie Moderne"
            },
            {
                  "distance": 368,
                  "location": {
                        "address": "6445 Monk Blvd",
                        "country": "CA",
                        "formatted_address": "6445 Monk Blvd, Montreal QC H4E 3H8",
                        "locality": "Montreal",
                        "postcode": "H4E 3H8",
                        "region": "QC"
                  },
                  "name": "Restaurant Utopia"
            }
      ],
      "context": {
            "geo_bounds": {
                  "circle": {
                        "center": {
                              "latitude": 45.45670283,
                              "longitude": -73.59764269
                        },
                        "radius": 1000
                  }
            }
      }
}