{
      "results": [
            {
                  "distance": 757,
                  "location": {
                        "address": "709B Jarry Rue E",
                        "country": "CA",
                        "cross_street": "",
                        "formatted_address": "709B Jarry Rue E, Montr\u00e9al QC H2P 1W2",
                        "locality": "Montreal",
                        "postcode": "H2P 1W2",
                        "region": "QC"
                  },
                  "name": "Baristello & Co",
                  "popularity": 0.9224664080242241,
                  "price": 1,
                  "rating": 8.3
            },
            {
                  "distance": 873,
                  "location": {
                        "address": "8115 Papineau Ave",
                        "country": "CA",
                        "cross_street": "coin Jarry Est",
                        "formatted_address": "8115 Papineau Ave (coin Jarry Est), Montr\u00e9al QC H2E 2H7",
                        "locality": "Montreal",
                        "postcode": "H2E 2H7",
                        "region": "QC"
                  },
                  "name": "Tim Hortons",
                  "popularity": 0.9937783875851628,
                  "price": 1,
                  "rating": 8.0
            },
            {
                  "distance": 597,
                  "location": {
                        "address": "755 Cremazie Blvd E",
                        "country": "CA",
                        "cross_street": "Chateaubriand",
                        "formatted_address": "755 Cremazie Blvd E (Chateaubriand), Montr\u00e9al QC H2M 1M1",
                        "locality": "Montreal",
                        "postcode": "H2M 1M1",
                        "region": "QC"
                  },
                  "name": "Patate Rouge",
                  "popularity": 0.9723812452687358,
                  "price": 1,
                  "rating": 7.7
            },
            {
                  "distance": 856,
                  "location": {
                        "address": "615 Jarry Rue E",
                        "country": "CA",
                        "formatted_address": "615 Jarry Rue E, Montr\u00e9al QC H2P 1V8",
                        "locality": "Montreal",
                        "postcode": "H2P 1V8",
                        "region": "QC"
                  },
                  "name": "Restaurant Da Lillo",
                  "popularity": 0.9266180923542771,
                  "price": 2,
                  "rating": 7.5
            },
            {
                  "distance": 965,
                  "location": {
                        "address": "8500 Saint-Denis Rue",
                        "country": "CA",
                        "cross_street": "coin Li\u00e8ge",
                        "formatted_address": "8500 Saint-Denis Rue (coin Li\u00e8ge), Montr\u00e9al QC H2P 2H2",
                        "locality": "Montreal",
                        "postcode": "H2P 2H2",
                        "region": "QC"
                  },
                  "name": "Caf\u00e9 in",
                  "popularity": 0.83736279333838,
                  "price": 1,
                  "rating": 7.0
            },
            {
                  "distance": 520,
                  "location": {
                        "address": "790 Cremazie Blvd E",
                        "country": "CA",
                        "cross_street": "coin avenue de Ch\u00e2teaubriand",
                        "formatted_address": "790 Cremazie Blvd E (coin avenue de Ch\u00e2teaubriand), Montr\u00e9al QC H2P 1G3",
                        "locality": "Montreal",
                        "postcode": "H2P 1G3",
                        "region": "QC"
                  },
                  "name": "Tim Hortons",
                  "popularity": 0.9834760598031794,
                  "price": 1,
                  "rating": 6.8
            },
            {
                  "distance": 953,
                  "location": {
                        "address": "552 Jarry Rue E",
                        "country": "CA",
                        "cross_street": "coin Lajeunesse",
                        "formatted_address": "552 Jarry Rue E (coin Lajeunesse), Montr\u00e9al QC H2P 1V5",
                        "locality": "Montreal",
                        "postcode": "H2P 1V5",
                        "region": "QC"
                  },
                  "name": "Taverne Jarry",
                  "popularity": 0.8387940007570023,
                  "price": 2,
                  "rating": 6.7
            },
            {
                  "distance": 255,
                  "location": {
                        "address": "8400 Christophe-Colomb Ave",
                        "country": "CA",
                        "cross_street": "",
                        "formatted_address": "8400 Christophe-Colomb Ave, Montr\u00e9al QC H2P 1X3",
                        "locality": "Montreal",
                        "postcode": "H2P 1X3",
                        "region": "QC"
                  },
                  "name": "A&W Restaurant",
                  "popularity": 0.9881600113550341,
                  "price": 1,
                  "rating": 6.5,
                  "store_id": "5346"
            },
            {
                  "distance": 921,
                  "location": {
                        "address": "8753 Lajeunesse Rue",
                        "country": "CA",
                        "cross_street": "Cr\u00e9mazie",
                        "formatted_address": "8753 Lajeunesse Rue (Cr\u00e9mazie), Montr\u00e9al QC H2M 1R7",
                        "locality": "Montreal",
                        "postcode": "H2M 1R7",
                        "region": "QC"
                  },
                  "name": "Brasserie du M\u00e9tro",
                  "popularity": 0.9003004352763059,
                  "price": 1,
                  "rating": 6.5
            },
            {
                  "distance": 704,
                  "location": {
                        "address": "1280 Jarry Rue E",
                        "country": "CA",
                        "cross_street": "",
                        "formatted_address": "1280 Jarry Rue E, Montr\u00e9al QC H2P 1X1",
                        "locality": "Montreal",
                        "postcode": "H2P 1X1",
                        "region": "QC"
                  },
                  "name": "Subway",
                  "popularity": 0.9300955715367146,
                  "price": 1,
                  "rating": 6.4,
                  "store_id": "26612"
            },
            {
                  "distance": 864,
                  "location": {
                        "address": "1700 Jarry Rue E",
                        "country": "CA",
                        "cross_street": "",
                        "formatted_address": "1700 Jarry Rue E, Montr\u00e9al QC H2E 1B3",
                        "locality": "Montreal",
                        "postcode": "H2E 1B3",
                        "region": "QC"
                  },
                  "name": "KFC",
                  "popularity": 0.9714349924299773,
                  "price": 1,
                  "rating": 6.1
            },
            {
                  "distance": 690,
                  "location": {
                        "address": "801 Jarry Rue E",
                        "country": "CA",
                        "cross_street": "St-Hubert",
                        "formatted_address": "801 Jarry Rue E (St-Hubert), Montr\u00e9al QC H2P 1W6",
                        "locality": "Montreal",
                        "postcode": "H2P 1W6",
                        "region": "QC"
                  },
                  "name": "Lundis Au Soleil",
                  "popularity": 0.9364118092354277,
                  "price": 2
            },
            {
                  "distance": 707,
                  "location": {
                        "address": "8099 Saint-Hubert Rue",
                        "country": "CA",
                        "cross_street": "Jarry",
                        "formatted_address": "8099 Saint-Hubert Rue (Jarry), Montr\u00e9al QC H2R 2P4",
                        "locality": "Montreal",
                        "postcode": "H2R 2P4",
                        "region": "QC"
                  },
                  "name": "Lokma P\u00e2tisserie-Caf\u00e9",
                  "popularity": 0.8353874905374716,
                  "price": 1
            },
            {
                  "distance": 722,
                  "location": {
                        "address": "751 Jarry Rue E",
                        "country": "CA",
                        "cross_street": "",
                        "formatted_address": "751 Jarry Rue E, Montr\u00e9al QC H2P 1W3",
                        "locality": "Montreal",
                        "postcode": "H2P 1W3",
                        "region": "QC"
                  },
                  "name": "Fanfare Jarry",
                  "popularity": 0.9510314155942468,
                  "price": 1
            },
            {
                  "distance": 722,
                  "location": {
                        "address": "1270 Jarry Rue E",
                        "country": "CA",
                        "cross_street": "",
                        "formatted_address": "1270 Jarry Rue E, Montr\u00e9al QC H2P 1X1",
                        "locality": "Montreal",
                        "postcode": "H2P 1X1",
                        "region": "QC"
                  },
                  "name": "Pizza Pizza",
                  "popularity": 0.2194596896290689,
                  "price": 1,
                  "store_id": "335"
            },
            {
                  "distance": 758,
                  "location": {
                        "address": "738 Jarry Rue E",
                        "country": "CA",
                        "formatted_address": "738 Jarry Rue E, Montr\u00e9al QC H2P 1V9",
                        "locality": "Montreal",
                        "postcode": "H2P 1V9",
                        "region": "QC"
                  },
                  "name": "Restaurant Mylys",
                  "popularity": 0.8673944928084785,
                  "price": 2
            },
            {
                  "distance": 787,
                  "location": {
                        "address": "1534 Jarry Rue E",
                        "country": "CA",
                        "cross_street": "",
                        "formatted_address": "1534 Jarry Rue E, Montr\u00e9al QC H2E 1A9",
                        "locality": "Montreal",
                        "postcode": "H2E 1A9",
                        "region": "QC"
                  },
                  "name": "Pizza Montreal",
                  "popularity": 0.9646456283118849,
                  "price": 1
            },
            {
                  "distance": 810,
                  "location": {
                        "address": "676 Jarry Rue E",
                        "country": "CA",
                        "cross_street": "",
                        "formatted_address": "676 Jarry Rue E, Montr\u00e9al QC H2P 1V9",
                        "locality": "Montreal",
                        "postcode": "H2P 1V9",
                        "region": "QC"
                  },
                  "name": "Pho Do",
                  "popularity": 0.897284254352763,
                  "price": 2
            },
            {
                  "distance": 837,
                  "location": {
                        "address": "1660 Jarry Rue E",
                        "country": "CA",
                        "cross_street": "",
                        "formatted_address": "1660 Jarry Rue E, Montr\u00e9al QC H2E 1B3",
                        "locality": "Montreal",
                        "postcode": "H2E 1B3",
                        "region": "QC"
                  },
                  "name": "Le Gras Dur",
                  "popularity": 0.8562287093111279,
                  "price": 2
            },
            {
                  "distance": 860,
                  "location": {
                        "address": "608 Jarry E",
                        "country": "CA",
                        "cross_street": "",
                        "formatted_address": "608 Jarry E, Montr\u00e9al QC H2P 1V7",
                        "locality": "Montreal",
                        "postcode": "H2P 1V7",
                        "region": "QC"
                  },
                  "name": "B\u00eap",
                  "popularity": 0.8465887585162756,
                  "price": 2
            },
            {
                  "distance": 863,
                  "location": {
                        "address": "618 Jarry Rue E",
                        "country": "CA",
                        "cross_street": "",
                        "formatted_address": "618 Jarry Rue E, Montr\u00e9al QC H2P 1V7",
                        "locality": "Montreal",
                        "postcode": "H2P 1V7",
                        "region": "QC"
                  },
                  "name": "Jack le Coq",
                  "popularity": 0.9669639477668432,
                  "price": 1
            },
            {
                  "distance": 877,
                  "location": {
                        "address": "1420 Legendre Rue E",
                        "country": "CA",
                        "cross_street": "Andre-Grasset",
                        "formatted_address": "1420 Legendre Rue E (Andre-Grasset), Montr\u00e9al QC H2M 1H5",
                        "locality": "Montreal",
                        "postcode": "H2M 1H5",
                        "region": "QC"
                  },
                  "name": "Petit Nguyen",
                  "popularity": 0.966514477668433,
                  "price": 2
            },
            {
                  "distance": 917,
                  "location": {
                        "address": "8762 Lajeunesse Rue",
                        "country": "CA",
                        "formatted_address": "8762 Lajeunesse Rue, Montr\u00e9al QC H2M 1R6",
                        "locality": "Montreal",
                        "postcode": "H2M 1R6",
                        "region": "QC"
                  },
                  "name": "Restaurant Da Remo",
                  "popularity": 0.14357021196063588
            },
            {
                  "distance": 1000,
                  "location": {
                        "address": "501 Jarry Rue E",
                        "country": "CA",
                        "cross_street": "Berri",
                        "formatted_address": "501 Jarry Rue E (Berri), Montr\u00e9al QC H2P 1V4",
                        "locality": "Montreal",
                        "postcode": "H2P 1V4",
                        "region": "QC"
                  },
                  "name": "Basha",
                  "popularity": 0.3892056207418622,
                  "price": 1
            },
            {
                  "distance": 1095,
                  "location": {
                        "address": "632 Jarry Rue E",
                        "country": "CA",
                        "cross_street": "",
                        "formatted_address": "632 Jarry Rue E, Montr\u00e9al QC H2P 1V7",
                        "locality": "Montreal",
                        "postcode": "H2P 1V7",
                        "region": "QC"
                  },
                  "name": "Restaurant Las Palmas",
                  "popularity": 0.8688966691900075,
                  "price": 2
            },
            {
                  "distance": 251,
                  "location": {
                        "address": "8400 Christophe-Colomb Ave",
                        "country": "CA",
                        "formatted_address": "8400 Christophe-Colomb Ave, Montreal QC H2P 1X3",
                        "locality": "Montreal",
                        "postcode": "H2P 1X3",
                        "region": "QC"
                  },
                  "name": "A & W Christophe Colomb"
            },
            {
                  "distance": 762,
                  "location": {
                        "address": "8144 Marquette Rue",
                        "country": "CA",
                        "formatted_address": "8144 Marquette Rue, Montreal QC H2E 2G2",
                        "locality": "Montreal",
                        "postcode": "H2E 2G2",
                        "region": "QC"
                  },
                  "name": "Chez Junior"
            },
            {
                  "distance": 806,
                  "location": {
                        "address": "651 Jarry Rue E",
                        "country": "CA",
                        "formatted_address": "651 Jarry Rue E, Montreal QC H2P 1W1",
                        "locality": "Montreal",
                        "postcode": "H2P 1W1",
                        "region": "QC"
                  },
                  "name": "El Compadre"
            },
            {
                  "distance": 806,
                  "location": {
                        "address": "651 Jarry Rue E",
                        "country": "CA",
                        "formatted_address": "651 Jarry Rue E, Montreal QC H2P 1W1",
                        "locality": "Montreal",
                        "postcode": "H2P 1W1",
                        "region": "QC"
                  },
                  "name": "Cafe Coin Express"
            },
            {
                  "distance": 820,
                  "location": {
                        "address": "1590 Jarry Rue E",
                        "country": "CA",
                        "formatted_address": "1590 Jarry Rue E, Montreal QC H2E 1B2",
                        "locality": "Montreal",
                        "postcode": "H2E 1B2",
                        "region": "QC"
                  },
                  "name": "Caf\u00e9 Bar Cosenza"
            },
            {
                  "distance": 849,
                  "location": {
                        "address": "7950 St-Hubert Rue",
                        "country": "CA",
                        "formatted_address": "7950 St-Hubert Rue, Montreal QC H2R 2P3",
                        "locality": "Montreal",
                        "postcode": "H2R 2P3",
                        "region": "QC"
                  },
                  "name": "Osteria Gallo"
            },
            {
                  "distance": 852,
                  "location": {
                        "address": "1700 Jarry Rue E",
                        "country": "CA",
                        "formatted_address": "1700 Jarry Rue E, Montreal QC H2E 1B3",
                        "locality": "Montreal",
                        "postcode": "H2E 1B3",
                        "region": "QC"
                  },
                  "name": "Restaurant PFK"
            },
            {
                  "distance": 930,
                  "location": {
                        "address": "552 Jarry Rue E",
                        "country": "CA",
                        "formatted_address": "552 Jarry Rue E, Montreal QC",
                        "locality": "Montreal",
                        "region": "QC"
                  },
                  "name": "Le Petit Cafe de la Taverne Jarry"
            },
            {
                  "distance": 949,
                  "location": {
                        "address": "8591 Saint-Denis Rue",
                        "country": "CA",
                        "formatted_address": "8591 Saint-Denis Rue, Montreal QC H2P 2H4",
                        "locality": "Montreal",
                        "postcode": "H2P 2H4",
                        "region": "QC"
                  },
                  "name": "Damsar Inc"
            }
      ],
      "context": {
            "geo_bounds": {
                  "circle": {
                        "center": {
                              "latitude": 45.552123,
                              "longitude": -73.630103
                        },
                        "radius": 1000
                  }
            }
      }
}