{
      "results": [
            {
                  "distance": 927,
                  "location": {
                        "address": "3250 Henri-Bourassa Blvd E",
                        "address_extended": "Magasins Couche Tard C-Store",
                        "country": "CA",
                        "cross_street": "",
                        "formatted_address": "3250 Henri-Bourassa Blvd E, Montreal-Nord QC H1H 1H4",
                        "locality": "Montr\u00e9al-Nord",
                        "postcode": "H1H 1H4",
                        "region": "QC"
                  },
                  "name": "Subway",
                  "popularity": 0.8871238644965935,
                  "price": 1,
                  "rating": 6.4,
                  "store_id": "29728"
            },
            {
                  "distance": 243,
                  "location": {
                        "address": "3611 Henri-Bourassa Blvd E",
                        "country": "CA",
                        "cross_street": "Saint-Vital",
                        "formatted_address": "3611 Henri-Bourassa Blvd E (Saint-Vital), Montreal-Nord QC H1H 1J5",
                        "locality": "Montr\u00e9al-Nord",
                        "postcode": "H1H 1J5",
                        "region": "QC"
                  },
                  "name": "Tim Hortons",
                  "popularity": 0.9898750946252839,
                  "price": 1,
                  "rating": 5.3
            },
            {
                  "distance": 347,
                  "location": {
                        "address": "3570 Henri-Bourassa Blvd E",
                        "country": "CA",
                        "cross_street": "",
                        "formatted_address": "3570 Henri-Bourassa Blvd E, Montr\u00e9al QC H1H 1J3",
                        "locality": "Montreal",
                        "postcode": "H1H 1J3",
                        "region": "QC"
                  },
                  "name": "Agent Gourmand",
                  "popularity": 0.6722416729750189
            },
            {
                  "distance": 496,
                  "location": {
                        "address": "4031 Henri-Bourassa Blvd E",
                        "country": "CA",
                        "cross_street": "",
                        "formatted_address": "4031 Henri-Bourassa Blvd E, Montreal-Nord QC H1H 1L2",
                        "locality": "Montreal-Nord",
                        "postcode": "H1H 1L2",
                        "region": "QC"
                  },
                  "name": "Vincent Sous Marin Inc",
                  "popularity": 0.995848315669947,
                  "price": 1
            },
            {
                  "distance": 894,
                  "location": {
                        "address": "4304 Henri-Bourassa Blvd E",
                        "country": "CA",
                        "cross_street": "",
                        "formatted_address": "4304 Henri-Bourassa Blvd E, Montr\u00e9al QC H1H 1L8",
                        "locality": "Montreal",
                        "postcode": "H1H 1L8",
                        "region": "QC"
                  },
                  "name": "P\u00e2tisserie le Savoir-Faire",
                  "popularity": 0.8727526495079485,
                  "price": 1
            },
            {
                  "distance": 920,
                  "location": {
                        "address": "6491 Beaubien Rue E",
                        "country": "CA",
                        "cross_street": "",
                        "formatted_address": "6491 Beaubien Rue E, Montr\u00e9al QC H1M 1B1",
                        "locality": "Montreal",
                        "postcode": "H1M 1B1",
                        "region": "QC"
                  },
                  "name": "Le Nouveau Paragon",
                  "popularity": 0.3875023656320969,
                  "price": 2
            },
            {
                  "distance": 958,
                  "location": {
                        "address": "3630 Blvd de la Concorde E",
                        "country": "CA",
                        "cross_street": "",
                        "formatted_address": "3630 Blvd de la Concorde E, Laval QC H7E 2C9",
                        "locality": "Laval",
                        "postcode": "H7E 2C9",
                        "region": "QC"
                  },
                  "name": "Chair de Poule",
                  "popularity": 0.3175935017406052,
                  "price": 2
            },
            {
                  "distance": 969,
                  "location": {
                        "address": "3738 Blvd de la Concorde Est",
                        "country": "CA",
                        "cross_street": "",
                        "formatted_address": "3738 Blvd de la Concorde Est, Laval QC H7E 2C9",
                        "locality": "Laval",
                        "postcode": "H7E 2C9",
                        "region": "QC"
                  },
                  "name": "La Pizza a Theo",
                  "popularity": 0.11559403731143443,
                  "price": 1
            },
            {
                  "distance": 615,
                  "location": {
                        "address": "10914 Saint Vital Blvd",
                        "country": "CA",
                        "formatted_address": "10914 Saint Vital Blvd, Montreal-Nord QC H1H 4T4",
                        "locality": "Montreal-Nord",
                        "postcode": "H1H 4T4",
                        "region": "QC"
                  },
                  "name": "Patisserie Lien Phat"
            },
            {
                  "distance": 791,
                  "location": {
                        "address": "3650 Monselet Rue",
                        "country": "CA",
                        "formatted_address": "3650 Monselet Rue, Montreal-Nord QC H1H 2A9",
                        "locality": "Montreal-Nord",
                        "postcode": "H1H 2A9",
                        "region": "QC"
                  },
                  "name": "Ouyoun Baghdad Resto"
            },
            {
                  "distance": 873,
                  "location": {
                        "address": "4304 Henri-Bourassa Blvd E",
                        "country": "CA",
                        "formatted_address": "4304 Henri-Bourassa Blvd E, Montreal-Nord QC H1H 1L8",
                        "locality": "Montreal-Nord",
                        "postcode": "H1H 1L8",
                        "region": "QC"
                  },
                  "name": "4304 Patisserie"
            },
            {
                  "distance": 901,
                  "location": {
                        "address": "4316 Henri-Bourassa Blvd E",
                        "country": "CA",
                        "formatted_address": "4316 Henri-Bourassa Blvd E, Montreal-Nord QC H1H 1L8",
                        "locality": "Montreal-Nord",
                        "postcode": "H1H 1L8",
                        "region": "QC"
                  },
                  "name": "Restaurant Caribbean Grille"
            },
            {
                  "distance": 908,
                  "location": {
                        "address": "3251 Henri-Bourassa Blvd E",
                        "country": "CA",
                        "formatted_address": "3251 Henri-Bourassa Blvd E, Montreal-Nord QC H1H 1H3",
                        "locality": "Montreal-Nord",
                        "postcode": "H1H 1H3",
                        "region": "QC"
                  },
                  "name": "Nouveau Paragon II"
            },
            {
                  "distance": 978,
                  "location": {
                        "address": "10795 Pie-Ix Blvd",
                        "country": "CA",
                        "formatted_address": "10795 Pie-Ix Blvd, Montreal-Nord QC H1H 4A9",
                        "locality": "Montreal-Nord",
                        "postcode": "H1H 4A9",
                        "region": "QC"
                  },
                  "name": "Go\u00fbter Cara\u00efbes"
            }
      ],
      "context": {
            "geo_bounds": {
                  "circle": {
                        "center": {
                              "latitude": 45.59253951,
                              "longitude": -73.64874825
                        },
                        "radius": 1000
                  }
            }
      }
}