{
      "results": [
            {
                  "distance": 366,
                  "location": {
                        "address": "275 Hickson Rue",
                        "country": "CA",
                        "cross_street": "coin Wellington",
                        "formatted_address": "275 Hickson Rue (coin Wellington), Verdun QC H4G 2J7",
                        "locality": "Verdun",
                        "postcode": "H4G 2J7",
                        "region": "QC"
                  },
                  "name": "Garage Cafe",
                  "popularity": 0.9310773088569265,
                  "price": 2,
                  "rating": 9.0
            },
            {
                  "distance": 374,
                  "location": {
                        "address": "3852 Wellington Rue",
                        "country": "CA",
                        "cross_street": "",
                        "formatted_address": "3852 Wellington Rue, Verdun QC H4G 1V2",
                        "locality": "Verdun",
                        "postcode": "H4G 1V2",
                        "region": "QC"
                  },
                  "name": "Station W",
                  "popularity": 0.9501916161998486,
                  "price": 1,
                  "rating": 8.8
            },
            {
                  "distance": 532,
                  "location": {
                        "address": "4026 Wellington Rue",
                        "country": "CA",
                        "cross_street": "entre De L'\u00c9glise & Hickson",
                        "formatted_address": "4026 Wellington Rue (entre De L'\u00c9glise & Hickson), Verdun QC H4G 1V3",
                        "locality": "Verdun",
                        "postcode": "H4G 1V3",
                        "region": "QC"
                  },
                  "name": "Benelux",
                  "popularity": 0.9749834405753217,
                  "price": 2,
                  "rating": 8.7
            },
            {
                  "distance": 837,
                  "location": {
                        "address": "2233 Pitt Rue",
                        "country": "CA",
                        "cross_street": "Saint-Patrick",
                        "formatted_address": "2233 Pitt Rue (Saint-Patrick), Montr\u00e9al QC H4E 4H2",
                        "locality": "Montreal",
                        "postcode": "H4E 4H2",
                        "region": "QC"
                  },
                  "name": "Messorem Bracitorium",
                  "popularity": 0.9737296555639667,
                  "price": 2,
                  "rating": 8.3
            },
            {
                  "distance": 323,
                  "location": {
                        "address": "3681 Wellington Rue",
                        "country": "CA",
                        "cross_street": "",
                        "formatted_address": "3681 Wellington Rue, Montr\u00e9al QC H4G 1V1",
                        "locality": "Montreal",
                        "postcode": "H4G 1V1",
                        "region": "QC"
                  },
                  "name": "Rita",
                  "popularity": 0.9461936979560939,
                  "price": 2,
                  "rating": 8.2
            },
            {
                  "distance": 358,
                  "location": {
                        "address": "3819 Wellington Rue",
                        "country": "CA",
                        "cross_street": "",
                        "formatted_address": "3819 Wellington Rue, Verdun QC H4G 1V1",
                        "locality": "Verdun",
                        "postcode": "H4G 1V1",
                        "region": "QC"
                  },
                  "name": "Bar Social Verdun",
                  "popularity": 0.9276353141559425,
                  "price": 2,
                  "rating": 8.0
            },
            {
                  "distance": 394,
                  "location": {
                        "address": "3876 Wellington Rue",
                        "country": "CA",
                        "cross_street": "coin Hickson",
                        "formatted_address": "3876 Wellington Rue (coin Hickson), Verdun QC H4G 1V2",
                        "locality": "Verdun",
                        "postcode": "H4G 1V2",
                        "region": "QC"
                  },
                  "name": "Nouveau Delhi Express",
                  "popularity": 0.9155232778198334,
                  "price": 2,
                  "rating": 8.0
            },
            {
                  "distance": 515,
                  "location": {
                        "address": "4019 Wellington Rue",
                        "country": "CA",
                        "cross_street": "De L'\u00c9glise",
                        "formatted_address": "4019 Wellington Rue (De L'\u00c9glise), Verdun QC H4G 1V6",
                        "locality": "Verdun",
                        "postcode": "H4G 1V6",
                        "region": "QC"
                  },
                  "name": "Bar Palco",
                  "popularity": 0.9636993754731265,
                  "price": 2,
                  "rating": 7.7
            },
            {
                  "distance": 377,
                  "location": {
                        "address": "3819 Wellington Rue",
                        "address_extended": "Suite 102",
                        "country": "CA",
                        "cross_street": "",
                        "formatted_address": "3819 Wellington Rue, Montr\u00e9al QC H4G 1V1",
                        "locality": "Montreal",
                        "postcode": "H4G 1V1",
                        "region": "QC"
                  },
                  "name": "Chez Robin Bistro Local",
                  "popularity": 0.8777204769114307,
                  "price": 1,
                  "rating": 7.6
            },
            {
                  "distance": 393,
                  "location": {
                        "address": "3872 Wellington Rue",
                        "country": "CA",
                        "cross_street": "Hickson",
                        "formatted_address": "3872 Wellington Rue (Hickson), Verdun QC H4G 1V2",
                        "locality": "Verdun",
                        "postcode": "H4G 1V2",
                        "region": "QC"
                  },
                  "name": "Aka-Fuji",
                  "popularity": 0.8395036903860712,
                  "price": 2,
                  "rating": 7.6
            },
            {
                  "distance": 495,
                  "location": {
                        "address": "3990 Wellington Rue",
                        "country": "CA",
                        "cross_street": "entre De l'\u00c9glise & Hickson",
                        "formatted_address": "3990 Wellington Rue (entre De l'\u00c9glise & Hickson), Verdun QC H4G 1V3",
                        "locality": "Verdun",
                        "postcode": "H4G 1V3",
                        "region": "QC"
                  },
                  "name": "Boulangerie P\u00e2tisserie Wellington",
                  "popularity": 0.9482872823618471,
                  "price": 1,
                  "rating": 7.4
            },
            {
                  "distance": 306,
                  "location": {
                        "address": "3625 Wellington Rue",
                        "country": "CA",
                        "cross_street": "",
                        "formatted_address": "3625 Wellington Rue, Montr\u00e9al QC H4G 1T9",
                        "locality": "Montreal",
                        "postcode": "H4G 1T9",
                        "region": "QC"
                  },
                  "name": "Les Street Monkeys",
                  "popularity": 0.9585659538228615,
                  "rating": 6.4
            },
            {
                  "distance": 458,
                  "location": {
                        "address": "3969 Wellington St",
                        "country": "CA",
                        "cross_street": "",
                        "formatted_address": "3969 Wellington St, Verdun QC H4G 1V6",
                        "locality": "Verdun",
                        "postcode": "H4G 1V6",
                        "region": "QC"
                  },
                  "name": "Pizza Hut",
                  "popularity": 0.89028198334595,
                  "price": 1,
                  "rating": 6.4,
                  "store_id": "R43401"
            },
            {
                  "distance": 331,
                  "location": {
                        "address": "3665 Wellington Rue",
                        "country": "CA",
                        "cross_street": "",
                        "formatted_address": "3665 Wellington Rue, Montr\u00e9al QC H4G 1T9",
                        "locality": "Montreal",
                        "postcode": "H4G 1T9",
                        "region": "QC"
                  },
                  "name": "Poutine Lafleur",
                  "popularity": 0.8990703065859198,
                  "rating": 6.2
            },
            {
                  "distance": 817,
                  "location": {
                        "address": "4120 Lasalle Blvd",
                        "country": "CA",
                        "cross_street": "",
                        "formatted_address": "4120 Lasalle Blvd, Verdun QC H4G 2A5",
                        "locality": "Verdun",
                        "postcode": "H4G 2A5",
                        "region": "QC"
                  },
                  "name": "St-Hubert Express",
                  "popularity": 0.9810985995457986,
                  "price": 2,
                  "rating": 6.1,
                  "store_id": "100179"
            },
            {
                  "distance": 747,
                  "location": {
                        "address": "30 Rue de l'eglise",
                        "country": "CA",
                        "cross_street": "Boulevard Lasalle",
                        "formatted_address": "30 Rue de l'eglise (Boulevard Lasalle), Verdun QC H4G 2L9",
                        "locality": "Verdun",
                        "postcode": "H4G 2L9",
                        "region": "QC"
                  },
                  "name": "Tim Hortons",
                  "popularity": 0.9914364118092355,
                  "price": 1,
                  "rating": 5.5
            },
            {
                  "distance": 963,
                  "location": {
                        "address": "4300 la Salle Blvd",
                        "country": "CA",
                        "cross_street": "Rue Gordon",
                        "formatted_address": "4300 la Salle Blvd (Rue Gordon), Verdun QC H4G 2A8",
                        "locality": "Verdun",
                        "postcode": "H4G 2A8",
                        "region": "QC"
                  },
                  "name": "McDonald's",
                  "popularity": 0.9971139288417865,
                  "price": 1,
                  "rating": 5.1,
                  "store_id": "5465"
            },
            {
                  "distance": 316,
                  "location": {
                        "address": "3683 Wellington Rue",
                        "country": "CA",
                        "cross_street": "",
                        "formatted_address": "3683 Wellington Rue, Montr\u00e9al QC H4G 1V1",
                        "locality": "Montreal",
                        "postcode": "H4G 1V1",
                        "region": "QC"
                  },
                  "name": "Archway Bar Sant\u00e9",
                  "popularity": 0.9512443224829674,
                  "price": 2
            },
            {
                  "distance": 336,
                  "location": {
                        "address": "3741 Wellington Rue",
                        "country": "CA",
                        "cross_street": "",
                        "formatted_address": "3741 Wellington Rue, Verdun QC H4G 1V1",
                        "locality": "Verdun",
                        "postcode": "H4G 1V1",
                        "region": "QC"
                  },
                  "name": "La Maison Egg Roll",
                  "popularity": 0.7864898750946253
            },
            {
                  "distance": 352,
                  "location": {
                        "address": "3900 Ethel Rue",
                        "country": "CA",
                        "cross_street": "Rue Hickson",
                        "formatted_address": "3900 Ethel Rue (Rue Hickson), Montr\u00e9al QC H4G 1S4",
                        "locality": "Montreal",
                        "postcode": "H4G 1S4",
                        "region": "QC"
                  },
                  "name": "Restaurant Beba",
                  "popularity": 0.9459216502649508,
                  "price": 2
            },
            {
                  "distance": 355,
                  "location": {
                        "address": "3762 Wellington",
                        "country": "CA",
                        "cross_street": "",
                        "formatted_address": "3762 Wellington, Montr\u00e9al QC",
                        "locality": "Montreal",
                        "region": "QC"
                  },
                  "name": "Notre-Boeuf-De-Grace",
                  "popularity": 0.9025241294473884
            },
            {
                  "distance": 361,
                  "location": {
                        "address": "3323 Evelyn",
                        "country": "CA",
                        "cross_street": "",
                        "formatted_address": "3323 Evelyn, Montr\u00e9al QC H4G 1N9",
                        "locality": "Montreal",
                        "postcode": "H4G 1N9",
                        "region": "QC"
                  },
                  "name": "Saint Jjh & Caf\u00e9",
                  "popularity": 0.9803652535957608,
                  "price": 1
            },
            {
                  "distance": 376,
                  "location": {
                        "address": "3870 Wellington Rue",
                        "country": "CA",
                        "cross_street": "",
                        "formatted_address": "3870 Wellington Rue, Verdun QC H4G 1V2",
                        "locality": "Verdun",
                        "postcode": "H4G 1V2",
                        "region": "QC"
                  },
                  "name": "Alice & Theo",
                  "popularity": 0.9226556585919757,
                  "price": 1
            },
            {
                  "distance": 443,
                  "location": {
                        "address": "3922 Wellington Rue",
                        "country": "CA",
                        "cross_street": "Hickson",
                        "formatted_address": "3922 Wellington Rue (Hickson), Verdun QC H4G 1V3",
                        "locality": "Verdun",
                        "postcode": "H4G 1V3",
                        "region": "QC"
                  },
                  "name": "Le Pok\u00e9 Station",
                  "popularity": 0.2845618849356548
            },
            {
                  "distance": 480,
                  "location": {
                        "address": "3966 Wellington Rue",
                        "country": "CA",
                        "cross_street": "",
                        "formatted_address": "3966 Wellington Rue, Verdun QC H4G 1V3",
                        "locality": "Verdun",
                        "postcode": "H4G 1V3",
                        "region": "QC"
                  },
                  "name": "Souvlaki Bar",
                  "popularity": 0.9533852195306586,
                  "price": 2
            },
            {
                  "distance": 497,
                  "location": {
                        "address": "4090 Wellington Rue",
                        "country": "CA",
                        "cross_street": "De L'\u00c9glise",
                        "formatted_address": "4090 Wellington Rue (De L'\u00c9glise), Verdun QC H4G 1V3",
                        "locality": "Verdun",
                        "postcode": "H4G 1V3",
                        "region": "QC"
                  },
                  "name": "Baguette Cali",
                  "popularity": 0.47829532551097653,
                  "price": 2
            },
            {
                  "distance": 508,
                  "location": {
                        "address": "552 rue de l\u2019\u00c9glise",
                        "country": "CA",
                        "cross_street": "",
                        "formatted_address": "552 rue de l\u2019\u00c9glise, Montr\u00e9al QC H4G 2M7",
                        "locality": "Montreal",
                        "postcode": "H4G 2M7",
                        "region": "QC"
                  },
                  "name": "Pub Church St",
                  "popularity": 0.9804953633610901,
                  "price": 1
            },
            {
                  "distance": 543,
                  "location": {
                        "address": "739 de l'Eglise",
                        "country": "CA",
                        "formatted_address": "739 de l'Eglise, Verdun QC H4G 2N1",
                        "locality": "Verdun",
                        "postcode": "H4G 2N1",
                        "region": "QC"
                  },
                  "name": "Sandwicherie le Bouche Trou BBQ",
                  "popularity": 0.5004139856169568,
                  "price": 1
            },
            {
                  "distance": 551,
                  "location": {
                        "address": "3136 Lasalle Blvd",
                        "country": "CA",
                        "cross_street": "",
                        "formatted_address": "3136 Lasalle Blvd, Montr\u00e9al QC",
                        "locality": "Montreal",
                        "region": "QC"
                  },
                  "name": "The Lincoln Apartment Bakery",
                  "popularity": 0.25557106358819076
            },
            {
                  "distance": 553,
                  "location": {
                        "address": "4030 Wellington Rue",
                        "country": "CA",
                        "cross_street": "De L'\u00e9glise",
                        "formatted_address": "4030 Wellington Rue (De L'\u00e9glise), Verdun QC H4G 1V3",
                        "locality": "Verdun",
                        "postcode": "H4G 1V3",
                        "region": "QC"
                  },
                  "name": "Kwizinn Verdun",
                  "popularity": 0.9302493376230129,
                  "price": 2
            },
            {
                  "distance": 715,
                  "location": {
                        "address": "4230 Wellington Rue",
                        "country": "CA",
                        "cross_street": "",
                        "formatted_address": "4230 Wellington Rue, Verdun QC H4G 1W2",
                        "locality": "Verdun",
                        "postcode": "H4G 1W2",
                        "region": "QC"
                  },
                  "name": "Namast\u00e9 Inde",
                  "popularity": 0.9424559992429977,
                  "price": 2,
                  "store_id": "528531"
            },
            {
                  "distance": 765,
                  "location": {
                        "address": "4222 Wellington Rue",
                        "country": "CA",
                        "cross_street": "",
                        "formatted_address": "4222 Wellington Rue, Montr\u00e9al QC H4G 1W2",
                        "locality": "Montreal",
                        "postcode": "H4G 1W2",
                        "region": "QC"
                  },
                  "name": "L2 Bubble Tea Wellington",
                  "popularity": 0.8999929031037093
            },
            {
                  "distance": 772,
                  "location": {
                        "address": "1175 Rue de l'Eglise",
                        "country": "CA",
                        "cross_street": "",
                        "formatted_address": "1175 Rue de l'Eglise, Verdun QC H4G 2P1",
                        "locality": "Verdun",
                        "postcode": "H4G 2P1",
                        "region": "QC"
                  },
                  "name": "Domino's Pizza",
                  "popularity": 0.911631813020439,
                  "price": 1,
                  "store_id": "10683"
            },
            {
                  "distance": 790,
                  "location": {
                        "address": "4327 Wellington Rue",
                        "country": "CA",
                        "cross_street": "",
                        "formatted_address": "4327 Wellington Rue, Verdun QC H4G 1W3",
                        "locality": "Verdun",
                        "postcode": "H4G 1W3",
                        "region": "QC"
                  },
                  "name": "Caf\u00e9 Saint-Henri",
                  "popularity": 0.9106264193792581,
                  "price": 1
            },
            {
                  "distance": 817,
                  "location": {
                        "address": "4120 Lasalle Blvd",
                        "country": "CA",
                        "cross_street": "",
                        "formatted_address": "4120 Lasalle Blvd, Verdun QC H4G 2A5",
                        "locality": "Verdun",
                        "postcode": "H4G 2A5",
                        "region": "QC"
                  },
                  "name": "Harvey's",
                  "popularity": 0.9717780090840272,
                  "price": 2,
                  "store_id": "2753"
            }
      ],
      "context": {
            "geo_bounds": {
                  "circle": {
                        "center": {
                              "latitude": 45.467369,
                              "longitude": -73.570769
                        },
                        "radius": 1000
                  }
            }
      }
}