{
      "results": [
            {
                  "distance": 258,
                  "location": {
                        "address": "2110 Belanger Rue",
                        "country": "CA",
                        "cross_street": "",
                        "formatted_address": "2110 Belanger Rue, Montr\u00e9al QC H2G 1C2",
                        "locality": "Montreal",
                        "postcode": "H2G 1C2",
                        "region": "QC"
                  },
                  "name": "Paquebot",
                  "popularity": 0.9647520817562453,
                  "price": 1,
                  "rating": 9.2
            },
            {
                  "distance": 991,
                  "location": {
                        "address": "901 Saint-Zotique Rue E",
                        "country": "CA",
                        "cross_street": "Saint-Andr\u00e9",
                        "formatted_address": "901 Saint-Zotique Rue E (Saint-Andr\u00e9), Montr\u00e9al QC H2S 1M9",
                        "locality": "Montreal",
                        "postcode": "H2S 1M9",
                        "region": "QC"
                  },
                  "name": "Y\u00efsst",
                  "popularity": 0.9474829674489024,
                  "price": 2,
                  "rating": 8.8
            },
            {
                  "distance": 731,
                  "location": {
                        "address": "1212 Saint-Zotique Rue E",
                        "country": "CA",
                        "cross_street": "",
                        "formatted_address": "1212 Saint-Zotique Rue E, Montr\u00e9al QC H2S 1N5",
                        "locality": "Montreal",
                        "postcode": "H2S 1N5",
                        "region": "QC"
                  },
                  "name": "Luciano Trattoria",
                  "popularity": 0.9558099924299773,
                  "price": 2,
                  "rating": 8.7
            },
            {
                  "distance": 826,
                  "location": {
                        "address": "1290 Beaubien Rue E",
                        "country": "CA",
                        "cross_street": "",
                        "formatted_address": "1290 Beaubien Rue E, Montr\u00e9al QC H2S 1T9",
                        "locality": "Montreal",
                        "postcode": "H2S 1T9",
                        "region": "QC"
                  },
                  "name": "Vinvinvin",
                  "popularity": 0.9328751892505678,
                  "price": 2,
                  "rating": 8.4
            },
            {
                  "distance": 555,
                  "location": {
                        "address": "1309 Saint-Zotique Rue E",
                        "country": "CA",
                        "cross_street": "coin Chambord",
                        "formatted_address": "1309 Saint-Zotique Rue E (coin Chambord), Montr\u00e9al QC H2G 1G6",
                        "locality": "Montreal",
                        "postcode": "H2G 1G6",
                        "region": "QC"
                  },
                  "name": "Bar le Jockey",
                  "popularity": 0.9420538417865254,
                  "price": 2,
                  "rating": 8.2
            },
            {
                  "distance": 356,
                  "location": {
                        "address": "1950 Jean-Talon Rue E",
                        "country": "CA",
                        "cross_street": "Chabot",
                        "formatted_address": "1950 Jean-Talon Rue E (Chabot), Montr\u00e9al QC H2E 1T8",
                        "locality": "Montreal",
                        "postcode": "H2E 1T8",
                        "region": "QC"
                  },
                  "name": "Boulangerie & Charcuterie San Pietro",
                  "popularity": 0.953763720666162,
                  "price": 1,
                  "rating": 8.2
            },
            {
                  "distance": 624,
                  "location": {
                        "address": "1898 Beaubien Rue E",
                        "country": "CA",
                        "cross_street": "Chabot",
                        "formatted_address": "1898 Beaubien Rue E (Chabot), Montr\u00e9al QC H2G 1L9",
                        "locality": "Montreal",
                        "postcode": "H2G 1L9",
                        "region": "QC"
                  },
                  "name": "Sushi Itamea",
                  "popularity": 0.9421366389099167,
                  "price": 2,
                  "rating": 8.0
            },
            {
                  "distance": 796,
                  "location": {
                        "address": "2355 Beaubien Rue E",
                        "country": "CA",
                        "formatted_address": "2355 Beaubien Rue E, Montr\u00e9al QC H2G 1N3",
                        "locality": "Montreal",
                        "postcode": "H2G 1N3",
                        "region": "QC"
                  },
                  "name": "Froment et de S\u00e8ve",
                  "popularity": 0.9245008516275549,
                  "price": 1,
                  "rating": 7.8
            },
            {
                  "distance": 795,
                  "location": {
                        "address": "6505 des Ecores Rue",
                        "country": "CA",
                        "cross_street": "Beaubien Est",
                        "formatted_address": "6505 des Ecores Rue (Beaubien Est), Montr\u00e9al QC H2G 2J8",
                        "locality": "Montreal",
                        "postcode": "H2G 2J8",
                        "region": "QC"
                  },
                  "name": "Randolph Pub Ludique",
                  "popularity": 0.9249148372445117,
                  "price": 1,
                  "rating": 7.8
            },
            {
                  "distance": 749,
                  "location": {
                        "address": "2316 Beaubien Rue E",
                        "country": "CA",
                        "cross_street": "Louis-H\u00e9mon",
                        "formatted_address": "2316 Beaubien Rue E (Louis-H\u00e9mon), Montr\u00e9al QC H2G 1M9",
                        "locality": "Montreal",
                        "postcode": "H2G 1M9",
                        "region": "QC"
                  },
                  "name": "Bistro Chez Roger",
                  "popularity": 0.9417817940953823,
                  "price": 2,
                  "rating": 7.7
            },
            {
                  "distance": 911,
                  "location": {
                        "address": "2500 Beaubien Rue E",
                        "country": "CA",
                        "cross_street": "coin d'Iberville",
                        "formatted_address": "2500 Beaubien Rue E (coin d'Iberville), Montr\u00e9al QC H1Y 1G2",
                        "locality": "Montreal",
                        "postcode": "H1Y 1G2",
                        "region": "QC"
                  },
                  "name": "Resto la Grand-M\u00e8re Poule",
                  "popularity": 0.9470926381529144,
                  "price": 1,
                  "rating": 7.6
            },
            {
                  "distance": 727,
                  "location": {
                        "address": "1404 Beaubien Rue E",
                        "country": "CA",
                        "cross_street": "",
                        "formatted_address": "1404 Beaubien Rue E, Montr\u00e9al QC H2G 1K9",
                        "locality": "Montreal",
                        "postcode": "H2G 1K9",
                        "region": "QC"
                  },
                  "name": "Caf\u00e9 Chiado28",
                  "popularity": 0.9532551097653293,
                  "price": 1,
                  "rating": 7.5
            },
            {
                  "distance": 693,
                  "location": {
                        "address": "2200 Beaubien Rue E",
                        "country": "CA",
                        "cross_street": "At Des Erables",
                        "formatted_address": "2200 Beaubien Rue E (At Des Erables), Montr\u00e9al QC H2G 1M7",
                        "locality": "Montreal",
                        "postcode": "H2G 1M7",
                        "region": "QC"
                  },
                  "name": "Nouveau Canada",
                  "popularity": 0.9369677327781983,
                  "price": 1,
                  "rating": 7.1
            },
            {
                  "distance": 621,
                  "location": {
                        "address": "1991 Beaubien Rue E",
                        "country": "CA",
                        "cross_street": "Bordeaux",
                        "formatted_address": "1991 Beaubien Rue E (Bordeaux), Montr\u00e9al QC H2G 1M2",
                        "locality": "Montreal",
                        "postcode": "H2G 1M2",
                        "region": "QC"
                  },
                  "name": "Caf\u00e9 l'\u00c9tincelle",
                  "popularity": 0.9640660484481454,
                  "price": 1,
                  "rating": 6.9
            },
            {
                  "distance": 346,
                  "location": {
                        "address": "1840 Jean Talon Rue E",
                        "country": "CA",
                        "cross_street": "Papineau",
                        "formatted_address": "1840 Jean Talon Rue E (Papineau), Montr\u00e9al QC H2E 1T5",
                        "locality": "Montreal",
                        "postcode": "H2E 1T5",
                        "region": "QC"
                  },
                  "name": "Dilallo Burger et Bar",
                  "popularity": 0.9578207797123391,
                  "price": 2
            },
            {
                  "distance": 645,
                  "location": {
                        "address": "6442 Papineau Ave",
                        "country": "CA",
                        "cross_street": "Beaubien",
                        "formatted_address": "6442 Papineau Ave (Beaubien), Montr\u00e9al QC H2G 2W9",
                        "locality": "Montreal",
                        "postcode": "H2G 2W9",
                        "region": "QC"
                  },
                  "name": "Bar Paspebiac",
                  "popularity": 0.8786549015897047,
                  "price": 2
            },
            {
                  "distance": 669,
                  "location": {
                        "address": "1251 St Zotique",
                        "country": "CA",
                        "cross_street": "De Normanville",
                        "formatted_address": "1251 St Zotique (De Normanville), Montr\u00e9al QC",
                        "locality": "Montreal",
                        "region": "QC"
                  },
                  "name": "Le Norman Zotique",
                  "popularity": 0.7669615821347464,
                  "price": 1
            },
            {
                  "distance": 687,
                  "location": {
                        "address": "2548 Belanger Rue",
                        "country": "CA",
                        "cross_street": "Belanger",
                        "formatted_address": "2548 Belanger Rue (Belanger), Montr\u00e9al QC H1Y 1A1",
                        "locality": "Montreal",
                        "postcode": "H1Y 1A1",
                        "region": "QC"
                  },
                  "name": "Bar Excel",
                  "popularity": 0.9128974261922785,
                  "price": 3
            },
            {
                  "distance": 719,
                  "location": {
                        "address": "1127 Belanger Rue",
                        "country": "CA",
                        "cross_street": "",
                        "formatted_address": "1127 Belanger Rue, Montr\u00e9al QC H2S 1H6",
                        "locality": "Montreal",
                        "postcode": "H2S 1H6",
                        "region": "QC"
                  },
                  "name": "Le Far Breton",
                  "popularity": 0.6438540878122634,
                  "price": 1
            },
            {
                  "distance": 721,
                  "location": {
                        "address": "2040 Beaubien Rue E",
                        "country": "CA",
                        "cross_street": "",
                        "formatted_address": "2040 Beaubien Rue E, Montr\u00e9al QC H2G 1M4",
                        "locality": "Montreal",
                        "postcode": "H2G 1M4",
                        "region": "QC"
                  },
                  "name": "Calaveras",
                  "popularity": 0.9169071725965178,
                  "price": 1
            },
            {
                  "distance": 751,
                  "location": {
                        "address": "1335 Beaubien Rue E",
                        "country": "CA",
                        "cross_street": "",
                        "formatted_address": "1335 Beaubien Rue E, Montr\u00e9al QC H2G 1K7",
                        "locality": "Montreal",
                        "postcode": "H2G 1K7",
                        "region": "QC"
                  },
                  "name": "La Belle Tonki",
                  "popularity": 0.9382806585919757,
                  "price": 2
            },
            {
                  "distance": 796,
                  "location": {
                        "address": "2517 Jean-Talon Rue E",
                        "country": "CA",
                        "cross_street": "Iberville",
                        "formatted_address": "2517 Jean-Talon Rue E (Iberville), Montr\u00e9al QC H2A 1T6",
                        "locality": "Montreal",
                        "postcode": "H2A 1T6",
                        "region": "QC"
                  },
                  "name": "Casse-Cro\u00fbte Sissi & Paul",
                  "popularity": 0.9293030847842544,
                  "price": 2
            },
            {
                  "distance": 799,
                  "location": {
                        "address": "2524 Jean-Talon Rue E",
                        "country": "CA",
                        "cross_street": "D' Iberville",
                        "formatted_address": "2524 Jean-Talon Rue E (D' Iberville), Montr\u00e9al QC H2A 1T7",
                        "locality": "Montreal",
                        "postcode": "H2A 1T7",
                        "region": "QC"
                  },
                  "name": "Mexico Restaurant",
                  "popularity": 0.8773301476154428,
                  "price": 1
            },
            {
                  "distance": 866,
                  "location": {
                        "address": "1253 Beaubien Rue E",
                        "country": "CA",
                        "cross_street": "Rue De Normandville",
                        "formatted_address": "1253 Beaubien Rue E (Rue De Normandville), Montr\u00e9al QC H2S 1V1",
                        "locality": "Montreal",
                        "postcode": "H2S 1V1",
                        "region": "QC"
                  },
                  "name": "Poissonnerie Fou des Iles",
                  "popularity": 0.8730128690386071
            },
            {
                  "distance": 869,
                  "location": {
                        "address": "2566 Jean Talon Rue E",
                        "country": "CA",
                        "cross_street": "",
                        "formatted_address": "2566 Jean Talon Rue E, Montr\u00e9al QC H2A 1T9",
                        "locality": "Montreal",
                        "postcode": "H2A 1T9",
                        "region": "QC"
                  },
                  "name": "Kokoriko",
                  "popularity": 0.6628737698713096,
                  "price": 2
            },
            {
                  "distance": 957,
                  "location": {
                        "address": "929 Saint-Zotique Rue E",
                        "country": "CA",
                        "cross_street": "",
                        "formatted_address": "929 Saint-Zotique Rue E, Montr\u00e9al QC H2S 1M9",
                        "locality": "Montreal",
                        "postcode": "H2S 1M9",
                        "region": "QC"
                  },
                  "name": "Kasaisuta Fusion",
                  "popularity": 0.8928132096896291,
                  "price": 2
            },
            {
                  "distance": 964,
                  "location": {
                        "address": "2522 Beaubien Rue E",
                        "country": "CA",
                        "cross_street": "Rue d'Iberville",
                        "formatted_address": "2522 Beaubien Rue E (Rue d'Iberville), Montr\u00e9al QC H1Y 1G2",
                        "locality": "Montreal",
                        "postcode": "H1Y 1G2",
                        "region": "QC"
                  },
                  "name": "La Brass\u00e9e",
                  "popularity": 0.9355483535200606,
                  "price": 1
            },
            {
                  "distance": 1004,
                  "location": {
                        "address": "6839 Saint Hubert Rue",
                        "country": "CA",
                        "cross_street": "",
                        "formatted_address": "6839 Saint Hubert Rue, Montr\u00e9al QC H2S 2M7",
                        "locality": "Montreal",
                        "postcode": "H2S 2M7",
                        "region": "QC"
                  },
                  "name": "La Cale - pub z\u00e9ro d\u00e9chet",
                  "popularity": 0.9656746782740349,
                  "price": 1
            },
            {
                  "distance": 16,
                  "location": {
                        "address": "1828 Belanger Rue",
                        "country": "CA",
                        "formatted_address": "1828 Belanger Rue, Montreal QC H2G 1B4",
                        "locality": "Montreal",
                        "postcode": "H2G 1B4",
                        "region": "QC"
                  },
                  "name": "Restaurant Chez Flore"
            },
            {
                  "distance": 400,
                  "location": {
                        "address": "7203 Papineau Ave",
                        "country": "CA",
                        "formatted_address": "7203 Papineau Ave, Montreal QC H2E 2G7",
                        "locality": "Montreal",
                        "postcode": "H2E 2G7",
                        "region": "QC"
                  },
                  "name": "El Chasqui Latino"
            },
            {
                  "distance": 561,
                  "location": {
                        "address": "1268 rue B\u00e9langer",
                        "country": "CA",
                        "formatted_address": "1268 rue B\u00e9langer, Montreal QC H2S 1H9",
                        "locality": "Montreal",
                        "postcode": "H2S 1H9",
                        "region": "QC"
                  },
                  "name": "Le Cake Studio"
            },
            {
                  "distance": 610,
                  "location": {
                        "address": "1238 Belanger Rue",
                        "country": "CA",
                        "formatted_address": "1238 Belanger Rue, Montreal QC H2S 1H8",
                        "locality": "Montreal",
                        "postcode": "H2S 1H8",
                        "region": "QC"
                  },
                  "name": "Club Helios Inc"
            },
            {
                  "distance": 620,
                  "location": {
                        "address": "1224 Belanger Rue",
                        "country": "CA",
                        "formatted_address": "1224 Belanger Rue, Montreal QC H2S 1H8",
                        "locality": "Montreal",
                        "postcode": "H2S 1H8",
                        "region": "QC"
                  },
                  "name": "Le Panivore"
            },
            {
                  "distance": 665,
                  "location": {
                        "address": "2490 Belanger Rue",
                        "country": "CA",
                        "formatted_address": "2490 Belanger Rue, Montreal QC H2G 1E5",
                        "locality": "Montreal",
                        "postcode": "H2G 1E5",
                        "region": "QC"
                  },
                  "name": "Restaurant Grill Tasqueria la Sharade"
            },
            {
                  "distance": 668,
                  "location": {
                        "address": "1212 Belanger Rue",
                        "country": "CA",
                        "formatted_address": "1212 Belanger Rue, Montreal QC H2S 1H8",
                        "locality": "Montreal",
                        "postcode": "H2S 1H8",
                        "region": "QC"
                  },
                  "name": "Roseville cafe bar"
            }
      ],
      "context": {
            "geo_bounds": {
                  "circle": {
                        "center": {
                              "latitude": 45.54677904,
                              "longitude": -73.60281676
                        },
                        "radius": 1000
                  }
            }
      }
}