{
      "results": [
            {
                  "distance": 751,
                  "location": {
                        "address": "110 Blvd de la Concorde Ouest",
                        "country": "CA",
                        "cross_street": "at 16e Rue",
                        "formatted_address": "110 Blvd de la Concorde Ouest (at 16e Rue), Laval QC H7N 1H9",
                        "locality": "Laval",
                        "postcode": "H7N 1H9",
                        "region": "QC"
                  },
                  "name": "Chez Gerard",
                  "popularity": 0.9650986342943855,
                  "price": 1,
                  "rating": 7.5
            },
            {
                  "distance": 759,
                  "location": {
                        "address": "608 Blvd de la Concorde Ouest",
                        "country": "CA",
                        "cross_street": "coin Amp\u00e8re",
                        "formatted_address": "608 Blvd de la Concorde Ouest (coin Amp\u00e8re), Laval QC H7N 5R1",
                        "locality": "Laval",
                        "postcode": "H7N 5R1",
                        "region": "QC"
                  },
                  "name": "Boulangerie Patisserie",
                  "popularity": 0.9331429081496028,
                  "price": 1,
                  "rating": 6.9
            },
            {
                  "distance": 864,
                  "location": {
                        "address": "46 Cartier Blvd O",
                        "country": "CA",
                        "cross_street": "at rue \u00c9mile",
                        "formatted_address": "46 Cartier Blvd O (at rue \u00c9mile), Laval QC H7N 2H4",
                        "locality": "Laval",
                        "postcode": "H7N 2H4",
                        "region": "QC"
                  },
                  "name": "Chez Gerard",
                  "popularity": 0.9875033473176827,
                  "price": 1,
                  "rating": 6.8
            },
            {
                  "distance": 568,
                  "location": {
                        "address": "319 Cartier Blvd O",
                        "country": "CA",
                        "cross_street": "Amp\u00e8re",
                        "formatted_address": "319 Cartier Blvd O (Amp\u00e8re), Laval QC H7N 2J4",
                        "locality": "Laval",
                        "postcode": "H7N 2J4",
                        "region": "QC"
                  },
                  "name": "Restaurant le Cartier",
                  "popularity": 0.9811657591716505,
                  "price": 1
            },
            {
                  "distance": 668,
                  "location": {
                        "address": "270 Blvd de la Concorde Ouest",
                        "country": "CA",
                        "cross_street": "",
                        "formatted_address": "270 Blvd de la Concorde Ouest, Laval QC H7N 1J1",
                        "locality": "Laval",
                        "postcode": "H7N 1J1",
                        "region": "QC"
                  },
                  "name": "Bar Bada Bing",
                  "popularity": 0.35606533964116754,
                  "price": 2
            },
            {
                  "distance": 673,
                  "location": {
                        "address": "103 de la Concorde W des Rapides",
                        "country": "CA",
                        "formatted_address": "103 de la Concorde W des Rapides, Laval QC H7N 1H8",
                        "locality": "Laval",
                        "postcode": "H7N 1H8",
                        "region": "QC"
                  },
                  "name": "Domino's Pizza",
                  "popularity": 0.9725966259037758,
                  "price": 1
            },
            {
                  "distance": 679,
                  "location": {
                        "address": "105 Cartier Blvd O",
                        "country": "CA",
                        "cross_street": "",
                        "formatted_address": "105 Cartier Blvd O, Laval QC H7N 2H6",
                        "locality": "Laval",
                        "postcode": "H7N 2H6",
                        "region": "QC"
                  },
                  "name": "Allo Pizza",
                  "popularity": 0.5971614746050166,
                  "price": 1
            },
            {
                  "distance": 707,
                  "location": {
                        "address": "66 Cartier Blvd O",
                        "country": "CA",
                        "cross_street": "",
                        "formatted_address": "66 Cartier Blvd O, Laval QC H7N 2H5",
                        "locality": "Laval",
                        "postcode": "H7N 2H5",
                        "region": "QC"
                  },
                  "name": "Marche des Iles",
                  "popularity": 0.582701062215478,
                  "price": 2
            },
            {
                  "distance": 730,
                  "location": {
                        "address": "180 Blvd de la Concorde Ouest",
                        "country": "CA",
                        "formatted_address": "180 Blvd de la Concorde Ouest, Laval QC H7N 1H9",
                        "locality": "Laval",
                        "postcode": "H7N 1H9",
                        "region": "QC"
                  },
                  "name": "Caf\u00e9 Bistro Il Momento",
                  "popularity": 0.24609479603677586,
                  "price": 1
            },
            {
                  "distance": 734,
                  "location": {
                        "address": "54 Cartier Blvd O",
                        "country": "CA",
                        "cross_street": "",
                        "formatted_address": "54 Cartier Blvd O, Laval QC",
                        "locality": "Laval",
                        "region": "QC"
                  },
                  "name": "R\u00f4tisseries Au Coq",
                  "popularity": 0.8043381237168615,
                  "price": 1
            },
            {
                  "distance": 736,
                  "location": {
                        "address": "54 Cartier Blvd O",
                        "country": "CA",
                        "cross_street": "",
                        "formatted_address": "54 Cartier Blvd O, Laval QC H7N 2H5",
                        "locality": "Laval",
                        "postcode": "H7N 2H5",
                        "region": "QC"
                  },
                  "name": "Au Coq",
                  "popularity": 0.2224404177452468,
                  "price": 1
            },
            {
                  "distance": 755,
                  "location": {
                        "address": "542 Amp\u00e8re",
                        "country": "CA",
                        "cross_street": "Concorde ouest",
                        "formatted_address": "542 Amp\u00e8re (Concorde ouest), Laval QC",
                        "locality": "Laval",
                        "region": "QC"
                  },
                  "name": "Pizza 2 Pour 1",
                  "popularity": 0.7119521556725877,
                  "price": 1
            },
            {
                  "distance": 204,
                  "location": {
                        "address": "293A Cartier Blvd O",
                        "country": "CA",
                        "formatted_address": "293A Cartier Blvd O, Laval QC H7N 2J1",
                        "locality": "Laval",
                        "postcode": "H7N 2J1",
                        "region": "QC"
                  },
                  "name": "Allo Pizza"
            },
            {
                  "distance": 516,
                  "location": {
                        "address": "317 Cartier Blvd O",
                        "country": "CA",
                        "formatted_address": "317 Cartier Blvd O, Laval QC H7N 2J3",
                        "locality": "Laval",
                        "postcode": "H7N 2J3",
                        "region": "QC"
                  },
                  "name": "Dallas Resto Pub"
            },
            {
                  "distance": 679,
                  "location": {
                        "address": "270 Blvd de la Concorde O",
                        "country": "CA",
                        "formatted_address": "270 Blvd de la Concorde O, Laval QC H7N 1J1",
                        "locality": "Laval",
                        "postcode": "H7N 1J1",
                        "region": "QC"
                  },
                  "name": "Bar Badabing"
            },
            {
                  "distance": 735,
                  "location": {
                        "address": "54 Cartier Blvd O",
                        "country": "CA",
                        "formatted_address": "54 Cartier Blvd O, Laval QC H7N 2H5",
                        "locality": "Laval",
                        "postcode": "H7N 2H5",
                        "region": "QC"
                  },
                  "name": "Au Coq"
            },
            {
                  "distance": 806,
                  "location": {
                        "address": "46 Cartier Blvd O",
                        "country": "CA",
                        "formatted_address": "46 Cartier Blvd O, Laval QC H7N 2H4",
                        "locality": "Laval",
                        "postcode": "H7N 2H4",
                        "region": "QC"
                  },
                  "name": "Louks Beignets"
            },
            {
                  "distance": 837,
                  "location": {
                        "address": "101 Blvd de la Concorde O",
                        "country": "CA",
                        "formatted_address": "101 Blvd de la Concorde O, Laval QC H7N 1H8",
                        "locality": "Laval",
                        "postcode": "H7N 1H8",
                        "region": "QC"
                  },
                  "name": "Mon Verger en P\u00e2te d'Amandes"
            }
      ],
      "context": {
            "geo_bounds": {
                  "circle": {
                        "center": {
                              "latitude": 45.5594955,
                              "longitude": -73.69891763
                        },
                        "radius": 1000
                  }
            }
      }
}