{
      "results": [
            {
                  "distance": 640,
                  "location": {
                        "address": "6817 Newman Blvd",
                        "country": "CA",
                        "cross_street": "",
                        "formatted_address": "6817 Newman Blvd, Lasalle QC H8N 3E4",
                        "locality": "Lasalle",
                        "postcode": "H8N 3E4",
                        "region": "QC"
                  },
                  "name": "All\u00f4! Mon Coco",
                  "popularity": 0.9909278009084027,
                  "price": 1,
                  "rating": 8.0
            },
            {
                  "distance": 797,
                  "location": {
                        "address": "7573 Newman Blvd",
                        "country": "CA",
                        "cross_street": "Lapierre",
                        "formatted_address": "7573 Newman Blvd (Lapierre), Lasalle QC H8N 1X3",
                        "locality": "Lasalle",
                        "postcode": "H8N 1X3",
                        "region": "QC"
                  },
                  "name": "Chez Cora",
                  "popularity": 0.9589799394398183,
                  "price": 1,
                  "rating": 7.7
            },
            {
                  "distance": 450,
                  "location": {
                        "address": "7077 Newman Blvd",
                        "address_extended": "Suite 1663",
                        "country": "CA",
                        "cross_street": "",
                        "formatted_address": "7077 Newman Blvd, Lasalle QC H8N 1X1",
                        "locality": "Lasalle",
                        "postcode": "H8N 1X1",
                        "region": "QC"
                  },
                  "name": "DAVIDsTEA",
                  "popularity": 0.5948855034065103,
                  "price": 2,
                  "rating": 7.3,
                  "store_id": "196"
            },
            {
                  "distance": 930,
                  "location": {
                        "address": "7660 Newman Blvd",
                        "country": "CA",
                        "cross_street": "",
                        "formatted_address": "7660 Newman Blvd, Montr\u00e9al QC H8N 1X8",
                        "locality": "Montreal",
                        "postcode": "H8N 1X8",
                        "region": "QC"
                  },
                  "name": "Kyomi",
                  "popularity": 0.9192491483724451,
                  "price": 2,
                  "rating": 7.2
            },
            {
                  "distance": 443,
                  "location": {
                        "address": "7077 Newman Blvd",
                        "address_extended": "Unit 3069",
                        "country": "CA",
                        "cross_street": "",
                        "formatted_address": "7077 Newman Blvd, Lasalle QC H8N 1X1",
                        "locality": "Lasalle",
                        "postcode": "H8N 1X1",
                        "region": "QC"
                  },
                  "name": "Subway",
                  "popularity": 0.9048779333838002,
                  "price": 1,
                  "rating": 6.6,
                  "store_id": "Restaurant #24534"
            },
            {
                  "distance": 472,
                  "location": {
                        "address": "7077 Newman Blvd",
                        "country": "CA",
                        "cross_street": "",
                        "formatted_address": "7077 Newman Blvd, Lasalle QC H8N 1X1",
                        "locality": "Lasalle",
                        "postcode": "H8N 1X1",
                        "region": "QC"
                  },
                  "name": "A&W Restaurant",
                  "popularity": 0.9781297312641938,
                  "price": 1,
                  "rating": 6.6,
                  "store_id": "5541"
            },
            {
                  "distance": 476,
                  "location": {
                        "address": "7077 Newman Blvd",
                        "country": "CA",
                        "cross_street": "",
                        "formatted_address": "7077 Newman Blvd, Lasalle QC H8N 1X1",
                        "locality": "Lasalle",
                        "postcode": "H8N 1X1",
                        "region": "QC"
                  },
                  "name": "Thai Express",
                  "popularity": 0.9880299015897047,
                  "price": 2,
                  "rating": 6.4
            },
            {
                  "distance": 2333683,
                  "location": {
                        "address": "7610 Newman Blvd",
                        "country": "CA",
                        "cross_street": "",
                        "formatted_address": "7610 Newman Blvd, Lasalle QC H8N 1X8",
                        "locality": "Lasalle",
                        "postcode": "H8N 1X8",
                        "region": "QC"
                  },
                  "name": "A&W Restaurant",
                  "popularity": 0.9333333333333333,
                  "price": 1,
                  "rating": 6.4
            },
            {
                  "distance": 430,
                  "location": {
                        "address": "7077 Newman Blvd",
                        "address_extended": "F9",
                        "country": "CA",
                        "cross_street": "",
                        "formatted_address": "7077 Newman Blvd, Montr\u00e9al QC H8N 1X1",
                        "locality": "Montreal",
                        "postcode": "H8N 1X1",
                        "region": "QC"
                  },
                  "name": "KFC",
                  "popularity": 0.9639004542013626,
                  "price": 1,
                  "rating": 6.3
            },
            {
                  "distance": 689,
                  "location": {
                        "address": "7401 Newman Blvd",
                        "country": "CA",
                        "cross_street": "L\u00e9ger",
                        "formatted_address": "7401 Newman Blvd (L\u00e9ger), Lasalle QC H8N 1X3",
                        "locality": "Lasalle",
                        "postcode": "H8N 1X3",
                        "region": "QC"
                  },
                  "name": "Restaurant Eggsquis",
                  "popularity": 0.9301073996971991,
                  "price": 1,
                  "rating": 6.3
            },
            {
                  "distance": 741,
                  "location": {
                        "address": "7551 Newman Blvd",
                        "country": "CA",
                        "cross_street": "",
                        "formatted_address": "7551 Newman Blvd, Lasalle QC H8N 1X3",
                        "locality": "Lasalle",
                        "postcode": "H8N 1X3",
                        "region": "QC"
                  },
                  "name": "Pizza Hut",
                  "popularity": 0.9253997918243755,
                  "price": 1,
                  "rating": 6.3
            },
            {
                  "distance": 180,
                  "location": {
                        "address": "7165 Newman Blvd",
                        "country": "CA",
                        "cross_street": "Rue Senkus",
                        "formatted_address": "7165 Newman Blvd (Rue Senkus), Lasalle QC H8N 2K3",
                        "locality": "Lasalle",
                        "postcode": "H8N 2K3",
                        "region": "QC"
                  },
                  "name": "Fu Lam",
                  "popularity": 0.3757333459500378,
                  "rating": 6.2
            },
            {
                  "distance": 800,
                  "location": {
                        "address": "7577 Newman Blvd",
                        "country": "CA",
                        "cross_street": "Rue Lapierre",
                        "formatted_address": "7577 Newman Blvd (Rue Lapierre), Lasalle QC H8N 1X3",
                        "locality": "Lasalle",
                        "postcode": "H8N 1X3",
                        "region": "QC"
                  },
                  "name": "Boutique O'Sushi",
                  "popularity": 0.9348978046934141,
                  "price": 2,
                  "rating": 6.2
            },
            {
                  "distance": 664,
                  "location": {
                        "address": "6857 Newman Blvd",
                        "country": "CA",
                        "formatted_address": "6857 Newman Blvd, Lasalle QC H8N 3E4",
                        "locality": "Lasalle",
                        "postcode": "H8N 3E4",
                        "region": "QC"
                  },
                  "name": "Boston Pizza",
                  "popularity": 0.9398774602573807,
                  "price": 1,
                  "rating": 6.0,
                  "store_id": "BP_251"
            },
            {
                  "distance": 257,
                  "location": {
                        "address": "7218 Newman Blvd",
                        "country": "CA",
                        "cross_street": "L\u00e9ger",
                        "formatted_address": "7218 Newman Blvd (L\u00e9ger), Lasalle QC H8N 1X2",
                        "locality": "Lasalle",
                        "postcode": "H8N 1X2",
                        "region": "QC"
                  },
                  "name": "Casa Grecque",
                  "popularity": 0.9855933005299016,
                  "price": 2,
                  "rating": 5.8
            },
            {
                  "distance": 349,
                  "location": {
                        "address": "7077 Newman Blvd",
                        "country": "CA",
                        "cross_street": "",
                        "formatted_address": "7077 Newman Blvd, Lasalle QC H8N 1X1",
                        "locality": "Lasalle",
                        "postcode": "H8N 1X1",
                        "region": "QC"
                  },
                  "name": "Cage Aux Sports",
                  "popularity": 0.9391086298258895,
                  "price": 2,
                  "rating": 5.7
            },
            {
                  "distance": 192,
                  "location": {
                        "address": "7165 Newman Blvd",
                        "country": "CA",
                        "cross_street": "",
                        "formatted_address": "7165 Newman Blvd, Montr\u00e9al QC H8N 2K3",
                        "locality": "Montreal",
                        "postcode": "H8N 2K3",
                        "region": "QC"
                  },
                  "name": "Dragon D\u2019or",
                  "popularity": 0.4919450227100681,
                  "price": 1
            },
            {
                  "distance": 402,
                  "location": {
                        "address": "7077 Newman Blvd",
                        "country": "CA",
                        "cross_street": "",
                        "formatted_address": "7077 Newman Blvd, Lasalle QC H8N 1X1",
                        "locality": "Lasalle",
                        "postcode": "H8N 1X1",
                        "region": "QC"
                  },
                  "name": "Poulet Rouge",
                  "popularity": 0.9702521763815292,
                  "price": 2
            },
            {
                  "distance": 429,
                  "location": {
                        "address": "7077 Newman Blvd",
                        "address_extended": "F-10",
                        "country": "CA",
                        "cross_street": "",
                        "formatted_address": "7077 Newman Blvd, Lasalle QC H8N 1X1",
                        "locality": "Lasalle",
                        "postcode": "H8N 1X1",
                        "region": "QC"
                  },
                  "name": "Tiki-Ming",
                  "popularity": 0.973221044663134,
                  "price": 1
            },
            {
                  "distance": 429,
                  "location": {
                        "address": "7077 Newman Blvd",
                        "country": "CA",
                        "cross_street": "Angrignon",
                        "formatted_address": "7077 Newman Blvd (Angrignon), Lasalle QC H8N 1X1",
                        "locality": "Lasalle",
                        "postcode": "H8N 1X1",
                        "region": "QC"
                  },
                  "name": "Muffin Plus",
                  "popularity": 0.8934637585162756,
                  "price": 1
            },
            {
                  "distance": 433,
                  "location": {
                        "address": "7077 Newman Blvd",
                        "address_extended": "Unit 5410",
                        "country": "CA",
                        "cross_street": "Angrignon",
                        "formatted_address": "7077 Newman Blvd (Angrignon), Lasalle QC H8N 1X1",
                        "locality": "Lasalle",
                        "postcode": "H8N 1X1",
                        "region": "QC"
                  },
                  "name": "Jugo Juice",
                  "popularity": 0.8787022142316427,
                  "price": 1
            },
            {
                  "distance": 452,
                  "location": {
                        "address": "7077 Newman Blvd",
                        "address_extended": "Suite 01100",
                        "country": "CA",
                        "cross_street": "",
                        "formatted_address": "7077 Newman Blvd, Lasalle QC H8N 1X1",
                        "locality": "Lasalle",
                        "postcode": "H8N 1X1",
                        "region": "QC"
                  },
                  "name": "La Belle & la Boeuf - Burger Bar - LaSalle",
                  "popularity": 0.9939558099924299,
                  "price": 1
            },
            {
                  "distance": 453,
                  "location": {
                        "address": "7077 Newman Blvd",
                        "address_extended": "Carrefour Angrignon",
                        "country": "CA",
                        "cross_street": "",
                        "formatted_address": "7077 Newman Blvd, Lasalle QC H8N 1X1",
                        "locality": "Lasalle",
                        "postcode": "H8N 1X1",
                        "region": "QC"
                  },
                  "name": "Sushi Man",
                  "popularity": 0.9295041635124905,
                  "price": 2
            },
            {
                  "distance": 453,
                  "location": {
                        "address": "7077 Newman Blvd",
                        "address_extended": "Carrefour Angrignon",
                        "country": "CA",
                        "cross_street": "",
                        "formatted_address": "7077 Newman Blvd, Lasalle QC H8N 1X1",
                        "locality": "Lasalle",
                        "postcode": "H8N 1X1",
                        "region": "QC"
                  },
                  "name": "Valentine",
                  "popularity": 0.7911501703255109,
                  "price": 1
            },
            {
                  "distance": 467,
                  "location": {
                        "address": "7077 Newman Blvd",
                        "country": "CA",
                        "cross_street": "",
                        "formatted_address": "7077 Newman Blvd, Lasalle QC H8N 1X1",
                        "locality": "Lasalle",
                        "postcode": "H8N 1X1",
                        "region": "QC"
                  },
                  "name": "Taco Mexi-Que-Cana",
                  "popularity": 0.6662921082513248,
                  "price": 1
            },
            {
                  "distance": 472,
                  "location": {
                        "address": "7077 Newman Blvd",
                        "country": "CA",
                        "cross_street": "",
                        "formatted_address": "7077 Newman Blvd, Montr\u00e9al QC H8N 1X1",
                        "locality": "Montreal",
                        "postcode": "H8N 1X1",
                        "region": "QC"
                  },
                  "name": "Amir",
                  "popularity": 0.892245457986374,
                  "price": 2
            },
            {
                  "distance": 472,
                  "location": {
                        "address": "7077 Newman Blvd",
                        "country": "CA",
                        "cross_street": "",
                        "formatted_address": "7077 Newman Blvd, Lasalle QC H8N 1X1",
                        "locality": "Lasalle",
                        "postcode": "H8N 1X1",
                        "region": "QC"
                  },
                  "name": "Cultures",
                  "popularity": 0.0763980885692657,
                  "price": 1
            },
            {
                  "distance": 669,
                  "location": {
                        "address": "7401 Newman Blvd",
                        "country": "CA",
                        "cross_street": "",
                        "formatted_address": "7401 Newman Blvd, Montr\u00e9al QC H8N 1X3",
                        "locality": "Montreal",
                        "postcode": "H8N 1X3",
                        "region": "QC"
                  },
                  "name": "Chez Ping",
                  "popularity": 0.9434495647236941,
                  "price": 2
            },
            {
                  "distance": 675,
                  "location": {
                        "address": "1715 Thierry Rue",
                        "country": "CA",
                        "cross_street": "Dollard",
                        "formatted_address": "1715 Thierry Rue (Dollard), Lasalle QC H8N 1H6",
                        "locality": "Lasalle",
                        "postcode": "H8N 1H6",
                        "region": "QC"
                  },
                  "name": "Marchigiani",
                  "popularity": 0.22067799015897047,
                  "price": 2
            },
            {
                  "distance": 703,
                  "location": {
                        "address": "7401 Newman Blvd",
                        "address_extended": "A35",
                        "country": "CA",
                        "cross_street": "",
                        "formatted_address": "7401 Newman Blvd, Montr\u00e9al QC H8N 1X3",
                        "locality": "Montreal",
                        "postcode": "H8N 1X3",
                        "region": "QC"
                  },
                  "name": "Le Taklamakan",
                  "popularity": 0.9216029523088569
            },
            {
                  "distance": 813,
                  "location": {
                        "address": "2046 Lapierre Rue",
                        "country": "CA",
                        "cross_street": "",
                        "formatted_address": "2046 Lapierre Rue, Lasalle QC H8N 2S2",
                        "locality": "Lasalle",
                        "postcode": "H8N 2S2",
                        "region": "QC"
                  },
                  "name": "Sous le Palmier",
                  "popularity": 0.6252365632096897,
                  "price": 2
            },
            {
                  "distance": 823,
                  "location": {
                        "address": "1701 Lapierre Rue",
                        "country": "CA",
                        "cross_street": "at Jean-Chevalier",
                        "formatted_address": "1701 Lapierre Rue (at Jean-Chevalier), Lasalle QC H8N 2M4",
                        "locality": "Lasalle",
                        "postcode": "H8N 2M4",
                        "region": "QC"
                  },
                  "name": "Caf\u00e9 Pete'S Bar",
                  "popularity": 0.01359055639666919,
                  "price": 1
            },
            {
                  "distance": 842,
                  "location": {
                        "address": "2042 Lapierre Rue",
                        "country": "CA",
                        "cross_street": "",
                        "formatted_address": "2042 Lapierre Rue, Montr\u00e9al QC H8N 2S2",
                        "locality": "Montreal",
                        "postcode": "H8N 2S2",
                        "region": "QC"
                  },
                  "name": "Viana Grillades Portugaises",
                  "popularity": 0.978307153671461,
                  "price": 2
            },
            {
                  "distance": 855,
                  "location": {
                        "address": "2000 Lapierre Rue",
                        "country": "CA",
                        "cross_street": "",
                        "formatted_address": "2000 Lapierre Rue, Lasalle QC H8N 1A9",
                        "locality": "Lasalle",
                        "postcode": "H8N 1A9",
                        "region": "QC"
                  },
                  "name": "Agence de Q-Bec Service a Cafe",
                  "popularity": 0.48881056018168056
            },
            {
                  "distance": 855,
                  "location": {
                        "address": "7610 Newman Blvd",
                        "country": "CA",
                        "cross_street": "",
                        "formatted_address": "7610 Newman Blvd, Lasalle QC H8N 1X8",
                        "locality": "Lasalle",
                        "postcode": "H8N 1X8",
                        "region": "QC"
                  },
                  "name": "A&W Restaurant",
                  "popularity": 0.9892482021196064,
                  "price": 1,
                  "store_id": "5721"
            }
      ],
      "context": {
            "geo_bounds": {
                  "circle": {
                        "center": {
                              "latitude": 45.44404309,
                              "longitude": -73.61375213
                        },
                        "radius": 1000
                  }
            }
      }
}