{
      "results": [
            {
                  "distance": 882,
                  "location": {
                        "address": "3310 Blvd de la C\u00f4te-Vertu",
                        "country": "CA",
                        "cross_street": "Beaulac",
                        "formatted_address": "3310 Blvd de la C\u00f4te-Vertu (Beaulac), Saint-Laurent QC H4R 1P8",
                        "locality": "Saint-Laurent",
                        "postcode": "H4R 1P8",
                        "region": "QC"
                  },
                  "name": "Souvlaki Bar",
                  "popularity": 0.9716952119606359,
                  "price": 2,
                  "rating": 8.0
            },
            {
                  "distance": 667,
                  "location": {
                        "address": "3131 Blvd de la C\u00f4te-Vertu",
                        "address_extended": "Place Vertu",
                        "country": "CA",
                        "cross_street": "",
                        "formatted_address": "3131 Blvd de la C\u00f4te-Vertu, Montr\u00e9al QC H4R 1Y8",
                        "locality": "Montreal",
                        "postcode": "H4R 1Y8",
                        "region": "QC"
                  },
                  "name": "All\u00f4! Mon Coco",
                  "popularity": 0.9950913133989402,
                  "price": 1,
                  "rating": 7.9
            },
            {
                  "distance": 655,
                  "location": {
                        "address": "3131 Blvd de la Cote Vertu",
                        "address_extended": "Place Vertu",
                        "country": "CA",
                        "cross_street": "Place Vertu",
                        "formatted_address": "3131 Blvd de la Cote Vertu (Place Vertu), Montr\u00e9al QC H4R 1Y8",
                        "locality": "Montreal",
                        "postcode": "H4R 1Y8",
                        "region": "QC"
                  },
                  "name": "Starbucks",
                  "popularity": 0.983097558667676,
                  "price": 1,
                  "rating": 7.3,
                  "store_id": "4111-142224"
            },
            {
                  "distance": 685,
                  "location": {
                        "address": "3131 de la Cote-Vertu Blvd",
                        "address_extended": "Place Vertu",
                        "country": "CA",
                        "cross_street": "",
                        "formatted_address": "3131 de la Cote-Vertu Blvd, Saint-Laurent QC H4R 1Y8",
                        "locality": "Saint-Laurent",
                        "postcode": "H4R 1Y8",
                        "region": "QC"
                  },
                  "name": "Birreria",
                  "popularity": 0.9819975397426193,
                  "price": 1,
                  "rating": 7.3
            },
            {
                  "distance": 990,
                  "location": {
                        "address": "3450 C\u00f4te-Vertu Rd",
                        "address_extended": "at rue Beaulac",
                        "country": "CA",
                        "cross_street": "at rue Beaulac",
                        "formatted_address": "3450 C\u00f4te-Vertu Rd (at rue Beaulac), Saint-Laurent QC H4R 1P8",
                        "locality": "Saint-Laurent",
                        "postcode": "H4R 1P8",
                        "region": "QC"
                  },
                  "name": "La Cage",
                  "popularity": 0.9828255109765329,
                  "price": 2,
                  "rating": 6.7,
                  "store_id": "LC_09"
            },
            {
                  "distance": 754,
                  "location": {
                        "address": "3131 de la Cote-Vertu Blvd",
                        "address_extended": "Place Vertu",
                        "country": "CA",
                        "cross_street": "at Beaulac",
                        "formatted_address": "3131 de la Cote-Vertu Blvd (at Beaulac), Saint-Laurent QC H4R 1Y8",
                        "locality": "Saint-Laurent",
                        "postcode": "H4R 1Y8",
                        "region": "QC"
                  },
                  "name": "Thai Express",
                  "popularity": 0.8932153671461014,
                  "price": 2,
                  "rating": 6.3
            },
            {
                  "distance": 619,
                  "location": {
                        "address": "3131 Vertu Blvd Cote",
                        "address_extended": "Fc39",
                        "country": "CA",
                        "cross_street": "Beaulac",
                        "formatted_address": "3131 Vertu Blvd Cote (Beaulac), Saint-Laurent QC H4R 1Y5",
                        "locality": "Saint-Laurent",
                        "postcode": "H4R 1Y5",
                        "region": "QC"
                  },
                  "name": "Subway",
                  "popularity": 0.9121640802422407,
                  "price": 1,
                  "rating": 5.6,
                  "store_id": "19298"
            },
            {
                  "distance": 589,
                  "location": {
                        "address": "3131 de la Cote-Vertu Blvd",
                        "address_extended": "Place Vertu",
                        "country": "CA",
                        "cross_street": "btwn rue Beaulac & boul. Cavendish",
                        "formatted_address": "3131 de la Cote-Vertu Blvd (btwn rue Beaulac & boul. Cavendish), Saint-Laurent QC H4R 1Y8",
                        "locality": "Saint-Laurent",
                        "postcode": "H4R 1Y8",
                        "region": "QC"
                  },
                  "name": "McDonald's",
                  "popularity": 0.9972440386071159,
                  "price": 1,
                  "rating": 5.6
            },
            {
                  "distance": 725,
                  "location": {
                        "address": "3131 Blvd de la C\u00f4te-Vertu",
                        "country": "CA",
                        "cross_street": "Rue Cavendish",
                        "formatted_address": "3131 Blvd de la C\u00f4te-Vertu (Rue Cavendish), Montr\u00e9al QC H4R 1Y8",
                        "locality": "Montreal",
                        "postcode": "H4R 1Y8",
                        "region": "QC"
                  },
                  "name": "R\u00f4tisserie Scores",
                  "popularity": 0.9754329106737321,
                  "price": 2,
                  "rating": 5.5,
                  "store_id": "SC_13"
            },
            {
                  "distance": 614,
                  "location": {
                        "address": "3131 de la Cote-Vertu Blvd",
                        "address_extended": "Place Vertu",
                        "country": "CA",
                        "cross_street": "Cavendish",
                        "formatted_address": "3131 de la Cote-Vertu Blvd (Cavendish), Saint-Laurent QC H4R 1Y8",
                        "locality": "Saint-Laurent",
                        "postcode": "H4R 1Y8",
                        "region": "QC"
                  },
                  "name": "Grillades Torino",
                  "popularity": 0.9721801665404997,
                  "price": 2,
                  "store_id": "GT015"
            },
            {
                  "distance": 628,
                  "location": {
                        "address": "3131 Blvd de la Cote-vertu",
                        "address_extended": "Place Vertu",
                        "country": "CA",
                        "cross_street": "",
                        "formatted_address": "3131 Blvd de la Cote-vertu, Saint-Laurent QC H4R 1Y8",
                        "locality": "Saint-Laurent",
                        "postcode": "H4R 1Y8",
                        "region": "QC"
                  },
                  "name": "Tim Hortons",
                  "popularity": 0.37274082134746406,
                  "price": 1
            },
            {
                  "distance": 631,
                  "location": {
                        "address": "5800 Cavendish",
                        "country": "CA",
                        "cross_street": "",
                        "formatted_address": "5800 Cavendish, Roxboro QC",
                        "locality": "Roxboro",
                        "region": "QC"
                  },
                  "name": "MMMuffins",
                  "popularity": 0.08065622634367903,
                  "price": 1
            },
            {
                  "distance": 638,
                  "location": {
                        "address": "3131 Blvd de la C\u00f4te-Vertu",
                        "country": "CA",
                        "cross_street": "",
                        "formatted_address": "3131 Blvd de la C\u00f4te-Vertu, Saint-Laurent QC H4R 1Y8",
                        "locality": "Saint-Laurent",
                        "postcode": "H4R 1Y8",
                        "region": "QC"
                  },
                  "name": "Nickels Deli Express - Place Vertu",
                  "popularity": 0.4921224451173353,
                  "price": 2
            },
            {
                  "distance": 661,
                  "location": {
                        "address": "3131 Blvd de la C\u00f4te-Vertu",
                        "country": "CA",
                        "cross_street": "",
                        "formatted_address": "3131 Blvd de la C\u00f4te-Vertu, Saint-Laurent QC H4R 1Y8",
                        "locality": "Saint-Laurent",
                        "postcode": "H4R 1Y8",
                        "region": "QC"
                  },
                  "name": "Taco Mexi-Que-Cana",
                  "popularity": 0.049903009084027256,
                  "price": 1
            },
            {
                  "distance": 754,
                  "location": {
                        "address": "3131 Blvd de la C\u00f4te-Vertu",
                        "address_extended": "Place Vertu",
                        "country": "CA",
                        "cross_street": "Cavendish",
                        "formatted_address": "3131 Blvd de la C\u00f4te-Vertu (Cavendish), Saint-Laurent QC H4R 1Y8",
                        "locality": "Saint-Laurent",
                        "postcode": "H4R 1Y8",
                        "region": "QC"
                  },
                  "name": "Caf\u00e9 D\u00e9p\u00f4t",
                  "popularity": 0.009285105980317942,
                  "price": 1
            },
            {
                  "distance": 754,
                  "location": {
                        "address": "3131 Blvd C\u00f4te Vertu",
                        "address_extended": "M-8",
                        "country": "CA",
                        "cross_street": "Cavendish",
                        "formatted_address": "3131 Blvd C\u00f4te Vertu (Cavendish), Saint-Laurent QC H4R 1Y8",
                        "locality": "Saint-Laurent",
                        "postcode": "H4R 1Y8",
                        "region": "QC"
                  },
                  "name": "Tiki-Ming",
                  "popularity": 0.9272804693414081,
                  "price": 1
            },
            {
                  "distance": 830,
                  "location": {
                        "address": "3131 de la Cote-Vertu Blvd",
                        "address_extended": "Place Vertu",
                        "country": "CA",
                        "cross_street": "",
                        "formatted_address": "3131 de la Cote-Vertu Blvd, Saint-Laurent QC H4R 1Y8",
                        "locality": "Saint-Laurent",
                        "postcode": "H4R 1Y8",
                        "region": "QC"
                  },
                  "name": "Place Tevere",
                  "popularity": 0.7599356548069645,
                  "price": 2
            },
            {
                  "distance": 315,
                  "location": {
                        "address": "2385 Thimens Blvd",
                        "country": "CA",
                        "formatted_address": "2385 Thimens Blvd, Saint-Laurent QC H4R 1T4",
                        "locality": "Saint-Laurent",
                        "postcode": "H4R 1T4",
                        "region": "QC"
                  },
                  "name": "Unigertec Inc"
            },
            {
                  "distance": 554,
                  "location": {
                        "address": "6625 Victoria Ave",
                        "country": "CA",
                        "formatted_address": "6625 Victoria Ave, Montreal QC H3W 2T2",
                        "locality": "Montreal",
                        "postcode": "H3W 2T2",
                        "region": "QC"
                  },
                  "name": "Restaurant Pfk"
            },
            {
                  "distance": 557,
                  "location": {
                        "address": "3205 Blvd de la Cote-Vertu",
                        "country": "CA",
                        "formatted_address": "3205 Blvd de la Cote-Vertu, Saint-Laurent QC H4R 1Y5",
                        "locality": "Saint-Laurent",
                        "postcode": "H4R 1Y5",
                        "region": "QC"
                  },
                  "name": "Caf\u00e9 Tea Time Inc"
            },
            {
                  "distance": 578,
                  "location": {
                        "address": "2950 Blvd de la Cote Vertu",
                        "country": "CA",
                        "formatted_address": "2950 Blvd de la Cote Vertu, Saint-Laurent QC H4R 3G5",
                        "locality": "Saint-Laurent",
                        "postcode": "H4R 3G5",
                        "region": "QC"
                  },
                  "name": "Subway"
            },
            {
                  "distance": 642,
                  "location": {
                        "address": "3131 Blvd de la C\u00f4te-Vertu",
                        "country": "CA",
                        "formatted_address": "3131 Blvd de la C\u00f4te-Vertu, Saint-Laurent QC H4R 1Y8",
                        "locality": "Saint-Laurent",
                        "postcode": "H4R 1Y8",
                        "region": "QC"
                  },
                  "name": "Teriyaki Experience"
            },
            {
                  "distance": 642,
                  "location": {
                        "address": "3131 de la Cote-Vertu Blvd",
                        "address_extended": "Place Vertu",
                        "country": "CA",
                        "formatted_address": "3131 de la Cote-Vertu Blvd, Saint-Laurent QC H4R 1Y8",
                        "locality": "Saint-Laurent",
                        "postcode": "H4R 1Y8",
                        "region": "QC"
                  },
                  "name": "Creations Chop Crazy"
            },
            {
                  "distance": 645,
                  "location": {
                        "address": "3131 Blvd de la C\u00f4te-Vertu",
                        "country": "CA",
                        "formatted_address": "3131 Blvd de la C\u00f4te-Vertu, Saint-Laurent QC H4R 1Y8",
                        "locality": "Saint-Laurent",
                        "postcode": "H4R 1Y8",
                        "region": "QC"
                  },
                  "name": "Aqua Massage"
            },
            {
                  "distance": 658,
                  "location": {
                        "address": "2326 Modugno Rue",
                        "country": "CA",
                        "formatted_address": "2326 Modugno Rue, Saint-Laurent QC H4R 1W6",
                        "locality": "Saint-Laurent",
                        "postcode": "H4R 1W6",
                        "region": "QC"
                  },
                  "name": "Restaurant la Provincial"
            },
            {
                  "distance": 669,
                  "location": {
                        "address": "3131 Vertu Blvd Cote",
                        "country": "CA",
                        "formatted_address": "3131 Vertu Blvd Cote, Saint-Laurent QC",
                        "locality": "Saint-Laurent",
                        "region": "QC"
                  },
                  "name": "Bistro Cafe"
            },
            {
                  "distance": 680,
                  "location": {
                        "address": "3500 Cotevertu Rd 180",
                        "country": "CA",
                        "formatted_address": "3500 Cotevertu Rd 180, Saint-Laurent QC H4R 1P8",
                        "locality": "Saint-Laurent",
                        "postcode": "H4R 1P8",
                        "region": "QC"
                  },
                  "name": "Subway",
                  "store_id": "44695"
            },
            {
                  "distance": 695,
                  "location": {
                        "address": "3131 Blvd Cote-Vertu",
                        "address_extended": "Place Vertu",
                        "country": "CA",
                        "formatted_address": "3131 Blvd Cote-Vertu, Saint-Laurent QC H4R 1Y8",
                        "locality": "Saint-Laurent",
                        "postcode": "H4R 1Y8",
                        "region": "QC"
                  },
                  "name": "Kim Chi - D\u00e9lice Cor\u00e9en"
            },
            {
                  "distance": 737,
                  "location": {
                        "address": "3205 Blvd de la Cote-Vertu",
                        "country": "CA",
                        "formatted_address": "3205 Blvd de la Cote-Vertu, Saint-Laurent QC H4R 1Y5",
                        "locality": "Saint-Laurent",
                        "postcode": "H4R 1Y5",
                        "region": "QC"
                  },
                  "name": "Subway Place Vertu"
            },
            {
                  "distance": 756,
                  "location": {
                        "address": "3131 Blvd de la cote-Vertu",
                        "country": "CA",
                        "formatted_address": "3131 Blvd de la cote-Vertu, Saint-Laurent QC H4R 1Y8",
                        "locality": "Saint-Laurent",
                        "postcode": "H4R 1Y8",
                        "region": "QC"
                  },
                  "name": "Gestion F Awad Restaurant Kabab"
            },
            {
                  "distance": 763,
                  "location": {
                        "address": "3131 de la Cote-Vertu Blvd",
                        "address_extended": "Place Vertu",
                        "country": "CA",
                        "formatted_address": "3131 de la Cote-Vertu Blvd, Saint-Laurent QC H4R 1Y8",
                        "locality": "Saint-Laurent",
                        "postcode": "H4R 1Y8",
                        "region": "QC"
                  },
                  "name": "Scores"
            },
            {
                  "distance": 831,
                  "location": {
                        "address": "1300 Alexis-Nihon Blvd",
                        "country": "CA",
                        "formatted_address": "1300 Alexis-Nihon Blvd, Saint-Laurent QC H4R 2K8",
                        "locality": "Saint-Laurent",
                        "postcode": "H4R 2K8",
                        "region": "QC"
                  },
                  "name": "Allegro"
            },
            {
                  "distance": 832,
                  "location": {
                        "address": "3205 Blvd de la C\u00f4te-Vertu",
                        "country": "CA",
                        "formatted_address": "3205 Blvd de la C\u00f4te-Vertu, Montreal QC H4R 1Y5",
                        "locality": "Montreal",
                        "postcode": "H4R 1Y5",
                        "region": "QC"
                  },
                  "name": "Cafe Supreme"
            },
            {
                  "distance": 857,
                  "location": {
                        "address": "2150 Lucien-Thimens Rue",
                        "country": "CA",
                        "formatted_address": "2150 Lucien-Thimens Rue, Saint-Laurent QC H4R 1L1",
                        "locality": "Saint-Laurent",
                        "postcode": "H4R 1L1",
                        "region": "QC"
                  },
                  "name": "Euro-Nec Inc"
            },
            {
                  "distance": 919,
                  "location": {
                        "address": "3330 Ch. de la Cote-vertu",
                        "country": "CA",
                        "formatted_address": "3330 Ch. de la Cote-vertu, Saint-Laurent QC H4R 1P8",
                        "locality": "Saint-Laurent",
                        "postcode": "H4R 1P8",
                        "region": "QC"
                  },
                  "name": "McDonald's",
                  "store_id": "26008"
            }
      ],
      "context": {
            "geo_bounds": {
                  "circle": {
                        "center": {
                              "latitude": 45.50403767,
                              "longitude": -73.70444298
                        },
                        "radius": 1000
                  }
            }
      }
}