{
      "results": [
            {
                  "distance": 218,
                  "location": {
                        "address": "6703 Sherbrooke Rue O",
                        "country": "CA",
                        "cross_street": "Montclair St.",
                        "formatted_address": "6703 Sherbrooke Rue O (Montclair St.), Montr\u00e9al QC H4B 1P3",
                        "locality": "Montreal",
                        "postcode": "H4B 1P3",
                        "region": "QC"
                  },
                  "name": "Cafe 92 Degres",
                  "popularity": 0.9332300340651022,
                  "price": 1,
                  "rating": 8.7
            },
            {
                  "distance": 605,
                  "location": {
                        "address": "6710 Saint Jacques Rue O",
                        "country": "CA",
                        "formatted_address": "6710 Saint Jacques Rue O, Montr\u00e9al QC H4B 1V8",
                        "locality": "Montreal",
                        "postcode": "H4B 1V8",
                        "region": "QC"
                  },
                  "name": "Eggs Frutti",
                  "popularity": 0.9720618849356548,
                  "price": 1,
                  "rating": 8.2
            },
            {
                  "distance": 741,
                  "location": {
                        "address": "7345 Sherbrooke St W",
                        "address_extended": "# 7335",
                        "country": "CA",
                        "formatted_address": "7345 Sherbrooke St W, Montr\u00e9al QC H4B 1R9",
                        "locality": "Montreal",
                        "postcode": "H4B 1R9",
                        "region": "QC"
                  },
                  "name": "Second Cup Coffee Co",
                  "popularity": 0.9502980696442089,
                  "price": 1,
                  "rating": 7.9,
                  "store_id": "3118"
            },
            {
                  "distance": 552,
                  "location": {
                        "address": "3373 Cavendish Blvd",
                        "country": "CA",
                        "cross_street": "",
                        "formatted_address": "3373 Cavendish Blvd, Montr\u00e9al QC H4B 2L7",
                        "locality": "Montreal",
                        "postcode": "H4B 2L7",
                        "region": "QC"
                  },
                  "name": "The Wheel Club",
                  "popularity": 0.9835943414080243,
                  "rating": 7.5
            },
            {
                  "distance": 831,
                  "location": {
                        "address": "7420 Sherbrooke Rue W",
                        "address_extended": "Elmhurst St",
                        "country": "CA",
                        "cross_street": "Elmhurst St",
                        "formatted_address": "7420 Sherbrooke Rue W (Elmhurst St), Montr\u00e9al QC H4B 1R7",
                        "locality": "Montreal",
                        "postcode": "H4B 1R7",
                        "region": "QC"
                  },
                  "name": "Subway",
                  "popularity": 0.986610522331567,
                  "price": 1,
                  "rating": 6.4
            },
            {
                  "distance": 824,
                  "location": {
                        "address": "6495 St Jacques Rue",
                        "country": "CA",
                        "cross_street": "Cavendish",
                        "formatted_address": "6495 St Jacques Rue (Cavendish), Montr\u00e9al QC H4B 1V1",
                        "locality": "Montreal",
                        "postcode": "H4B 1V1",
                        "region": "QC"
                  },
                  "name": "Tim Hortons",
                  "popularity": 0.9952923921271764,
                  "price": 1,
                  "rating": 6.3
            },
            {
                  "distance": 752,
                  "location": {
                        "address": "6390 Sherbrooke Rue O",
                        "country": "CA",
                        "cross_street": "",
                        "formatted_address": "6390 Sherbrooke Rue O, Montr\u00e9al QC H4B 1M9",
                        "locality": "Montreal",
                        "postcode": "H4B 1M9",
                        "region": "QC"
                  },
                  "name": "Pizza Pizza",
                  "popularity": 0.9750189250567751,
                  "price": 1,
                  "rating": 6.3,
                  "store_id": "302"
            },
            {
                  "distance": 696,
                  "location": {
                        "address": "7270 Saint-Jacques Rue",
                        "country": "CA",
                        "cross_street": "rue West Broadway",
                        "formatted_address": "7270 Saint-Jacques Rue (rue West Broadway), Montr\u00e9al QC H4B 1W1",
                        "locality": "Montreal",
                        "postcode": "H4B 1W1",
                        "region": "QC"
                  },
                  "name": "McDonald's",
                  "popularity": 0.9968891937925813,
                  "price": 1,
                  "rating": 5.6,
                  "store_id": "7795"
            },
            {
                  "distance": 141,
                  "location": {
                        "address": "6926 Sherbrooke Rue O",
                        "address_extended": "Suite 1",
                        "country": "CA",
                        "cross_street": "",
                        "formatted_address": "6926 Sherbrooke Rue O, Montr\u00e9al QC H4B 1P9",
                        "locality": "Montreal",
                        "postcode": "H4B 1P9",
                        "region": "QC"
                  },
                  "name": "MIA Caf\u00e9 Club",
                  "popularity": 0.8483156699470098,
                  "price": 1
            },
            {
                  "distance": 210,
                  "location": {
                        "address": "6969 Sherbrooke Rue O",
                        "country": "CA",
                        "cross_street": "",
                        "formatted_address": "6969 Sherbrooke Rue O, Montr\u00e9al QC H4B 1R1",
                        "locality": "Montreal",
                        "postcode": "H4B 1R1",
                        "region": "QC"
                  },
                  "name": "Dagwoods Sandwiches",
                  "popularity": 0.9354892127176382,
                  "price": 1
            },
            {
                  "distance": 575,
                  "location": {
                        "address": "6820 Saint-Jacques Rue",
                        "country": "CA",
                        "cross_street": "",
                        "formatted_address": "6820 Saint-Jacques Rue, Montr\u00e9al QC H4B 1V8",
                        "locality": "Montreal",
                        "postcode": "H4B 1V8",
                        "region": "QC"
                  },
                  "name": "Bar les Amazones",
                  "popularity": 0.9944644208932627,
                  "price": 3
            },
            {
                  "distance": 588,
                  "location": {
                        "address": "3300 Cavendish Blvd",
                        "country": "CA",
                        "formatted_address": "3300 Cavendish Blvd, Montr\u00e9al QC H4B 2M8",
                        "locality": "Montreal",
                        "postcode": "H4B 2M8",
                        "region": "QC"
                  },
                  "name": "Seoul B B Q",
                  "popularity": 0.8914529712339136,
                  "price": 2
            },
            {
                  "distance": 590,
                  "location": {
                        "address": "6752 St Jacques O",
                        "country": "CA",
                        "cross_street": "",
                        "formatted_address": "6752 St Jacques O, Montr\u00e9al QC",
                        "locality": "Montreal",
                        "region": "QC"
                  },
                  "name": "La Belle Province",
                  "popularity": 0.8788441521574565,
                  "price": 1
            },
            {
                  "distance": 598,
                  "location": {
                        "address": "6710 Saint Jacques Rue O",
                        "country": "CA",
                        "cross_street": "",
                        "formatted_address": "6710 Saint Jacques Rue O, Montreal QC H4B 1V8",
                        "locality": "Montreal",
                        "postcode": "H4B 1V8",
                        "region": "QC"
                  },
                  "name": "Rumors",
                  "popularity": 0.5494890234670704,
                  "price": 2
            },
            {
                  "distance": 609,
                  "location": {
                        "address": "6710 Saint-Jacques Rue",
                        "country": "CA",
                        "cross_street": "",
                        "formatted_address": "6710 Saint-Jacques Rue, Montr\u00e9al QC H4B 1V8",
                        "locality": "Montreal",
                        "postcode": "H4B 1V8",
                        "region": "QC"
                  },
                  "name": "Kosa Restaurant",
                  "popularity": 0.946099072672218,
                  "price": 2
            },
            {
                  "distance": 775,
                  "location": {
                        "address": "7363 Sherbrooke Rue O",
                        "country": "CA",
                        "cross_street": "",
                        "formatted_address": "7363 Sherbrooke Rue O, Montreal QC H4B 1S1",
                        "locality": "Montreal",
                        "postcode": "H4B 1S1",
                        "region": "QC"
                  },
                  "name": "Romi Pizza",
                  "popularity": 0.682070874337623,
                  "price": 1
            },
            {
                  "distance": 798,
                  "location": {
                        "address": "6573 Somerled Ave",
                        "country": "CA",
                        "cross_street": "",
                        "formatted_address": "6573 Somerled Ave, Montr\u00e9al QC H4V 1T1",
                        "locality": "Montreal",
                        "postcode": "H4V 1T1",
                        "region": "QC"
                  },
                  "name": "Sushi Hoshimi",
                  "popularity": 0.8775903671461014,
                  "price": 2
            },
            {
                  "distance": 808,
                  "location": {
                        "address": "6563 Somerled Ave",
                        "country": "CA",
                        "cross_street": "",
                        "formatted_address": "6563 Somerled Ave, Montr\u00e9al QC H4V 1T1",
                        "locality": "Montreal",
                        "postcode": "H4V 1T1",
                        "region": "QC"
                  },
                  "name": "Olivia\u2019s Poulet Authentique",
                  "popularity": 0.9211061695685087,
                  "price": 1
            },
            {
                  "distance": 810,
                  "location": {
                        "address": "6365 Sherbrooke Rue O",
                        "country": "CA",
                        "cross_street": "",
                        "formatted_address": "6365 Sherbrooke Rue O, Montreal QC H4B 1N1",
                        "locality": "Montreal",
                        "postcode": "H4B 1N1",
                        "region": "QC"
                  },
                  "name": "Amir",
                  "popularity": 0.929196631339894,
                  "price": 2
            },
            {
                  "distance": 834,
                  "location": {
                        "address": "6509 Somerled Ave",
                        "country": "CA",
                        "cross_street": "Cavendish",
                        "formatted_address": "6509 Somerled Ave (Cavendish), Montr\u00e9al QC H4V 1S7",
                        "locality": "Montreal",
                        "postcode": "H4V 1S7",
                        "region": "QC"
                  },
                  "name": "Velat Pizza",
                  "popularity": 0.9283923164269493,
                  "price": 1
            },
            {
                  "distance": 838,
                  "location": {
                        "address": "7425 Saint-Jacques Rue",
                        "country": "CA",
                        "cross_street": "",
                        "formatted_address": "7425 Saint-Jacques Rue, Montr\u00e9al QC H4B 1W6",
                        "locality": "Montreal",
                        "postcode": "H4B 1W6",
                        "region": "QC"
                  },
                  "name": "Goldie'S Resto Bar",
                  "popularity": 0.7141488455715367,
                  "price": 2
            },
            {
                  "distance": 839,
                  "location": {
                        "address": "6543 Somerled Ave",
                        "country": "CA",
                        "cross_street": "",
                        "formatted_address": "6543 Somerled Ave, Montr\u00e9al QC H4V 1S7",
                        "locality": "Montreal",
                        "postcode": "H4V 1S7",
                        "region": "QC"
                  },
                  "name": "Patisserie Churro",
                  "popularity": 0.9092898372445117,
                  "price": 1
            },
            {
                  "distance": 840,
                  "location": {
                        "address": "6543A Somerled Ave",
                        "country": "CA",
                        "cross_street": "Cavendish",
                        "formatted_address": "6543A Somerled Ave (Cavendish), Montr\u00e9al QC H4V 1S7",
                        "locality": "Montreal",
                        "postcode": "H4V 1S7",
                        "region": "QC"
                  },
                  "name": "Le Caf\u00e9 Bomnal",
                  "popularity": 0.8393380961392884,
                  "price": 1
            },
            {
                  "distance": 846,
                  "location": {
                        "address": "6535 Somerled Ave",
                        "country": "CA",
                        "cross_street": "",
                        "formatted_address": "6535 Somerled Ave, Montr\u00e9al QC H4V 1S7",
                        "locality": "Montreal",
                        "postcode": "H4V 1S7",
                        "region": "QC"
                  },
                  "name": "Oregano's Grill",
                  "popularity": 0.07191521574564724,
                  "price": 2
            },
            {
                  "distance": 854,
                  "location": {
                        "address": "6521 Somerled Ave",
                        "country": "CA",
                        "cross_street": "",
                        "formatted_address": "6521 Somerled Ave, Montr\u00e9al QC H4V 1S7",
                        "locality": "Montreal",
                        "postcode": "H4V 1S7",
                        "region": "QC"
                  },
                  "name": "Hoho Korean Bbq",
                  "popularity": 0.969684424678274,
                  "price": 2
            },
            {
                  "distance": 862,
                  "location": {
                        "address": "6521 Somerled Ave",
                        "country": "CA",
                        "cross_street": "",
                        "formatted_address": "6521 Somerled Ave, Montr\u00e9al QC H4V 1S7",
                        "locality": "Montreal",
                        "postcode": "H4V 1S7",
                        "region": "QC"
                  },
                  "name": "Mon Ami Korean BBQ",
                  "popularity": 0.9133587244511734,
                  "price": 2
            },
            {
                  "distance": 870,
                  "location": {
                        "address": "6563 Somerled Ave",
                        "country": "CA",
                        "cross_street": "Cavendish",
                        "formatted_address": "6563 Somerled Ave (Cavendish), Montr\u00e9al QC H4V 1T1",
                        "locality": "Montreal",
                        "postcode": "H4V 1T1",
                        "region": "QC"
                  },
                  "name": "Le K'Bob",
                  "popularity": 0.7208908970476912,
                  "price": 2
            },
            {
                  "distance": 57,
                  "location": {
                        "address": "281 St Denis",
                        "country": "CA",
                        "formatted_address": "281 St Denis, Montreal QC",
                        "locality": "Montreal",
                        "region": "QC"
                  },
                  "name": "2 Sorelle Gelato"
            },
            {
                  "distance": 201,
                  "location": {
                        "address": "2438 Ave de Mayfair",
                        "country": "CA",
                        "formatted_address": "2438 Ave de Mayfair, Montreal QC",
                        "locality": "Montreal",
                        "region": "QC"
                  },
                  "name": "Pisko"
            },
            {
                  "distance": 212,
                  "location": {
                        "address": "6707 Sherbrooke Rue O",
                        "country": "CA",
                        "formatted_address": "6707 Sherbrooke Rue O, Montreal QC H4B 1P3",
                        "locality": "Montreal",
                        "postcode": "H4B 1P3",
                        "region": "QC"
                  },
                  "name": "Restaurant de Chou"
            },
            {
                  "distance": 213,
                  "location": {
                        "address": "2373 Mariette Ave",
                        "country": "CA",
                        "formatted_address": "2373 Mariette Ave, Montreal QC H4B 2E7",
                        "locality": "Montreal",
                        "postcode": "H4B 2E7",
                        "region": "QC"
                  },
                  "name": "Della & Daughter's Cakes and Desserts"
            },
            {
                  "distance": 247,
                  "location": {
                        "address": "6995 Ave de Monkland",
                        "country": "CA",
                        "formatted_address": "6995 Ave de Monkland, Montreal QC H4B 1J8",
                        "locality": "Montreal",
                        "postcode": "H4B 1J8",
                        "region": "QC"
                  },
                  "name": "Souvlaki Georges"
            },
            {
                  "distance": 513,
                  "location": {
                        "address": "3131 Blvd de la C\u00f4te-Vertu",
                        "country": "CA",
                        "formatted_address": "3131 Blvd de la C\u00f4te-Vertu, Montreal QC H4R 1Y5",
                        "locality": "Montreal",
                        "postcode": "H4R 1Y5",
                        "region": "QC"
                  },
                  "name": "A la Japonaise"
            },
            {
                  "distance": 554,
                  "location": {
                        "address": "3383 Cavendish Blvd",
                        "country": "CA",
                        "formatted_address": "3383 Cavendish Blvd, Montreal QC H4B 2L7",
                        "locality": "Montreal",
                        "postcode": "H4B 2L7",
                        "region": "QC"
                  },
                  "name": "Montreal Jazz & Blues"
            },
            {
                  "distance": 569,
                  "location": {
                        "address": "6810 Saint-Jacques Rue",
                        "country": "CA",
                        "formatted_address": "6810 Saint-Jacques Rue, Montreal QC H4B 1V8",
                        "locality": "Montreal",
                        "postcode": "H4B 1V8",
                        "region": "QC"
                  },
                  "name": "Picasso Serre"
            }
      ],
      "context": {
            "geo_bounds": {
                  "circle": {
                        "center": {
                              "latitude": 45.46072936,
                              "longitude": -73.63407254
                        },
                        "radius": 1000
                  }
            }
      }
}