{
      "results": [
            {
                  "distance": 581,
                  "location": {
                        "address": "360 Saint-Jacques Rue",
                        "country": "CA",
                        "cross_street": "",
                        "formatted_address": "360 Saint-Jacques Rue, Montr\u00e9al QC H2Y 1P5",
                        "locality": "Montreal",
                        "postcode": "H2Y 1P5",
                        "region": "QC"
                  },
                  "name": "Crew Collective & Caf\u00e9",
                  "popularity": 0.9824115253595761,
                  "price": 1,
                  "rating": 9.3
            },
            {
                  "distance": 462,
                  "location": {
                        "address": "195 Young Rue",
                        "country": "CA",
                        "cross_street": "entre Ottawa & Wellington",
                        "formatted_address": "195 Young Rue (entre Ottawa & Wellington), Montr\u00e9al QC H3C 2E9",
                        "locality": "Montreal",
                        "postcode": "H3C 2E9",
                        "region": "QC"
                  },
                  "name": "La B\u00eate \u00e0 Pain",
                  "popularity": 0.967153198334595,
                  "price": 1,
                  "rating": 9.3
            },
            {
                  "distance": 518,
                  "location": {
                        "address": "351 Saint-Paul Rue O",
                        "country": "CA",
                        "cross_street": "Coin St-Pierre",
                        "formatted_address": "351 Saint-Paul Rue O (Coin St-Pierre), Montr\u00e9al QC H2Y 2A7",
                        "locality": "Montreal",
                        "postcode": "H2Y 2A7",
                        "region": "QC"
                  },
                  "name": "Olive & Gourmando",
                  "popularity": 0.9503217259651779,
                  "price": 2,
                  "rating": 9.2
            },
            {
                  "distance": 868,
                  "location": {
                        "address": "1067 Rue de Bleury",
                        "country": "CA",
                        "cross_street": "De la Gaucheti\u00e8re",
                        "formatted_address": "1067 Rue de Bleury (De la Gaucheti\u00e8re), Montr\u00e9al QC H2Z 1N1",
                        "locality": "Montreal",
                        "postcode": "H2Z 1N1",
                        "region": "QC"
                  },
                  "name": "La Finca caf\u00e9 & bureau",
                  "popularity": 0.9523798258894777,
                  "price": 1,
                  "rating": 9.1
            },
            {
                  "distance": 303,
                  "location": {
                        "address": "782 Wellington Rue",
                        "country": "CA",
                        "cross_street": "Prince",
                        "formatted_address": "782 Wellington Rue (Prince), Montr\u00e9al QC H3C 1T7",
                        "locality": "Montreal",
                        "postcode": "H3C 1T7",
                        "region": "QC"
                  },
                  "name": "Monopole",
                  "popularity": 0.9502389288417865,
                  "price": 1,
                  "rating": 9.0
            },
            {
                  "distance": 534,
                  "location": {
                        "address": "312 Saint-Paul Rue O",
                        "country": "CA",
                        "cross_street": "Saint-Pierre",
                        "formatted_address": "312 Saint-Paul Rue O (Saint-Pierre), Montr\u00e9al QC H2Y 2A3",
                        "locality": "Montreal",
                        "postcode": "H2Y 2A3",
                        "region": "QC"
                  },
                  "name": "Barroco",
                  "popularity": 0.9301901968205905,
                  "price": 4,
                  "rating": 9.0
            },
            {
                  "distance": 611,
                  "location": {
                        "address": "425 Saint Nicolas Rue",
                        "country": "CA",
                        "cross_street": "",
                        "formatted_address": "425 Saint Nicolas Rue, Montr\u00e9al QC H2Y 2P4",
                        "locality": "Montreal",
                        "postcode": "H2Y 2P4",
                        "region": "QC"
                  },
                  "name": "Mandy's",
                  "popularity": 0.9572175435276306,
                  "price": 1,
                  "rating": 9.0
            },
            {
                  "distance": 1003,
                  "location": {
                        "address": "1206 Stanley Rue",
                        "country": "CA",
                        "cross_street": "entre Ren\u00e9-L\u00e9vesque & Ste-Catherine",
                        "formatted_address": "1206 Stanley Rue (entre Ren\u00e9-L\u00e9vesque & Ste-Catherine), Montr\u00e9al QC H3B 2S7",
                        "locality": "Montreal",
                        "postcode": "H3B 2S7",
                        "region": "QC"
                  },
                  "name": "Melk Bar a Caf\u00e9",
                  "popularity": 0.9670704012112036,
                  "price": 2,
                  "rating": 9.0
            },
            {
                  "distance": 471,
                  "location": {
                        "address": "363 d'Youville Pl",
                        "country": "CA",
                        "cross_street": "St Pierre et McGill",
                        "formatted_address": "363 d'Youville Pl (St Pierre et McGill), Montr\u00e9al QC H2Y 2B7",
                        "locality": "Montreal",
                        "postcode": "H2Y 2B7",
                        "region": "QC"
                  },
                  "name": "Deli Italien Bello",
                  "popularity": 0.9035058667676003,
                  "price": 2,
                  "rating": 8.9
            },
            {
                  "distance": 805,
                  "location": {
                        "address": "139 Saint-Paul Rue O",
                        "country": "CA",
                        "cross_street": "",
                        "formatted_address": "139 Saint-Paul Rue O, Montr\u00e9al QC H2Y 1Z5",
                        "locality": "Montreal",
                        "postcode": "H2Y 1Z5",
                        "region": "QC"
                  },
                  "name": "Pub Wolf & Workman",
                  "popularity": 0.9454485238455715,
                  "price": 2,
                  "rating": 8.7
            },
            {
                  "distance": 388,
                  "location": {
                        "address": "460 McGill Rue",
                        "country": "CA",
                        "cross_street": "",
                        "formatted_address": "460 McGill Rue, Montr\u00e9al QC H2Y 2H2",
                        "locality": "Montreal",
                        "postcode": "H2Y 2H2",
                        "region": "QC"
                  },
                  "name": "Structure Torr\u00e9facteurs - Structure Coffee Roasters",
                  "popularity": 0.9362343868281605,
                  "price": 1,
                  "rating": 8.6
            },
            {
                  "distance": 779,
                  "location": {
                        "address": "151 Saint-Paul Rue O",
                        "country": "CA",
                        "cross_street": "",
                        "formatted_address": "151 Saint-Paul Rue O, Montr\u00e9al QC H2Y 1Z5",
                        "locality": "Montreal",
                        "postcode": "H2Y 1Z5",
                        "region": "QC"
                  },
                  "name": "Tommy Caf\u00e9",
                  "popularity": 0.9337741294473884,
                  "price": 1,
                  "rating": 8.6
            },
            {
                  "distance": 915,
                  "location": {
                        "address": "711 cote de la Place-d'Armes",
                        "country": "CA",
                        "cross_street": "St-Jacques",
                        "formatted_address": "711 cote de la Place-d'Armes (St-Jacques), Montr\u00e9al QC H2Y 2X6",
                        "locality": "Montreal",
                        "postcode": "H2Y 2X6",
                        "region": "QC"
                  },
                  "name": "Kyo Bar Japonais",
                  "popularity": 0.9498722558667676,
                  "price": 2,
                  "rating": 8.6
            },
            {
                  "distance": 387,
                  "location": {
                        "address": "433 McGill Rue",
                        "country": "CA",
                        "cross_street": "St-Maurice",
                        "formatted_address": "433 McGill Rue (St-Maurice), Montr\u00e9al QC H2Y 2H1",
                        "locality": "Montreal",
                        "postcode": "H2Y 2H1",
                        "region": "QC"
                  },
                  "name": "Brit & Chips",
                  "popularity": 0.9405280090840272,
                  "price": 2,
                  "rating": 8.6
            },
            {
                  "distance": 232426,
                  "location": {
                        "address": "363 d'Youville Pl",
                        "country": "CA",
                        "cross_street": "",
                        "formatted_address": "363 d'Youville Pl, Montreal QC H2Y 2B7",
                        "locality": "Qu\u00e9bec",
                        "postcode": "H2Y 2B7",
                        "region": "QC"
                  },
                  "name": "Bello Deli",
                  "popularity": 0.9531404375441073,
                  "price": 2,
                  "rating": 8.5
            },
            {
                  "distance": 881,
                  "location": {
                        "address": "453 Saint-Sulpice Rue",
                        "country": "CA",
                        "cross_street": "Notre-Dame O.",
                        "formatted_address": "453 Saint-Sulpice Rue (Notre-Dame O.), Montr\u00e9al QC H2Y 2V8",
                        "locality": "Montreal",
                        "postcode": "H2Y 2V8",
                        "region": "QC"
                  },
                  "name": "Les Glaceurs",
                  "popularity": 0.9073145344436033,
                  "price": 3,
                  "rating": 8.5
            },
            {
                  "distance": 935,
                  "location": {
                        "address": "1485 Ottawa Rue",
                        "country": "CA",
                        "cross_street": "coin Guy",
                        "formatted_address": "1485 Ottawa Rue (coin Guy), Montr\u00e9al QC H3C 1S9",
                        "locality": "Montreal",
                        "postcode": "H3C 1S9",
                        "region": "QC"
                  },
                  "name": "Brasseur de Montr\u00e9al",
                  "popularity": 0.9854750189250567,
                  "price": 2,
                  "rating": 8.5
            },
            {
                  "distance": 723,
                  "location": {
                        "address": "179 Saint-Paul Rue O",
                        "country": "CA",
                        "cross_street": "Place Royale",
                        "formatted_address": "179 Saint-Paul Rue O (Place Royale), Montr\u00e9al QC H2Y 1Z5",
                        "locality": "Montreal",
                        "postcode": "H2Y 1Z5",
                        "region": "QC"
                  },
                  "name": "Le Petit Dep",
                  "popularity": 0.9530540310370931,
                  "rating": 8.5
            },
            {
                  "distance": 749,
                  "location": {
                        "address": "200 Notre-Dame Rue O",
                        "country": "CA",
                        "cross_street": "coin Saint-Fran\u00e7ois Xavier",
                        "formatted_address": "200 Notre-Dame Rue O (coin Saint-Fran\u00e7ois Xavier), Montr\u00e9al QC H2Y 1T3",
                        "locality": "Montreal",
                        "postcode": "H2Y 1T3",
                        "region": "QC"
                  },
                  "name": "Tommy",
                  "popularity": 0.9703586298258895,
                  "price": 1,
                  "rating": 8.3
            },
            {
                  "distance": 605,
                  "location": {
                        "address": "300 Rue de la Montagne",
                        "country": "CA",
                        "cross_street": "Rue Du Seminaire",
                        "formatted_address": "300 Rue de la Montagne (Rue Du Seminaire), Montr\u00e9al QC H3C 2B1",
                        "locality": "Montreal",
                        "postcode": "H3C 2B1",
                        "region": "QC"
                  },
                  "name": "Le Petit Dep",
                  "popularity": 0.9751963474640424,
                  "price": 1,
                  "rating": 8.2
            },
            {
                  "distance": 372,
                  "location": {
                        "address": "468 McGill Rue",
                        "country": "CA",
                        "cross_street": "",
                        "formatted_address": "468 McGill Rue, Montr\u00e9al QC H2Y 2H2",
                        "locality": "Montreal",
                        "postcode": "H2Y 2H2",
                        "region": "QC"
                  },
                  "name": "Five Guys Burgers & Fries",
                  "popularity": 0.9749361279333838,
                  "price": 2,
                  "rating": 8.2,
                  "store_id": "1281"
            },
            {
                  "distance": 428,
                  "location": {
                        "address": "626 Marguerite d'Youville Rue",
                        "country": "CA",
                        "cross_street": "",
                        "formatted_address": "626 Marguerite d'Youville Rue, Montr\u00e9al QC H3C 1W7",
                        "locality": "Montreal",
                        "postcode": "H3C 1W7",
                        "region": "QC"
                  },
                  "name": "Jellyfish Crudo+Charbon",
                  "popularity": 0.9344601627554883,
                  "price": 3,
                  "rating": 8.1
            },
            {
                  "distance": 507,
                  "location": {
                        "address": "100 Peel Rue",
                        "country": "CA",
                        "cross_street": "coin Smith",
                        "formatted_address": "100 Peel Rue (coin Smith), Montr\u00e9al QC H3C 0L8",
                        "locality": "Montreal",
                        "postcode": "H3C 0L8",
                        "region": "QC"
                  },
                  "name": "Zibo",
                  "popularity": 0.9744275170325511,
                  "price": 2,
                  "rating": 8.1
            },
            {
                  "distance": 988,
                  "location": {
                        "address": "1250 Robert-Bourassa Blvd",
                        "country": "CA",
                        "cross_street": "",
                        "formatted_address": "1250 Robert-Bourassa Blvd, Montr\u00e9al QC H3B 3B8",
                        "locality": "Montreal",
                        "postcode": "H3B 3B8",
                        "region": "QC"
                  },
                  "name": "Le East",
                  "popularity": 0.9653316616199848,
                  "price": 2,
                  "rating": 8.1
            },
            {
                  "distance": 937,
                  "location": {
                        "address": "1080 Rue de Bleury",
                        "country": "CA",
                        "cross_street": "",
                        "formatted_address": "1080 Rue de Bleury, Montr\u00e9al QC H2Z 1N2",
                        "locality": "Montreal",
                        "postcode": "H2Z 1N2",
                        "region": "QC"
                  },
                  "name": "Chifa",
                  "popularity": 0.9603165215745647,
                  "price": 2,
                  "rating": 8.0
            },
            {
                  "distance": 829,
                  "location": {
                        "address": "124 Saint-Paul Rue O",
                        "country": "CA",
                        "cross_street": "Place Royale",
                        "formatted_address": "124 Saint-Paul Rue O (Place Royale), Montr\u00e9al QC H2Y 1Z3",
                        "locality": "Montreal",
                        "postcode": "H2Y 1Z3",
                        "region": "QC"
                  },
                  "name": "M\u00e9chant B\u0153uf Bar & Brasserie",
                  "popularity": 0.922537376987131,
                  "price": 2,
                  "rating": 8.0
            },
            {
                  "distance": 441,
                  "location": {
                        "address": "1059 Wellington Rue",
                        "country": "CA",
                        "cross_street": "Rue Peel",
                        "formatted_address": "1059 Wellington Rue (Rue Peel), Montr\u00e9al QC H3C 1V6",
                        "locality": "Montreal",
                        "postcode": "H3C 1V6",
                        "region": "QC"
                  },
                  "name": "Pizzeria Moretti",
                  "popularity": 0.965237036336109,
                  "price": 2,
                  "rating": 8.0
            },
            {
                  "distance": 629,
                  "location": {
                        "address": "230 Saint-Paul Rue O",
                        "country": "CA",
                        "cross_street": "Rue St-Nicolas",
                        "formatted_address": "230 Saint-Paul Rue O (Rue St-Nicolas), Montr\u00e9al QC H2Y 1Z9",
                        "locality": "Montreal",
                        "postcode": "H2Y 1Z9",
                        "region": "QC"
                  },
                  "name": "Restaurant Gandhi (restaurant Gandhi)",
                  "popularity": 0.9266299205147616,
                  "price": 3,
                  "rating": 7.9
            },
            {
                  "distance": 921,
                  "location": {
                        "address": "701 cote de la Place-d'Armes",
                        "country": "CA",
                        "cross_street": "St-Jacques",
                        "formatted_address": "701 cote de la Place-d'Armes (St-Jacques), Montr\u00e9al QC H2Y 2X6",
                        "locality": "Montreal",
                        "postcode": "H2Y 2X6",
                        "region": "QC"
                  },
                  "name": "Suite 701",
                  "popularity": 0.9388720666161998,
                  "price": 2,
                  "rating": 7.8
            },
            {
                  "distance": 952,
                  "location": {
                        "address": "1221 Rene-Levesque Blvd O",
                        "country": "CA",
                        "cross_street": "coin Drummond",
                        "formatted_address": "1221 Rene-Levesque Blvd O (coin Drummond), Montr\u00e9al QC H3G 1T1",
                        "locality": "Montreal",
                        "postcode": "H3G 1T1",
                        "region": "QC"
                  },
                  "name": "Bier Markt",
                  "popularity": 0.9826244322482968,
                  "price": 2,
                  "rating": 7.7,
                  "store_id": "4862"
            },
            {
                  "distance": 656,
                  "location": {
                        "address": "360 Saint-Antoine Rue O",
                        "country": "CA",
                        "cross_street": "Rue Saint Pierre",
                        "formatted_address": "360 Saint-Antoine Rue O (Rue Saint Pierre), Montreal QC H2Y 3X4",
                        "locality": "Montreal",
                        "postcode": "H2Y 3X4",
                        "region": "QC"
                  },
                  "name": "Sarah B. Bar Absinthe",
                  "popularity": 0.9571229182437547,
                  "price": 2,
                  "rating": 7.7
            },
            {
                  "distance": 876,
                  "location": {
                        "address": "1 Ville-Marie Pl",
                        "country": "CA",
                        "cross_street": "Robert-Bourassa",
                        "formatted_address": "1 Ville-Marie Pl (Robert-Bourassa), Montr\u00e9al QC H3B 2C4",
                        "locality": "Montreal",
                        "postcode": "H3B 2C4",
                        "region": "QC"
                  },
                  "name": "Les Enfants Terribles",
                  "popularity": 0.9822814155942468,
                  "price": 3,
                  "rating": 7.7
            },
            {
                  "distance": 901,
                  "location": {
                        "address": "1265 des Canadiens-De-Montreal Ave",
                        "country": "CA",
                        "cross_street": "",
                        "formatted_address": "1265 des Canadiens-De-Montreal Ave, Montr\u00e9al QC H3B 0G6",
                        "locality": "Montreal",
                        "postcode": "H3B 0G6",
                        "region": "QC"
                  },
                  "name": "Starbucks",
                  "popularity": 0.9798684708554126,
                  "price": 1,
                  "rating": 7.7,
                  "store_id": "1016766"
            },
            {
                  "distance": 497,
                  "location": {
                        "address": "406 Saint-Jacques Rue",
                        "country": "CA",
                        "cross_street": "",
                        "formatted_address": "406 Saint-Jacques Rue, Montr\u00e9al QC H2Y 1S1",
                        "locality": "Montreal",
                        "postcode": "H2Y 1S1",
                        "region": "QC"
                  },
                  "name": "Monarque",
                  "popularity": 0.9596304882664648,
                  "price": 3,
                  "rating": 7.5
            },
            {
                  "distance": 684,
                  "location": {
                        "address": "360 Saint-Antoine Rue O",
                        "country": "CA",
                        "cross_street": "Rue de Bleury",
                        "formatted_address": "360 Saint-Antoine Rue O (Rue de Bleury), Montr\u00e9al QC H2Y 3X4",
                        "locality": "Montreal",
                        "postcode": "H2Y 3X4",
                        "region": "QC"
                  },
                  "name": "Caf\u00e9 Java U",
                  "popularity": 0.9570046366389099,
                  "price": 1,
                  "rating": 7.4
            }
      ],
      "context": {
            "geo_bounds": {
                  "circle": {
                        "center": {
                              "latitude": 45.49716534,
                              "longitude": -73.55933011
                        },
                        "radius": 1000
                  }
            }
      }
}