{
      "results": [
            {
                  "distance": 963,
                  "location": {
                        "address": "361 Saint-Charles Rue O",
                        "country": "CA",
                        "cross_street": "",
                        "formatted_address": "361 Saint-Charles Rue O, Longueuil QC J4H 1E7",
                        "locality": "Longueuil",
                        "postcode": "J4H 1E7",
                        "region": "QC"
                  },
                  "name": "Madame Thai",
                  "popularity": 0.8781518949116714,
                  "price": 2,
                  "rating": 8.3
            },
            {
                  "distance": 555,
                  "location": {
                        "address": "120 Charles Lemoyne Pl",
                        "country": "CA",
                        "formatted_address": "120 Charles Lemoyne Pl, Longueuil QC J4K 2T4",
                        "locality": "Longueuil",
                        "postcode": "J4K 2T4",
                        "region": "QC"
                  },
                  "name": "Pizza Heure de Pointe",
                  "popularity": 0.9833912124414917,
                  "price": 1,
                  "rating": 8.2
            },
            {
                  "distance": 948,
                  "location": {
                        "address": "356 Saint-Charles Rue O",
                        "country": "CA",
                        "cross_street": "at St-Sylvestre",
                        "formatted_address": "356 Saint-Charles Rue O (at St-Sylvestre), Longueuil QC J4H 4E5",
                        "locality": "Longueuil",
                        "postcode": "J4H 4E5",
                        "region": "QC"
                  },
                  "name": "St Mark Resto Pub Terrasse",
                  "popularity": 0.8219839951683527,
                  "price": 2,
                  "rating": 8.2
            },
            {
                  "distance": 732,
                  "location": {
                        "address": "480 St-Charles Ouest",
                        "address_extended": "Local 100",
                        "country": "CA",
                        "cross_street": "coin Quinn",
                        "formatted_address": "480 St-Charles Ouest (coin Quinn), Longueuil QC J4H 1G4",
                        "locality": "Longueuil",
                        "postcode": "J4H 1G4",
                        "region": "QC"
                  },
                  "name": "La Piazzetta",
                  "popularity": 0.9178619960742865,
                  "price": 1,
                  "rating": 7.7
            },
            {
                  "distance": 354,
                  "location": {
                        "address": "866 Saint-Laurent Rue O",
                        "country": "CA",
                        "cross_street": "",
                        "formatted_address": "866 Saint-Laurent Rue O, Longueuil QC J4K 5E9",
                        "locality": "Longueuil",
                        "postcode": "J4K 5E9",
                        "region": "QC"
                  },
                  "name": "Tutti Frutti",
                  "popularity": 0.9438321002566813,
                  "price": 1,
                  "rating": 7.3
            },
            {
                  "distance": 190,
                  "location": {
                        "address": "825 Saint-Laurent Rue O",
                        "address_extended": "Unit\u00e9 # 117",
                        "country": "CA",
                        "formatted_address": "825 Saint-Laurent Rue O, Longueuil QC J4K 2V1",
                        "locality": "Longueuil",
                        "postcode": "J4K 2V1",
                        "region": "QC"
                  },
                  "name": "R\u00f4tisserie St-Hubert",
                  "popularity": 0.9688962705722483,
                  "price": 2,
                  "rating": 7.2,
                  "store_id": "100148"
            },
            {
                  "distance": 922,
                  "location": {
                        "address": "364 Saint-Charles Rue O",
                        "country": "CA",
                        "cross_street": "",
                        "formatted_address": "364 Saint-Charles Rue O, Longueuil QC J4H 4E5",
                        "locality": "Longueuil",
                        "postcode": "J4H 4E5",
                        "region": "QC"
                  },
                  "name": "P\u00e2tisserie O G\u00e2teries",
                  "popularity": 0.9080477125169862,
                  "price": 1,
                  "rating": 6.9
            },
            {
                  "distance": 556,
                  "location": {
                        "address": "120 Charles-Le Moyne Pl",
                        "country": "CA",
                        "cross_street": "",
                        "formatted_address": "120 Charles-Le Moyne Pl, Longueuil QC J4K 2T4",
                        "locality": "Longueuil",
                        "postcode": "J4K 2T4",
                        "region": "QC"
                  },
                  "name": "A&W Restaurant",
                  "popularity": 0.8404046504605164,
                  "price": 1,
                  "rating": 6.8,
                  "store_id": "5546"
            },
            {
                  "distance": 512,
                  "location": {
                        "address": "150 Charles-Le Moyne Pl",
                        "address_extended": "Universit\u00e9 de Sherbrooke",
                        "country": "CA",
                        "cross_street": "",
                        "formatted_address": "150 Charles-Le Moyne Pl, Longueuil QC J4K 0A8",
                        "locality": "Longueuil",
                        "postcode": "J4K 0A8",
                        "region": "QC"
                  },
                  "name": "Thai Express",
                  "popularity": 0.8926468367809149,
                  "price": 2,
                  "rating": 6.6,
                  "store_id": "101"
            },
            {
                  "distance": 178,
                  "location": {
                        "address": "825 Saint Laurent St O",
                        "address_extended": "Suite 36",
                        "country": "CA",
                        "formatted_address": "825 Saint Laurent St O, Longueuil QC J4K 2V1",
                        "locality": "Longueuil",
                        "postcode": "J4K 2V1",
                        "region": "QC"
                  },
                  "name": "Subway",
                  "popularity": 0.8997433187377322,
                  "price": 1,
                  "rating": 6.4
            },
            {
                  "distance": 628,
                  "location": {
                        "address": "120 Charles Lemoyne Pl",
                        "address_extended": "Couche-Tard C-Store",
                        "country": "CA",
                        "cross_street": "",
                        "formatted_address": "120 Charles Lemoyne Pl, Longueuil QC J4K 2T4",
                        "locality": "Longueuil",
                        "postcode": "J4K 2T4",
                        "region": "QC"
                  },
                  "name": "Subway",
                  "popularity": 0.983693190397101,
                  "price": 1,
                  "rating": 6.3,
                  "store_id": "25662"
            },
            {
                  "distance": 545,
                  "location": {
                        "address": "120 Charles-Le Moyne Pl",
                        "address_extended": "Suite 400",
                        "country": "CA",
                        "formatted_address": "120 Charles-Le Moyne Pl, Longueuil QC J4K 2T4",
                        "locality": "Longueuil",
                        "postcode": "J4K 2T4",
                        "region": "QC"
                  },
                  "name": "Tim Hortons",
                  "popularity": 0.9859580250641703,
                  "price": 1,
                  "rating": 6.0
            },
            {
                  "distance": 365,
                  "location": {
                        "address": "822 Saint-Laurent Rue O",
                        "address_extended": "coin Joliette",
                        "country": "CA",
                        "cross_street": "coin Joliette",
                        "formatted_address": "822 Saint-Laurent Rue O (coin Joliette), Longueuil QC J4K 1C3",
                        "locality": "Longueuil",
                        "postcode": "J4K 1C3",
                        "region": "QC"
                  },
                  "name": "McDonald's",
                  "popularity": 0.9660274799939604,
                  "price": 1,
                  "rating": 5.4
            },
            {
                  "distance": 293,
                  "location": {
                        "address": "895 St Laurent Rue O",
                        "country": "CA",
                        "formatted_address": "895 St Laurent Rue O, Longueuil QC J4K 2V1",
                        "locality": "Longueuil",
                        "postcode": "J4K 2V1",
                        "region": "QC"
                  },
                  "name": "Tim Hortons",
                  "popularity": 0.97810659821833,
                  "price": 1,
                  "rating": 5.3
            },
            {
                  "distance": 546,
                  "location": {
                        "address": "100 Charles-Le Moyne Pl",
                        "address_extended": "Bureau 109",
                        "country": "CA",
                        "cross_street": "Station Longueil\u2014Universit\u00e9-de-Sherbrooke",
                        "formatted_address": "100 Charles-Le Moyne Pl (Station Longueil\u2014Universit\u00e9-de-Sherbrooke), Longueuil QC J4K 2T4",
                        "locality": "Longueuil",
                        "postcode": "J4K 2T4",
                        "region": "QC"
                  },
                  "name": "McDonald's",
                  "popularity": 0.8348180582817454,
                  "price": 1,
                  "rating": 5.2
            },
            {
                  "distance": 82,
                  "location": {
                        "address": "825 Saint-Laurent Rue O",
                        "country": "CA",
                        "cross_street": "",
                        "formatted_address": "825 Saint-Laurent Rue O, Longueuil QC J4K 2V1",
                        "locality": "Longueuil",
                        "postcode": "J4K 2V1",
                        "region": "QC"
                  },
                  "name": "Valentine",
                  "popularity": 0.8834365091348332,
                  "price": 1
            },
            {
                  "distance": 96,
                  "location": {
                        "address": "825 Saint-Laurent Rue O",
                        "address_extended": "# 103",
                        "country": "CA",
                        "cross_street": "",
                        "formatted_address": "825 Saint-Laurent Rue O, Longueuil QC J4K 2V1",
                        "locality": "Longueuil",
                        "postcode": "J4K 2V1",
                        "region": "QC"
                  },
                  "name": "Kam-Bo",
                  "popularity": 0.8627510191756002,
                  "price": 1
            },
            {
                  "distance": 96,
                  "location": {
                        "address": "825 Saint-Laurent Rue O",
                        "address_extended": "# 66",
                        "country": "CA",
                        "cross_street": "",
                        "formatted_address": "825 Saint-Laurent Rue O, Longueuil QC J4K 2V1",
                        "locality": "Longueuil",
                        "postcode": "J4K 2V1",
                        "region": "QC"
                  },
                  "name": "Restaurant St-Laurent",
                  "popularity": 0.9165030952740449,
                  "price": 2
            },
            {
                  "distance": 513,
                  "location": {
                        "address": "150 Charles-Lemoyne Pl",
                        "address_extended": "U. Sherbrooke",
                        "country": "CA",
                        "cross_street": "",
                        "formatted_address": "150 Charles-Lemoyne Pl, Longueuil QC J4K 0A8",
                        "locality": "Longueuil",
                        "postcode": "J4K 0A8",
                        "region": "QC"
                  },
                  "name": "Caf\u00e9 Van Houtte",
                  "popularity": 0.917711007096482,
                  "price": 1
            },
            {
                  "distance": 518,
                  "location": {
                        "address": "150 St Charles Pl",
                        "country": "CA",
                        "cross_street": "",
                        "formatted_address": "150 St Charles Pl, Longueuil QC",
                        "locality": "Longueuil",
                        "region": "QC"
                  },
                  "name": "Quiznos",
                  "popularity": 0.8684886003321758,
                  "price": 1
            },
            {
                  "distance": 530,
                  "location": {
                        "address": "1175 Saint Charles Rue O",
                        "country": "CA",
                        "cross_street": "",
                        "formatted_address": "1175 Saint Charles Rue O, Longueuil QC",
                        "locality": "Longueuil",
                        "region": "QC"
                  },
                  "name": "Salade Imagination",
                  "popularity": 0.9521364940359354,
                  "price": 1
            },
            {
                  "distance": 533,
                  "location": {
                        "address": "100 Charles le Moyne Pl",
                        "address_extended": "# 111",
                        "country": "CA",
                        "cross_street": "",
                        "formatted_address": "100 Charles le Moyne Pl, Longueuil QC J4K 2T4",
                        "locality": "Longueuil",
                        "postcode": "J4K 2T4",
                        "region": "QC"
                  },
                  "name": "Charcuteries Tete de Lard",
                  "popularity": 0.834214102370527,
                  "price": 1
            },
            {
                  "distance": 535,
                  "location": {
                        "address": "1050 Saint-Laurent Rue O",
                        "country": "CA",
                        "cross_street": "coin Cartier",
                        "formatted_address": "1050 Saint-Laurent Rue O (coin Cartier), Longueuil QC J4K 1C9",
                        "locality": "Longueuil",
                        "postcode": "J4K 1C9",
                        "region": "QC"
                  },
                  "name": "Tutti Frutti",
                  "popularity": 0.8391967386380794,
                  "price": 1
            },
            {
                  "distance": 545,
                  "location": {
                        "address": "100 Charles-Lemoyne Pl",
                        "country": "CA",
                        "cross_street": "",
                        "formatted_address": "100 Charles-Lemoyne Pl, Longueuil QC J4K 2T4",
                        "locality": "Longueuil",
                        "postcode": "J4K 2T4",
                        "region": "QC"
                  },
                  "name": "Caf\u00e9 Bistro Borga",
                  "popularity": 0.8606371734863355,
                  "price": 2
            },
            {
                  "distance": 557,
                  "location": {
                        "address": "120 Charles-Le Moyne Pl",
                        "country": "CA",
                        "cross_street": "",
                        "formatted_address": "120 Charles-Le Moyne Pl, Longueuil QC J4K 2T4",
                        "locality": "Longueuil",
                        "postcode": "J4K 2T4",
                        "region": "QC"
                  },
                  "name": "Taouk du Qu\u00e9bec",
                  "popularity": 0.9772006643515023,
                  "price": 2
            },
            {
                  "distance": 558,
                  "location": {
                        "address": "100 Charles Lemoyne Pl",
                        "country": "CA",
                        "formatted_address": "100 Charles Lemoyne Pl, Longueuil QC J4K 2T4",
                        "locality": "Longueuil",
                        "postcode": "J4K 2T4",
                        "region": "QC"
                  },
                  "name": "McCaf\u00e9",
                  "popularity": 0.851275856862449,
                  "price": 1
            },
            {
                  "distance": 949,
                  "location": {
                        "address": "353 Saint-Charles Rue O",
                        "country": "CA",
                        "cross_street": "",
                        "formatted_address": "353 Saint-Charles Rue O, Longueuil QC J4H 1E7",
                        "locality": "Longueuil",
                        "postcode": "J4H 1E7",
                        "region": "QC"
                  },
                  "name": "K\u00fcto - Comptoir \u00e0 Tartares Longueuil",
                  "popularity": 0.8376868488600332
            },
            {
                  "distance": 977,
                  "location": {
                        "address": "95 Saint-Sylvestre Rue",
                        "country": "CA",
                        "cross_street": "",
                        "formatted_address": "95 Saint-Sylvestre Rue, Longueuil QC J4H 2W1",
                        "locality": "Longueuil",
                        "postcode": "J4H 2W1",
                        "region": "QC"
                  },
                  "name": "Chichi Caf\u00e9",
                  "popularity": 0.9190699078967235,
                  "price": 1
            },
            {
                  "distance": 1000,
                  "location": {
                        "address": "345 St-Charles Rue O",
                        "country": "CA",
                        "cross_street": "",
                        "formatted_address": "345 St-Charles Rue O, Longueuil QC J4H 1E7",
                        "locality": "Longueuil",
                        "postcode": "J4H 1E7",
                        "region": "QC"
                  },
                  "name": "La Diperie",
                  "popularity": 0.8222859731239619,
                  "price": 1
            },
            {
                  "distance": 135,
                  "location": {
                        "address": "825 Saint-Laurent Rue O",
                        "country": "CA",
                        "formatted_address": "825 Saint-Laurent Rue O, Longueuil QC J4K 2V1",
                        "locality": "Longueuil",
                        "postcode": "J4K 2V1",
                        "region": "QC"
                  },
                  "name": "Angkor Grill"
            },
            {
                  "distance": 204,
                  "location": {
                        "address": "825 Saint-Laurent Rue O",
                        "address_extended": "# 203",
                        "country": "CA",
                        "formatted_address": "825 Saint-Laurent Rue O, Longueuil QC J4K 2V1",
                        "locality": "Longueuil",
                        "postcode": "J4K 2V1",
                        "region": "QC"
                  },
                  "name": "Tiki Ming"
            },
            {
                  "distance": 335,
                  "location": {
                        "address": "825 Saint-Laurent Rue O",
                        "country": "CA",
                        "formatted_address": "825 Saint-Laurent Rue O, Longueuil QC J4K 2V1",
                        "locality": "Longueuil",
                        "postcode": "J4K 2V1",
                        "region": "QC"
                  },
                  "name": "Le Mixeur Cocktail de Fruits et Caf\u00e9"
            },
            {
                  "distance": 344,
                  "location": {
                        "address": "110 Rue de la Barre",
                        "country": "CA",
                        "formatted_address": "110 Rue de la Barre, Longueuil QC J4K 1A3",
                        "locality": "Longueuil",
                        "postcode": "J4K 1A3",
                        "region": "QC"
                  },
                  "name": "Bistro Folie Gourmande"
            },
            {
                  "distance": 351,
                  "location": {
                        "address": "884 Saint-Laurent Rue O",
                        "country": "CA",
                        "formatted_address": "884 Saint-Laurent Rue O, Longueuil QC J4K 5E9",
                        "locality": "Longueuil",
                        "postcode": "J4K 5E9",
                        "region": "QC"
                  },
                  "name": "Pizza Pizza",
                  "store_id": "344"
            },
            {
                  "distance": 474,
                  "location": {
                        "address": "150 Charles-Le Moyne Pl",
                        "country": "CA",
                        "formatted_address": "150 Charles-Le Moyne Pl, Longueuil QC J4K 0A8",
                        "locality": "Longueuil",
                        "postcode": "J4K 0A8",
                        "region": "QC"
                  },
                  "name": "Salade Imagination"
            }
      ],
      "context": {
            "geo_bounds": {
                  "circle": {
                        "center": {
                              "latitude": 45.52841044,
                              "longitude": -73.51716578
                        },
                        "radius": 1000
                  }
            }
      }
}