{
      "results": [
            {
                  "distance": 867,
                  "location": {
                        "address": "4328 Saint-Laurent Blvd",
                        "country": "CA",
                        "cross_street": "Marie-Anne",
                        "formatted_address": "4328 Saint-Laurent Blvd (Marie-Anne), Montr\u00e9al QC H2W 1Z3",
                        "locality": "Montreal",
                        "postcode": "H2W 1Z3",
                        "region": "QC"
                  },
                  "name": "Darling",
                  "popularity": 0.9573358251324754,
                  "price": 3,
                  "rating": 9.2
            },
            {
                  "distance": 603,
                  "location": {
                        "address": "322 Ave du Mont-Royal Est",
                        "country": "CA",
                        "cross_street": "coin Drolet",
                        "formatted_address": "322 Ave du Mont-Royal Est (coin Drolet), Montr\u00e9al QC H2T 1P7",
                        "locality": "Montreal",
                        "postcode": "H2T 1P7",
                        "region": "QC"
                  },
                  "name": "Au Kouign-Amann",
                  "popularity": 0.9501206472369417,
                  "price": 2,
                  "rating": 9.2
            },
            {
                  "distance": 474,
                  "location": {
                        "address": "3927 Saint-Denis Rue",
                        "country": "CA",
                        "cross_street": "entre Duluth & Roy",
                        "formatted_address": "3927 Saint-Denis Rue (entre Duluth & Roy), Montr\u00e9al QC H2W 2M4",
                        "locality": "Montreal",
                        "postcode": "H2W 2M4",
                        "region": "QC"
                  },
                  "name": "L'Express",
                  "popularity": 0.9460517600302801,
                  "price": 3,
                  "rating": 9.1
            },
            {
                  "distance": 964,
                  "location": {
                        "address": "77 Rachel Rue O",
                        "country": "CA",
                        "cross_street": "entre Clark & St-Urbain",
                        "formatted_address": "77 Rachel Rue O (entre Clark & St-Urbain), Montr\u00e9al QC H2W 1G2",
                        "locality": "Montreal",
                        "postcode": "H2W 1G2",
                        "region": "QC"
                  },
                  "name": "Noren \u306e\u308c\u3093",
                  "popularity": 0.9153103709311128,
                  "price": 2,
                  "rating": 9.1
            },
            {
                  "distance": 673,
                  "location": {
                        "address": "4627 Saint-Denis Rue",
                        "country": "CA",
                        "cross_street": "",
                        "formatted_address": "4627 Saint-Denis Rue, Montr\u00e9al QC H2J 2L4",
                        "locality": "Montreal",
                        "postcode": "H2J 2L4",
                        "region": "QC"
                  },
                  "name": "Caf\u00e9 Myriade - le Plateau",
                  "popularity": 0.9432603141559425,
                  "price": 1,
                  "rating": 9.1
            },
            {
                  "distance": 619,
                  "location": {
                        "address": "3801 Saint-Denis Rue",
                        "country": "CA",
                        "cross_street": "",
                        "formatted_address": "3801 Saint-Denis Rue, Montr\u00e9al QC H2W 2M4",
                        "locality": "Montreal",
                        "postcode": "H2W 2M4",
                        "region": "QC"
                  },
                  "name": "Le Club Espresso Bar",
                  "popularity": 0.9342945685087055,
                  "price": 1,
                  "rating": 9.0
            },
            {
                  "distance": 648,
                  "location": {
                        "address": "151 Rachel Rue E",
                        "country": "CA",
                        "cross_street": "coin De Bullion",
                        "formatted_address": "151 Rachel Rue E (coin De Bullion), Montr\u00e9al QC H2W 1E1",
                        "locality": "Montreal",
                        "postcode": "H2W 1E1",
                        "region": "QC"
                  },
                  "name": "Caf\u00e9 N\u00e9v\u00e9",
                  "popularity": 0.9299654617713853,
                  "price": 2,
                  "rating": 9.0
            },
            {
                  "distance": 588,
                  "location": {
                        "address": "1266 Ave du Mont-Royal Est",
                        "country": "CA",
                        "cross_street": "entre Br\u00e9beuf & Chambord",
                        "formatted_address": "1266 Ave du Mont-Royal Est (entre Br\u00e9beuf & Chambord), Montr\u00e9al QC H2J 1Y3",
                        "locality": "Montreal",
                        "postcode": "H2J 1Y3",
                        "region": "QC"
                  },
                  "name": "Point G",
                  "popularity": 0.9041800719152158,
                  "price": 1,
                  "rating": 8.9
            },
            {
                  "distance": 642,
                  "location": {
                        "address": "173 Duluth Ave E",
                        "country": "CA",
                        "cross_street": "coin H\u00f4tel-De-Ville",
                        "formatted_address": "173 Duluth Ave E (coin H\u00f4tel-De-Ville), Montr\u00e9al QC H2W 1H4",
                        "locality": "Montreal",
                        "postcode": "H2W 1H4",
                        "region": "QC"
                  },
                  "name": "Chez Jose",
                  "popularity": 0.919958838001514,
                  "price": 1,
                  "rating": 8.9
            },
            {
                  "distance": 812,
                  "location": {
                        "address": "3660 Saint-Denis Rue",
                        "country": "CA",
                        "cross_street": "coin Cherrier",
                        "formatted_address": "3660 Saint-Denis Rue (coin Cherrier), Montr\u00e9al QC H2X 3L7",
                        "locality": "Montreal",
                        "postcode": "H2X 3L7",
                        "region": "QC"
                  },
                  "name": "Mamie Clafoutis",
                  "popularity": 0.9447151778955337,
                  "price": 2,
                  "rating": 8.9
            },
            {
                  "distance": 840,
                  "location": {
                        "address": "4105 Saint-Laurent Blvd",
                        "country": "CA",
                        "cross_street": "",
                        "formatted_address": "4105 Saint-Laurent Blvd, Montr\u00e9al QC H2W 1Y7",
                        "locality": "Montreal",
                        "postcode": "H2W 1Y7",
                        "region": "QC"
                  },
                  "name": "Le Majestique",
                  "popularity": 0.9523443414080243,
                  "price": 2,
                  "rating": 8.9
            },
            {
                  "distance": 404,
                  "location": {
                        "address": "4185 Drolet Rue",
                        "country": "CA",
                        "cross_street": "coin Rachel",
                        "formatted_address": "4185 Drolet Rue (coin Rachel), Montr\u00e9al QC H2W 2L5",
                        "locality": "Montreal",
                        "postcode": "H2W 2L5",
                        "region": "QC"
                  },
                  "name": "Yokato Yokabai",
                  "popularity": 0.9432957986373959,
                  "price": 2,
                  "rating": 8.9
            },
            {
                  "distance": 863,
                  "location": {
                        "address": "4021 Saint-Laurent Blvd",
                        "country": "CA",
                        "cross_street": "coin Duluth",
                        "formatted_address": "4021 Saint-Laurent Blvd (coin Duluth), Montr\u00e9al QC H2W 1Y4",
                        "locality": "Montreal",
                        "postcode": "H2W 1Y4",
                        "region": "QC"
                  },
                  "name": "Dispatch Coffee",
                  "popularity": 0.9505346328538986,
                  "price": 1,
                  "rating": 8.9
            },
            {
                  "distance": 833,
                  "location": {
                        "address": "4177 Saint-Laurent Blvd",
                        "country": "CA",
                        "cross_street": "coin Rachel",
                        "formatted_address": "4177 Saint-Laurent Blvd (coin Rachel), Montr\u00e9al QC H2W 1Y7",
                        "locality": "Montreal",
                        "postcode": "H2W 1Y7",
                        "region": "QC"
                  },
                  "name": "Patati Patata Friterie de Luxe",
                  "popularity": 0.9553960068130204,
                  "price": 2,
                  "rating": 8.8
            },
            {
                  "distance": 964,
                  "location": {
                        "address": "4524 Saint-Laurent Blvd",
                        "country": "CA",
                        "cross_street": "coin Mont-Royal",
                        "formatted_address": "4524 Saint-Laurent Blvd (coin Mont-Royal), Montr\u00e9al QC H2T 1R3",
                        "locality": "Montreal",
                        "postcode": "H2T 1R3",
                        "region": "QC"
                  },
                  "name": "Hof Kelsten",
                  "popularity": 0.9274578917486752,
                  "price": 2,
                  "rating": 8.8
            },
            {
                  "distance": 977,
                  "location": {
                        "address": "1810 Ave du MONT-ROYAL Est",
                        "country": "CA",
                        "cross_street": "",
                        "formatted_address": "1810 Ave du MONT-ROYAL Est, Montr\u00e9al QC H2H 1J1",
                        "locality": "Montreal",
                        "postcode": "H2H 1J1",
                        "region": "QC"
                  },
                  "name": "Mr. Puffs",
                  "popularity": 0.9136307721423165,
                  "price": 1,
                  "rating": 8.8
            },
            {
                  "distance": 10,
                  "location": {
                        "address": "865 Rachel Rue E",
                        "country": "CA",
                        "cross_street": "coin St-Andr\u00e9",
                        "formatted_address": "865 Rachel Rue E (coin St-Andr\u00e9), Montr\u00e9al QC H2J 2H9",
                        "locality": "Montreal",
                        "postcode": "H2J 2H9",
                        "region": "QC"
                  },
                  "name": "La Maison des P\u00e2tes Fra\u00eeches",
                  "popularity": 0.938115064345193,
                  "price": 2,
                  "rating": 8.8
            },
            {
                  "distance": 508,
                  "location": {
                        "address": "1127 Ave du Mont-Royal Est",
                        "country": "CA",
                        "cross_street": "coin Christophe-Colomb",
                        "formatted_address": "1127 Ave du Mont-Royal Est (coin Christophe-Colomb), Montr\u00e9al QC H2J 1X9",
                        "locality": "Montreal",
                        "postcode": "H2J 1X9",
                        "region": "QC"
                  },
                  "name": "St-Viateur Bagel & Cafe",
                  "popularity": 0.9727715745647237,
                  "price": 1,
                  "rating": 8.7
            },
            {
                  "distance": 912,
                  "location": {
                        "address": "3901A Saint-Laurent Blvd",
                        "country": "CA",
                        "cross_street": "entre St-Cuthbert & Napol\u00e9on",
                        "formatted_address": "3901A Saint-Laurent Blvd (entre St-Cuthbert & Napol\u00e9on), Montr\u00e9al QC H2W 1X9",
                        "locality": "Montreal",
                        "postcode": "H2W 1X9",
                        "region": "QC"
                  },
                  "name": "Schwartz's Montreal Hebrew Delicatessen (Schwartz's Charcuterie H\u00e9bra\u00efque de Montr\u00e9al)",
                  "popularity": 0.989804125662377,
                  "price": 2,
                  "rating": 8.7
            },
            {
                  "distance": 262,
                  "location": {
                        "address": "536 Duluth Ave E",
                        "country": "CA",
                        "cross_street": "at Ave. Duluth Est & Ave. de Chateaubriand",
                        "formatted_address": "536 Duluth Ave E (at Ave. Duluth Est & Ave. de Chateaubriand), Montr\u00e9al QC H2L 1A9",
                        "locality": "Montreal",
                        "postcode": "H2L 1A9",
                        "region": "QC"
                  },
                  "name": "Au Pied de Cochon",
                  "popularity": 0.9154404806964421,
                  "price": 3,
                  "rating": 8.7
            },
            {
                  "distance": 869,
                  "location": {
                        "address": "3609 Saint-Denis Rue",
                        "address_extended": "Square St-Louis",
                        "country": "CA",
                        "cross_street": "Square St-Louis",
                        "formatted_address": "3609 Saint-Denis Rue (Square St-Louis), Montr\u00e9al QC H2X 3L6",
                        "locality": "Montreal",
                        "postcode": "H2X 3L6",
                        "region": "QC"
                  },
                  "name": "La Fabrique Bistrot",
                  "popularity": 0.9323547501892505,
                  "price": 4,
                  "rating": 8.6
            },
            {
                  "distance": 345,
                  "location": {
                        "address": "4115A Saint-Denis Rue",
                        "country": "CA",
                        "cross_street": "coin Duluth",
                        "formatted_address": "4115A Saint-Denis Rue (coin Duluth), Montr\u00e9al QC H2W 2M7",
                        "locality": "Montreal",
                        "postcode": "H2W 2M7",
                        "region": "QC"
                  },
                  "name": "Diese Onze",
                  "popularity": 0.9298944928084785,
                  "rating": 8.6
            },
            {
                  "distance": 83,
                  "location": {
                        "address": "951 Rachel Rue E",
                        "country": "CA",
                        "cross_street": "",
                        "formatted_address": "951 Rachel Rue E, Montr\u00e9al QC H2J 2J4",
                        "locality": "Montreal",
                        "postcode": "H2J 2J4",
                        "region": "QC"
                  },
                  "name": "Pub Pit Caribou",
                  "popularity": 0.9519658402725208,
                  "rating": 8.6
            },
            {
                  "distance": 835,
                  "location": {
                        "address": "9 Duluth Ave E",
                        "country": "CA",
                        "cross_street": "entre St-Laurent & St-Dominique",
                        "formatted_address": "9 Duluth Ave E (entre St-Laurent & St-Dominique), Montr\u00e9al QC H2W 1G7",
                        "locality": "Montreal",
                        "postcode": "H2W 1G7",
                        "region": "QC"
                  },
                  "name": "R\u00e9servoir",
                  "popularity": 0.9331708932626798,
                  "price": 1,
                  "rating": 8.5
            },
            {
                  "distance": 783,
                  "location": {
                        "address": "1059 Gilford Rue",
                        "country": "CA",
                        "cross_street": "Christophe-Colomb",
                        "formatted_address": "1059 Gilford Rue (Christophe-Colomb), Montr\u00e9al QC H2J 1P7",
                        "locality": "Montreal",
                        "postcode": "H2J 1P7",
                        "region": "QC"
                  },
                  "name": "Restaurant la Raclette",
                  "popularity": 0.9396527252081757,
                  "price": 3,
                  "rating": 8.5
            },
            {
                  "distance": 418,
                  "location": {
                        "address": "4449 Rue de Mentana",
                        "country": "CA",
                        "cross_street": "Avenue du Mont-Royal",
                        "formatted_address": "4449 Rue de Mentana (Avenue du Mont-Royal), Montr\u00e9al QC H2J 3B4",
                        "locality": "Montreal",
                        "postcode": "H2J 3B4",
                        "region": "QC"
                  },
                  "name": "Tampopo",
                  "popularity": 0.8850539364118092,
                  "price": 2,
                  "rating": 8.5
            },
            {
                  "distance": 142,
                  "location": {
                        "address": "994 Rachel Rue E",
                        "country": "CA",
                        "cross_street": "entre de Boyer & du Parc-Lafontaine",
                        "formatted_address": "994 Rachel Rue E (entre de Boyer & du Parc-Lafontaine), Montr\u00e9al QC H2J 2J3",
                        "locality": "Montreal",
                        "postcode": "H2J 2J3",
                        "region": "QC"
                  },
                  "name": "La Banquise",
                  "popularity": 0.9872374148372445,
                  "price": 1,
                  "rating": 8.5
            },
            {
                  "distance": 860,
                  "location": {
                        "address": "3609 Saint-Denis Rue",
                        "address_extended": "Fl 1ST",
                        "country": "CA",
                        "cross_street": "coin rue du Square-Saint-Louis",
                        "formatted_address": "3609 Saint-Denis Rue (coin rue du Square-Saint-Louis), Montr\u00e9al QC H2X 3L6",
                        "locality": "Montreal",
                        "postcode": "H2X 3L6",
                        "region": "QC"
                  },
                  "name": "Sushi Momo V\u00e9g\u00e9talien",
                  "popularity": 0.8928486941710825,
                  "price": 2,
                  "rating": 8.4
            },
            {
                  "distance": 835,
                  "location": {
                        "address": "156 Roy Rue E",
                        "country": "CA",
                        "cross_street": "coin De Bullion",
                        "formatted_address": "156 Roy Rue E (coin De Bullion), Montr\u00e9al QC H2W 1M2",
                        "locality": "Montreal",
                        "postcode": "H2W 1M2",
                        "region": "QC"
                  },
                  "name": "Else's",
                  "popularity": 0.9207868092354277,
                  "price": 2,
                  "rating": 8.4
            },
            {
                  "distance": 596,
                  "location": {
                        "address": "351 Ave du Mont-Royal E",
                        "country": "CA",
                        "cross_street": "",
                        "formatted_address": "351 Ave du Mont-Royal E, Montr\u00e9al QC H2T 1R1",
                        "locality": "Montreal",
                        "postcode": "H2T 1R1",
                        "region": "QC"
                  },
                  "name": "Le Toledo",
                  "popularity": 0.9615111657834974,
                  "price": 1,
                  "rating": 8.4
            },
            {
                  "distance": 900,
                  "location": {
                        "address": "4710 rue de Lanaudi\u00e8re",
                        "country": "CA",
                        "cross_street": "coin Gilford",
                        "formatted_address": "4710 rue de Lanaudi\u00e8re (coin Gilford), Montr\u00e9al QC H2J 3P7",
                        "locality": "Montreal",
                        "postcode": "H2J 3P7",
                        "region": "QC"
                  },
                  "name": "Le Chien Fumant",
                  "popularity": 0.9083435844057532,
                  "price": 3,
                  "rating": 8.2
            },
            {
                  "distance": 571,
                  "location": {
                        "address": "354 Ave du Mont-Royal Est",
                        "country": "CA",
                        "cross_street": "entre Drolet & St-Denis",
                        "formatted_address": "354 Ave du Mont-Royal Est (entre Drolet & St-Denis), Montr\u00e9al QC H2T 1P9",
                        "locality": "Montreal",
                        "postcode": "H2T 1P9",
                        "region": "QC"
                  },
                  "name": "Bily Kun",
                  "popularity": 0.927327781983346,
                  "price": 2,
                  "rating": 8.2
            },
            {
                  "distance": 824,
                  "location": {
                        "address": "20 Duluth Ave E",
                        "country": "CA",
                        "cross_street": "entre St-Laurent & St-Dominique",
                        "formatted_address": "20 Duluth Ave E (entre St-Laurent & St-Dominique), Montr\u00e9al QC H2W 1G6",
                        "locality": "Montreal",
                        "postcode": "H2W 1G6",
                        "region": "QC"
                  },
                  "name": "Bar Suzanne",
                  "popularity": 0.9205620741862226,
                  "price": 2,
                  "rating": 8.1
            },
            {
                  "distance": 575,
                  "location": {
                        "address": "213 Rachel Rue E",
                        "country": "CA",
                        "cross_street": "entre Laval & H\u00f4tel-de-ville",
                        "formatted_address": "213 Rachel Rue E (entre Laval & H\u00f4tel-de-ville), Montr\u00e9al QC H2W 1E4",
                        "locality": "Montreal",
                        "postcode": "H2W 1E4",
                        "region": "QC"
                  },
                  "name": "A Bar",
                  "popularity": 0.8736515897047691,
                  "price": 2,
                  "rating": 8.1
            },
            {
                  "distance": 431,
                  "location": {
                        "address": "860 Ave du Mont-Royal Est",
                        "country": "CA",
                        "cross_street": "coin Saint-Andr\u00e9",
                        "formatted_address": "860 Ave du Mont-Royal Est (coin Saint-Andr\u00e9), Montr\u00e9al QC H2J 1X1",
                        "locality": "Montreal",
                        "postcode": "H2J 1X1",
                        "region": "QC"
                  },
                  "name": "Boulangerie Premi\u00e8re Moisson",
                  "popularity": 0.9510787282361847,
                  "price": 1,
                  "rating": 8.0
            }
      ],
      "context": {
            "geo_bounds": {
                  "circle": {
                        "center": {
                              "latitude": 45.52435319,
                              "longitude": -73.57596651
                        },
                        "radius": 1000
                  }
            }
      }
}