{
      "results": [
            {
                  "distance": 943,
                  "location": {
                        "address": "2225 Bennett Ave",
                        "country": "CA",
                        "cross_street": "",
                        "formatted_address": "2225 Bennett Ave, Montr\u00e9al QC H1V 2T4",
                        "locality": "Montreal",
                        "postcode": "H1V 2T4",
                        "region": "QC"
                  },
                  "name": "Hoche Glac\u00e9",
                  "popularity": 0.9444549583648751,
                  "price": 1,
                  "rating": 7.7
            },
            {
                  "distance": 284,
                  "location": {
                        "address": "4825 Pierre de Coubertin Ave",
                        "country": "CA",
                        "cross_street": "Viau",
                        "formatted_address": "4825 Pierre de Coubertin Ave (Viau), Montr\u00e9al QC",
                        "locality": "Montreal",
                        "region": "QC"
                  },
                  "name": "Pizza Pizza",
                  "popularity": 0.611610522331567,
                  "price": 1,
                  "rating": 6.2
            },
            {
                  "distance": 856,
                  "location": {
                        "address": "5460 Sherbrooke Rue O",
                        "country": "CA",
                        "cross_street": "L'Assomption",
                        "formatted_address": "5460 Sherbrooke Rue O (L'Assomption), Montr\u00e9al QC H4A 1V9",
                        "locality": "Montreal",
                        "postcode": "H4A 1V9",
                        "region": "QC"
                  },
                  "name": "Au Vieux Duluth",
                  "popularity": 0.8967519871309614,
                  "price": 2,
                  "rating": 5.9
            },
            {
                  "distance": 512,
                  "location": {
                        "address": "5000 Sherbrooke Rue E",
                        "country": "CA",
                        "cross_street": "",
                        "formatted_address": "5000 Sherbrooke Rue E, Montr\u00e9al QC H1V 1A1",
                        "locality": "Montreal",
                        "postcode": "H1V 1A1",
                        "region": "QC"
                  },
                  "name": "Au Toit Rouge",
                  "popularity": 0.8107967448902347,
                  "price": 2,
                  "rating": 5.9
            },
            {
                  "distance": 606,
                  "location": {
                        "address": "5222 Sherbrooke Rue E",
                        "country": "CA",
                        "formatted_address": "5222 Sherbrooke Rue E, Montr\u00e9al QC H1V 1A1",
                        "locality": "Montreal",
                        "postcode": "H1V 1A1",
                        "region": "QC"
                  },
                  "name": "Madisons Restaurant & Bar",
                  "popularity": 0.966171461014383,
                  "price": 2,
                  "rating": 5.8
            },
            {
                  "distance": 214,
                  "location": {
                        "address": "3055 Viau Rue",
                        "country": "CA",
                        "formatted_address": "3055 Viau Rue, Montr\u00e9al QC H1V 3J5",
                        "locality": "Montreal",
                        "postcode": "H1V 3J5",
                        "region": "QC"
                  },
                  "name": "Mondelez Internationale",
                  "popularity": 0.9218395155185466
            },
            {
                  "distance": 524,
                  "location": {
                        "address": "4743 Hochelaga Rue",
                        "country": "CA",
                        "cross_street": "Leclaire",
                        "formatted_address": "4743 Hochelaga Rue (Leclaire), Montr\u00e9al QC H1V 1E2",
                        "locality": "Montreal",
                        "postcode": "H1V 1E2",
                        "region": "QC"
                  },
                  "name": "Restaurant Pizzeria Hochelaga",
                  "popularity": 0.9084618660105981,
                  "price": 1
            },
            {
                  "distance": 900,
                  "location": {
                        "address": "4535 Rue de Rouen",
                        "country": "CA",
                        "cross_street": "",
                        "formatted_address": "4535 Rue de Rouen, Montr\u00e9al QC H1V 2W4",
                        "locality": "Montreal",
                        "postcode": "H1V 2W4",
                        "region": "QC"
                  },
                  "name": "Bocal",
                  "popularity": 0.9737533118849356,
                  "price": 1
            },
            {
                  "distance": 260,
                  "location": {
                        "address": "3055 Viau Rue",
                        "country": "CA",
                        "formatted_address": "3055 Viau Rue, Montreal QC H1V 3J5",
                        "locality": "Montreal",
                        "postcode": "H1V 3J5",
                        "region": "QC"
                  },
                  "name": "Compagnie Christie Brown"
            },
            {
                  "distance": 468,
                  "location": {
                        "address": "4141 Pierre-De Coubertin Ave",
                        "country": "CA",
                        "formatted_address": "4141 Pierre-De Coubertin Ave, Montreal QC H1V 3N7",
                        "locality": "Montreal",
                        "postcode": "H1V 3N7",
                        "region": "QC"
                  },
                  "name": "Restaurant de la Tour Olympique"
            },
            {
                  "distance": 489,
                  "location": {
                        "address": "5000 Sherbrooke Rue E",
                        "country": "CA",
                        "formatted_address": "5000 Sherbrooke Rue E, Montreal QC H1V 1A1",
                        "locality": "Montreal",
                        "postcode": "H1V 1A1",
                        "region": "QC"
                  },
                  "name": "Resto Bar le Toit Rouge"
            },
            {
                  "distance": 534,
                  "location": {
                        "address": "5100 Sherbrooke Rue E",
                        "country": "CA",
                        "formatted_address": "5100 Sherbrooke Rue E, Montreal QC H1V 3R9",
                        "locality": "Montreal",
                        "postcode": "H1V 3R9",
                        "region": "QC"
                  },
                  "name": "Corporation financi\u00e8re HSBC Centre de Service Canadien"
            },
            {
                  "distance": 535,
                  "location": {
                        "address": "5100 Sherbrooke Rue E",
                        "country": "CA",
                        "formatted_address": "5100 Sherbrooke Rue E, Montreal QC H1V 3R9",
                        "locality": "Montreal",
                        "postcode": "H1V 3R9",
                        "region": "QC"
                  },
                  "name": "Restaurant Au Vieux Duluth"
            },
            {
                  "distance": 559,
                  "location": {
                        "address": "5100 Sherbrooke Rue E",
                        "country": "CA",
                        "formatted_address": "5100 Sherbrooke Rue E, Montreal QC H1V 3R9",
                        "locality": "Montreal",
                        "postcode": "H1V 3R9",
                        "region": "QC"
                  },
                  "name": "Montcaf\u00e9"
            },
            {
                  "distance": 570,
                  "location": {
                        "address": "4740 Hochelaga Rue",
                        "country": "CA",
                        "formatted_address": "4740 Hochelaga Rue, Montreal QC H1V 1E3",
                        "locality": "Montreal",
                        "postcode": "H1V 1E3",
                        "region": "QC"
                  },
                  "name": "Tok\u00e9"
            },
            {
                  "distance": 614,
                  "location": {
                        "address": "5222 Sherbrooke Rue E",
                        "country": "CA",
                        "formatted_address": "5222 Sherbrooke Rue E, Montreal QC H1V 1A1",
                        "locality": "Montreal",
                        "postcode": "H1V 1A1",
                        "region": "QC"
                  },
                  "name": "BRGR&MAC Village-Olympique"
            },
            {
                  "distance": 621,
                  "location": {
                        "address": "5222 Sherbrooke Rue E",
                        "country": "CA",
                        "formatted_address": "5222 Sherbrooke Rue E, Montreal QC H1V 1A1",
                        "locality": "Montreal",
                        "postcode": "H1V 1A1",
                        "region": "QC"
                  },
                  "name": "Madisons N Y Bar & Grill"
            },
            {
                  "distance": 872,
                  "location": {
                        "address": "5460 Sherbrooke Rue O",
                        "country": "CA",
                        "formatted_address": "5460 Sherbrooke Rue O, Montreal QC H4A 1V9",
                        "locality": "Montreal",
                        "postcode": "H4A 1V9",
                        "region": "QC"
                  },
                  "name": "Nickels Restaurant"
            },
            {
                  "distance": 900,
                  "location": {
                        "address": "4141 Pierre-De Coubertin Ave",
                        "country": "CA",
                        "formatted_address": "4141 Pierre-De Coubertin Ave, Montreal QC H1V 3N7",
                        "locality": "Montreal",
                        "postcode": "H1V 3N7",
                        "region": "QC"
                  },
                  "name": "Les Dimanches Salsa Folie"
            },
            {
                  "distance": 929,
                  "location": {
                        "address": "2190 Aird Ave",
                        "country": "CA",
                        "formatted_address": "2190 Aird Ave, Montreal QC",
                        "locality": "Montreal",
                        "region": "QC"
                  },
                  "name": "Galette Soba"
            }
      ],
      "context": {
            "geo_bounds": {
                  "circle": {
                        "center": {
                              "latitude": 45.56308417,
                              "longitude": -73.54819413
                        },
                        "radius": 1000
                  }
            }
      }
}