{
      "results": [
            {
                  "distance": 794,
                  "location": {
                        "address": "1201 Van Horne Ave",
                        "country": "CA",
                        "cross_street": "",
                        "formatted_address": "1201 Van Horne Ave, Montr\u00e9al QC H2V 1K4",
                        "locality": "Montreal",
                        "postcode": "H2V 1K4",
                        "region": "QC"
                  },
                  "name": "Damas",
                  "popularity": 0.9677446063588191,
                  "price": 4,
                  "rating": 9.4
            },
            {
                  "distance": 546,
                  "location": {
                        "address": "45 Mozart Ave O",
                        "country": "CA",
                        "cross_street": "",
                        "formatted_address": "45 Mozart Ave O, Montr\u00e9al QC H2S 1C1",
                        "locality": "Montreal",
                        "postcode": "H2S 1C1",
                        "region": "QC"
                  },
                  "name": "Marconi",
                  "popularity": 0.9417699659348978,
                  "price": 2,
                  "rating": 9.2
            },
            {
                  "distance": 456,
                  "location": {
                        "address": "6840 Saint-Laurent Blvd",
                        "country": "CA",
                        "formatted_address": "6840 Saint-Laurent Blvd, Montr\u00e9al QC H2S 3C7",
                        "locality": "Montreal",
                        "postcode": "H2S 3C7",
                        "region": "QC"
                  },
                  "name": "Cafe Italia",
                  "popularity": 0.9526163890991673,
                  "price": 1,
                  "rating": 9.1
            },
            {
                  "distance": 609,
                  "location": {
                        "address": "7032 Waverly Rue",
                        "country": "CA",
                        "cross_street": "",
                        "formatted_address": "7032 Waverly Rue, Montr\u00e9al QC H2S 3J2",
                        "locality": "Montreal",
                        "postcode": "H2S 3J2",
                        "region": "QC"
                  },
                  "name": "D\u00e9panneur le Pick Up",
                  "popularity": 0.9210233724451173,
                  "price": 1,
                  "rating": 9.0
            },
            {
                  "distance": 771,
                  "location": {
                        "address": "500 Beaubien Rue E",
                        "country": "CA",
                        "cross_street": "",
                        "formatted_address": "500 Beaubien Rue E, Montr\u00e9al QC H2S 1S5",
                        "locality": "Montreal",
                        "postcode": "H2S 1S5",
                        "region": "QC"
                  },
                  "name": "Caf\u00e9 Pista",
                  "popularity": 0.9594294095382286,
                  "price": 1,
                  "rating": 8.9
            },
            {
                  "distance": 761,
                  "location": {
                        "address": "5761 Saint-Laurent Blvd",
                        "country": "CA",
                        "cross_street": "coin Bernard",
                        "formatted_address": "5761 Saint-Laurent Blvd (coin Bernard), Montr\u00e9al QC H2T 1S9",
                        "locality": "Montreal",
                        "postcode": "H2T 1S9",
                        "region": "QC"
                  },
                  "name": "Pastel Rita",
                  "popularity": 0.9478141559424679,
                  "price": 1,
                  "rating": 8.9
            },
            {
                  "distance": 810,
                  "location": {
                        "address": "95 Jean-Talon Rue O",
                        "country": "CA",
                        "cross_street": "Saint-Urbain",
                        "formatted_address": "95 Jean-Talon Rue O (Saint-Urbain), Montr\u00e9al QC H2R 2W8",
                        "locality": "Montreal",
                        "postcode": "H2R 2W8",
                        "region": "QC"
                  },
                  "name": "Brasserie Harricana",
                  "popularity": 0.95985522331567,
                  "rating": 8.8
            },
            {
                  "distance": 1002,
                  "location": {
                        "address": "6230 Saint-Hubert Rue",
                        "country": "CA",
                        "cross_street": "",
                        "formatted_address": "6230 Saint-Hubert Rue, Montr\u00e9al QC H2S 2M2",
                        "locality": "Montreal",
                        "postcode": "H2S 2M2",
                        "region": "QC"
                  },
                  "name": "Montreal Plaza",
                  "popularity": 0.9133350681302044,
                  "price": 2,
                  "rating": 8.8
            },
            {
                  "distance": 636,
                  "location": {
                        "address": "277 Dante Rue",
                        "country": "CA",
                        "cross_street": "",
                        "formatted_address": "277 Dante Rue, Montr\u00e9al QC H2S 1K3",
                        "locality": "Montreal",
                        "postcode": "H2S 1K3",
                        "region": "QC"
                  },
                  "name": "Pasticceria Alati-Caserta",
                  "popularity": 0.9710328349735049,
                  "price": 1,
                  "rating": 8.8
            },
            {
                  "distance": 223,
                  "location": {
                        "address": "6389 Saint-Laurent Blvd",
                        "country": "CA",
                        "formatted_address": "6389 Saint-Laurent Blvd, Montr\u00e9al QC H2S 3C3",
                        "locality": "Montreal",
                        "postcode": "H2S 3C3",
                        "region": "QC"
                  },
                  "name": "Pastaga",
                  "popularity": 0.9347085541256623,
                  "price": 2,
                  "rating": 8.8
            },
            {
                  "distance": 274,
                  "location": {
                        "address": "6704 Clark Rue",
                        "country": "CA",
                        "cross_street": "coin St-Zotique",
                        "formatted_address": "6704 Clark Rue (coin St-Zotique), Montr\u00e9al QC H2S 3E9",
                        "locality": "Montreal",
                        "postcode": "H2S 3E9",
                        "region": "QC"
                  },
                  "name": "Dinette Triple Crown",
                  "popularity": 0.9051618092354277,
                  "price": 2,
                  "rating": 8.7
            },
            {
                  "distance": 772,
                  "location": {
                        "address": "6696 Rue de Saint-Vallier",
                        "country": "CA",
                        "cross_street": "Saint-Zotique",
                        "formatted_address": "6696 Rue de Saint-Vallier (Saint-Zotique), Montr\u00e9al QC H2S 2P7",
                        "locality": "Montreal",
                        "postcode": "H2S 2P7",
                        "region": "QC"
                  },
                  "name": "Restaurant Santa Barbara",
                  "popularity": 0.9257901211203634,
                  "price": 3,
                  "rating": 8.7
            },
            {
                  "distance": 1000,
                  "location": {
                        "address": "5605 Ave de Gasp\u00e9",
                        "country": "CA",
                        "cross_street": "coin St-Viateur Est",
                        "formatted_address": "5605 Ave de Gasp\u00e9 (coin St-Viateur Est), Montr\u00e9al QC H2T 2A4",
                        "locality": "Montreal",
                        "postcode": "H2T 2A4",
                        "region": "QC"
                  },
                  "name": "Caf\u00e9 Falco",
                  "popularity": 0.942952781983346,
                  "price": 2,
                  "rating": 8.7
            },
            {
                  "distance": 744,
                  "location": {
                        "address": "7129 Saint-Laurent Blvd",
                        "address_extended": "Coin avenue Shamrock",
                        "country": "CA",
                        "cross_street": "Coin avenue Shamrock",
                        "formatted_address": "7129 Saint-Laurent Blvd (Coin avenue Shamrock), Montr\u00e9al QC H2S 0B2",
                        "locality": "Montreal",
                        "postcode": "H2S 0B2",
                        "region": "QC"
                  },
                  "name": "Birra",
                  "popularity": 0.9695779712339136,
                  "price": 2,
                  "rating": 8.6
            },
            {
                  "distance": 650,
                  "location": {
                        "address": "378 Saint-Zotique Rue E",
                        "country": "CA",
                        "cross_street": "",
                        "formatted_address": "378 Saint-Zotique Rue E, Montr\u00e9al QC H2S 1L7",
                        "locality": "Montreal",
                        "postcode": "H2S 1L7",
                        "region": "QC"
                  },
                  "name": "La Brume Dans Mes Lunettes",
                  "popularity": 0.9542605034065103,
                  "price": 1,
                  "rating": 8.6
            },
            {
                  "distance": 357,
                  "location": {
                        "address": "83 Saint-Zotique Rue E",
                        "country": "CA",
                        "cross_street": "",
                        "formatted_address": "83 Saint-Zotique Rue E, Montr\u00e9al QC H2S 1K7",
                        "locality": "Montreal",
                        "postcode": "H2S 1K7",
                        "region": "QC"
                  },
                  "name": "\u00c9picerie Pumpui",
                  "popularity": 0.9057650454201362,
                  "price": 2,
                  "rating": 8.6
            },
            {
                  "distance": 642,
                  "location": {
                        "address": "5836 Saint-Laurent Blvd",
                        "country": "CA",
                        "cross_street": "",
                        "formatted_address": "5836 Saint-Laurent Blvd, Montr\u00e9al QC H2T 1T3",
                        "locality": "Montreal",
                        "postcode": "H2T 1T3",
                        "region": "QC"
                  },
                  "name": "Le Butterblume",
                  "popularity": 0.9501443035579107,
                  "price": 1,
                  "rating": 8.6
            },
            {
                  "distance": 862,
                  "location": {
                        "address": "232 Jean-Talon Rue E",
                        "country": "CA",
                        "cross_street": "coin Casgrain",
                        "formatted_address": "232 Jean-Talon Rue E (coin Casgrain), Montr\u00e9al QC H2R 1S7",
                        "locality": "Montreal",
                        "postcode": "H2R 1S7",
                        "region": "QC"
                  },
                  "name": "Le Roi du Taco",
                  "popularity": 0.9488195495836488,
                  "price": 1,
                  "rating": 8.6
            },
            {
                  "distance": 755,
                  "location": {
                        "address": "6956 Drolet Rue",
                        "country": "CA",
                        "cross_street": "entre Mozart & B\u00e9langer",
                        "formatted_address": "6956 Drolet Rue (entre Mozart & B\u00e9langer), Montr\u00e9al QC H2S 2T3",
                        "locality": "Montreal",
                        "postcode": "H2S 2T3",
                        "region": "QC"
                  },
                  "name": "Chez Tousignant",
                  "popularity": 0.9384225965177896,
                  "rating": 8.6
            },
            {
                  "distance": 194,
                  "location": {
                        "address": "6631 Saint-Laurent Blvd",
                        "country": "CA",
                        "cross_street": "sud de St-Zotique",
                        "formatted_address": "6631 Saint-Laurent Blvd (sud de St-Zotique), Montr\u00e9al QC H2S 3C5",
                        "locality": "Montreal",
                        "postcode": "H2S 3C5",
                        "region": "QC"
                  },
                  "name": "Vices & Versa Bistro du Terroir Inc",
                  "popularity": 0.9497303179409539,
                  "price": 2,
                  "rating": 8.5
            },
            {
                  "distance": 668,
                  "location": {
                        "address": "6414 Saint-Denis Rue",
                        "country": "CA",
                        "cross_street": "Rue Beaubien",
                        "formatted_address": "6414 Saint-Denis Rue (Rue Beaubien), Montr\u00e9al QC H2S 2R7",
                        "locality": "Montreal",
                        "postcode": "H2S 2R7",
                        "region": "QC"
                  },
                  "name": "Restaurant Pho Tay Ho",
                  "popularity": 0.944525927327782,
                  "price": 1,
                  "rating": 8.5
            },
            {
                  "distance": 708,
                  "location": {
                        "address": "5788 Saint-Laurent Blvd",
                        "country": "CA",
                        "cross_street": "Bernard",
                        "formatted_address": "5788 Saint-Laurent Blvd (Bernard), Montr\u00e9al QC H2T 1S8",
                        "locality": "Montreal",
                        "postcode": "H2T 1S8",
                        "region": "QC"
                  },
                  "name": "Ping Pong Club",
                  "popularity": 0.9317869984859954,
                  "price": 2,
                  "rating": 8.4
            },
            {
                  "distance": 875,
                  "location": {
                        "address": "1057 Bernard Ave",
                        "country": "CA",
                        "cross_street": "entre Durocher & Querbes",
                        "formatted_address": "1057 Bernard Ave (entre Durocher & Querbes), Outremont QC H2V 1V1",
                        "locality": "Outremont",
                        "postcode": "H2V 1V1",
                        "region": "QC"
                  },
                  "name": "Lester's Aaa Delicatessen",
                  "popularity": 0.9608606169568509,
                  "price": 2,
                  "rating": 8.3
            },
            {
                  "distance": 806,
                  "location": {
                        "address": "520 Beaubien Rue E",
                        "country": "CA",
                        "cross_street": "De Chateaubriand",
                        "formatted_address": "520 Beaubien Rue E (De Chateaubriand), Montr\u00e9al QC H2S 1S5",
                        "locality": "Montreal",
                        "postcode": "H2S 1S5",
                        "region": "QC"
                  },
                  "name": "Restaurant El Chalateco",
                  "popularity": 0.9479679220287661,
                  "rating": 8.2
            },
            {
                  "distance": 966,
                  "location": {
                        "address": "5611 Ave du Parc",
                        "country": "CA",
                        "cross_street": "St-Viateur",
                        "formatted_address": "5611 Ave du Parc (St-Viateur), Montr\u00e9al QC H2V 4H2",
                        "locality": "Montreal",
                        "postcode": "H2V 4H2",
                        "region": "QC"
                  },
                  "name": "Ta Chido",
                  "popularity": 0.9069360333080999,
                  "price": 1,
                  "rating": 8.1
            },
            {
                  "distance": 242,
                  "location": {
                        "address": "35 Beaubien Rue E",
                        "country": "CA",
                        "cross_street": "",
                        "formatted_address": "35 Beaubien Rue E, Montr\u00e9al QC H2S 1P7",
                        "locality": "Montreal",
                        "postcode": "H2S 1P7",
                        "region": "QC"
                  },
                  "name": "Moustache Caf\u00e9",
                  "popularity": 0.9216857494322483,
                  "price": 1,
                  "rating": 8.1
            },
            {
                  "distance": 160,
                  "location": {
                        "address": "6527 St Laurent Blvd",
                        "country": "CA",
                        "cross_street": "Beaubien",
                        "formatted_address": "6527 St Laurent Blvd (Beaubien), Montr\u00e9al QC H2S 3C3",
                        "locality": "Montreal",
                        "postcode": "H2S 3C3",
                        "region": "QC"
                  },
                  "name": "Plougastel",
                  "popularity": 0.8961487509462528,
                  "price": 1,
                  "rating": 8.0
            },
            {
                  "distance": 461,
                  "location": {
                        "address": "6827 St-Dominique Rue",
                        "country": "CA",
                        "cross_street": "Dante",
                        "formatted_address": "6827 St-Dominique Rue (Dante), Montr\u00e9al QC H2S 3B1",
                        "locality": "Montreal",
                        "postcode": "H2S 3B1",
                        "region": "QC"
                  },
                  "name": "Pizzeria Gema",
                  "popularity": 0.9067586109008327,
                  "price": 2,
                  "rating": 7.9
            },
            {
                  "distance": 549,
                  "location": {
                        "address": "189 Dante Rue",
                        "country": "CA",
                        "cross_street": "coin De Gasp\u00e9",
                        "formatted_address": "189 Dante Rue (coin De Gasp\u00e9), Montr\u00e9al QC H2S 1K1",
                        "locality": "Montreal",
                        "postcode": "H2S 1K1",
                        "region": "QC"
                  },
                  "name": "Pizzeria Napoletana",
                  "popularity": 0.9475775927327782,
                  "price": 1,
                  "rating": 7.9
            },
            {
                  "distance": 603,
                  "location": {
                        "address": "386 Beaumont Ave",
                        "country": "CA",
                        "cross_street": "",
                        "formatted_address": "386 Beaumont Ave, Montr\u00e9al QC H3N 1T4",
                        "locality": "Montreal",
                        "postcode": "H3N 1T4",
                        "region": "QC"
                  },
                  "name": "Denise",
                  "popularity": 0.9686553747161242,
                  "price": 2,
                  "rating": 7.9
            },
            {
                  "distance": 698,
                  "location": {
                        "address": "351 Rue de Bellechasse",
                        "country": "CA",
                        "cross_street": "btwn Drolet & St-Denis",
                        "formatted_address": "351 Rue de Bellechasse (btwn Drolet & St-Denis), Montr\u00e9al QC H2S 1X1",
                        "locality": "Montreal",
                        "postcode": "H2S 1X1",
                        "region": "QC"
                  },
                  "name": "Elio Pizzeria",
                  "popularity": 0.9754683951551855,
                  "price": 1,
                  "rating": 7.9
            },
            {
                  "distance": 288,
                  "location": {
                        "address": "6700 Saint-Laurent Blvd",
                        "country": "CA",
                        "cross_street": "St-Zotique",
                        "formatted_address": "6700 Saint-Laurent Blvd (St-Zotique), Montr\u00e9al QC H2S 3C7",
                        "locality": "Montreal",
                        "postcode": "H2S 3C7",
                        "region": "QC"
                  },
                  "name": "Saint-Houblon Petite-Italie",
                  "popularity": 0.9672951362604087,
                  "price": 3,
                  "rating": 7.9
            },
            {
                  "distance": 774,
                  "location": {
                        "address": "359 Bernard Rue O",
                        "country": "CA",
                        "cross_street": "coin Du Parc",
                        "formatted_address": "359 Bernard Rue O (coin Du Parc), Montr\u00e9al QC H2V 1T6",
                        "locality": "Montreal",
                        "postcode": "H2V 1T6",
                        "region": "QC"
                  },
                  "name": "Boulangerie Cheskie Inc",
                  "popularity": 0.9672005109765329,
                  "price": 1,
                  "rating": 7.8
            },
            {
                  "distance": 985,
                  "location": {
                        "address": "6289 Saint-Hubert Rue",
                        "country": "CA",
                        "cross_street": "",
                        "formatted_address": "6289 Saint-Hubert Rue, Montr\u00e9al QC H2S 2L9",
                        "locality": "Montreal",
                        "postcode": "H2S 2L9",
                        "region": "QC"
                  },
                  "name": "Nestor",
                  "popularity": 0.931160105980318,
                  "price": 2,
                  "rating": 7.8
            },
            {
                  "distance": 459,
                  "location": {
                        "address": "48 Dante Rue",
                        "country": "CA",
                        "cross_street": "St-Dominique",
                        "formatted_address": "48 Dante Rue (St-Dominique), Montr\u00e9al QC H2S 1J5",
                        "locality": "Montreal",
                        "postcode": "H2S 1J5",
                        "region": "QC"
                  },
                  "name": "Impasto",
                  "popularity": 0.8786075889477668,
                  "price": 2,
                  "rating": 7.8
            }
      ],
      "context": {
            "geo_bounds": {
                  "circle": {
                        "center": {
                              "latitude": 45.52954745,
                              "longitude": -73.61071855
                        },
                        "radius": 1000
                  }
            }
      }
}