{
      "results": [
            {
                  "distance": 836,
                  "location": {
                        "address": "1033 90e Ave",
                        "country": "CA",
                        "cross_street": "",
                        "formatted_address": "1033 90e Ave, Lasalle QC H8R 3A4",
                        "locality": "Lasalle",
                        "postcode": "H8R 3A4",
                        "region": "QC"
                  },
                  "name": "Manzo Pizzeria",
                  "popularity": 0.9827427138531416,
                  "price": 1,
                  "rating": 7.8
            },
            {
                  "distance": 916,
                  "location": {
                        "address": "442 Lafleur Ave",
                        "country": "CA",
                        "cross_street": "Clement",
                        "formatted_address": "442 Lafleur Ave (Clement), Lasalle QC H8R 3H6",
                        "locality": "Lasalle",
                        "postcode": "H8R 3H6",
                        "region": "QC"
                  },
                  "name": "Subway",
                  "popularity": 0.9715769303557911,
                  "price": 1,
                  "rating": 6.2
            },
            {
                  "distance": 235,
                  "location": {
                        "address": "78 Centrale Rue",
                        "country": "CA",
                        "cross_street": "",
                        "formatted_address": "78 Centrale Rue, Lasalle QC H8R 2J3",
                        "locality": "Lasalle",
                        "postcode": "H8R 2J3",
                        "region": "QC"
                  },
                  "name": "Restaurant Habanos",
                  "popularity": 0.8980057721423165,
                  "price": 2
            },
            {
                  "distance": 635,
                  "location": {
                        "address": "662 90e Ave",
                        "country": "CA",
                        "cross_street": "",
                        "formatted_address": "662 90e Ave, Lasalle QC H8R 3A1",
                        "locality": "Lasalle",
                        "postcode": "H8R 3A1",
                        "region": "QC"
                  },
                  "name": "V-Lounge Lasalle",
                  "popularity": 0.9272095003785011,
                  "price": 3
            },
            {
                  "distance": 817,
                  "location": {
                        "address": "406 Lafleur Ave",
                        "country": "CA",
                        "cross_street": "",
                        "formatted_address": "406 Lafleur Ave, Lasalle QC H8R 3H6",
                        "locality": "Lasalle",
                        "postcode": "H8R 3H6",
                        "region": "QC"
                  },
                  "name": "Misoya",
                  "popularity": 0.10815669947009841,
                  "price": 2
            },
            {
                  "distance": 839,
                  "location": {
                        "address": "408 Lafleur Ave",
                        "country": "CA",
                        "cross_street": "",
                        "formatted_address": "408 Lafleur Ave, Lasalle QC H8R 3H6",
                        "locality": "Lasalle",
                        "postcode": "H8R 3H6",
                        "region": "QC"
                  },
                  "name": "Restaurant Lasalle Caribbean",
                  "popularity": 0.9868943981831946,
                  "price": 2
            },
            {
                  "distance": 925,
                  "location": {
                        "address": "441 Lafleur Ave",
                        "country": "CA",
                        "cross_street": "Clement",
                        "formatted_address": "441 Lafleur Ave (Clement), Lasalle QC H8R 3H7",
                        "locality": "Lasalle",
                        "postcode": "H8R 3H7",
                        "region": "QC"
                  },
                  "name": "La Belle Province",
                  "popularity": 0.9518593868281605,
                  "price": 1
            },
            {
                  "distance": 947,
                  "location": {
                        "address": "455 Lafleur Ave",
                        "country": "CA",
                        "cross_street": "Rue Cl\u00e9ment",
                        "formatted_address": "455 Lafleur Ave (Rue Cl\u00e9ment), Lasalle QC H8R 3H8",
                        "locality": "Lasalle",
                        "postcode": "H8R 3H8",
                        "region": "QC"
                  },
                  "name": "Serano Pizzeria",
                  "popularity": 0.9683478425435277,
                  "price": 1
            },
            {
                  "distance": 965,
                  "location": {
                        "address": "475 Lafleur Ave",
                        "country": "CA",
                        "cross_street": "Cl\u00e9ment",
                        "formatted_address": "475 Lafleur Ave (Cl\u00e9ment), Lasalle QC H8R 3H8",
                        "locality": "Lasalle",
                        "postcode": "H8R 3H8",
                        "region": "QC"
                  },
                  "name": "Les Restaurant Lafleur Inc",
                  "popularity": 0.975409254352763,
                  "price": 1
            },
            {
                  "distance": 200,
                  "location": {
                        "address": "85 Lafleur Ave",
                        "country": "CA",
                        "formatted_address": "85 Lafleur Ave, Lasalle QC H8R 3G8",
                        "locality": "Lasalle",
                        "postcode": "H8R 3G8",
                        "region": "QC"
                  },
                  "name": "Culinaria Lasalle"
            },
            {
                  "distance": 626,
                  "location": {
                        "address": "9550 Jean-Milot Rue",
                        "country": "CA",
                        "formatted_address": "9550 Jean-Milot Rue, Lasalle QC H8R 1X7",
                        "locality": "Lasalle",
                        "postcode": "H8R 1X7",
                        "region": "QC"
                  },
                  "name": "Carib Patties"
            },
            {
                  "distance": 632,
                  "location": {
                        "address": "620 90e Ave",
                        "country": "CA",
                        "formatted_address": "620 90e Ave, Lasalle QC H8R 3A1",
                        "locality": "Lasalle",
                        "postcode": "H8R 3A1",
                        "region": "QC"
                  },
                  "name": "Buffalo Bill Wings"
            },
            {
                  "distance": 744,
                  "location": {
                        "address": "390 Lafleur Ave",
                        "country": "CA",
                        "formatted_address": "390 Lafleur Ave, Lasalle QC H8R 3H6",
                        "locality": "Lasalle",
                        "postcode": "H8R 3H6",
                        "region": "QC"
                  },
                  "name": "Patisserie Gordana"
            },
            {
                  "distance": 806,
                  "location": {
                        "address": "408 Lafleur Ave",
                        "country": "CA",
                        "formatted_address": "408 Lafleur Ave, Lasalle QC H8R 3H6",
                        "locality": "Lasalle",
                        "postcode": "H8R 3H6",
                        "region": "QC"
                  },
                  "name": "Jamaica Caribbean Homestyle"
            },
            {
                  "distance": 814,
                  "location": {
                        "address": "322 Trudeau Rue",
                        "country": "CA",
                        "formatted_address": "322 Trudeau Rue, Lasalle QC H8R 3C2",
                        "locality": "Lasalle",
                        "postcode": "H8R 3C2",
                        "region": "QC"
                  },
                  "name": "Salvatore Luigi"
            },
            {
                  "distance": 909,
                  "location": {
                        "address": "9510 Clement Rue",
                        "country": "CA",
                        "formatted_address": "9510 Clement Rue, Lasalle QC H8R 1S9",
                        "locality": "Lasalle",
                        "postcode": "H8R 1S9",
                        "region": "QC"
                  },
                  "name": "Fouta Djallon"
            },
            {
                  "distance": 974,
                  "location": {
                        "address": "455 Lafleur Ave",
                        "country": "CA",
                        "formatted_address": "455 Lafleur Ave, Lasalle QC H8R 3H8",
                        "locality": "Lasalle",
                        "postcode": "H8R 3H8",
                        "region": "QC"
                  },
                  "name": "Serano Restaurant"
            },
            {
                  "distance": 993,
                  "location": {
                        "address": "9595 Clement Rue",
                        "country": "CA",
                        "formatted_address": "9595 Clement Rue, Lasalle QC H8R 1S8",
                        "locality": "Lasalle",
                        "postcode": "H8R 1S8",
                        "region": "QC"
                  },
                  "name": "Restaurants D Lafleur Inc"
            }
      ],
      "context": {
            "geo_bounds": {
                  "circle": {
                        "center": {
                              "latitude": 45.42505967,
                              "longitude": -73.64959918
                        },
                        "radius": 1000
                  }
            }
      }
}