{
      "results": [
            {
                  "distance": 565,
                  "location": {
                        "address": "1201 Van Horne Ave",
                        "country": "CA",
                        "cross_street": "",
                        "formatted_address": "1201 Van Horne Ave, Montr\u00e9al QC H2V 1K4",
                        "locality": "Montreal",
                        "postcode": "H2V 1K4",
                        "region": "QC"
                  },
                  "name": "Damas",
                  "popularity": 0.9677446063588191,
                  "price": 4,
                  "rating": 9.4
            },
            {
                  "distance": 643,
                  "location": {
                        "address": "45 Mozart Ave O",
                        "country": "CA",
                        "cross_street": "",
                        "formatted_address": "45 Mozart Ave O, Montr\u00e9al QC H2S 1C1",
                        "locality": "Montreal",
                        "postcode": "H2S 1C1",
                        "region": "QC"
                  },
                  "name": "Marconi",
                  "popularity": 0.9417699659348978,
                  "price": 2,
                  "rating": 9.2
            },
            {
                  "distance": 597,
                  "location": {
                        "address": "6840 Saint-Laurent Blvd",
                        "country": "CA",
                        "formatted_address": "6840 Saint-Laurent Blvd, Montr\u00e9al QC H2S 3C7",
                        "locality": "Montreal",
                        "postcode": "H2S 3C7",
                        "region": "QC"
                  },
                  "name": "Cafe Italia",
                  "popularity": 0.9526163890991673,
                  "price": 1,
                  "rating": 9.1
            },
            {
                  "distance": 988,
                  "location": {
                        "address": "263 Saint- Viateur Rue O",
                        "country": "CA",
                        "cross_street": "entre Jeanne-Mance & du Parc",
                        "formatted_address": "263 Saint- Viateur Rue O (entre Jeanne-Mance & du Parc), Montr\u00e9al QC H2V 1Y1",
                        "locality": "Montreal",
                        "postcode": "H2V 1Y1",
                        "region": "QC"
                  },
                  "name": "St-Viateur Bagel",
                  "popularity": 0.9821986184708554,
                  "price": 1,
                  "rating": 9.1
            },
            {
                  "distance": 637,
                  "location": {
                        "address": "7032 Waverly Rue",
                        "country": "CA",
                        "cross_street": "",
                        "formatted_address": "7032 Waverly Rue, Montr\u00e9al QC H2S 3J2",
                        "locality": "Montreal",
                        "postcode": "H2S 3J2",
                        "region": "QC"
                  },
                  "name": "D\u00e9panneur le Pick Up",
                  "popularity": 0.9210233724451173,
                  "price": 1,
                  "rating": 9.0
            },
            {
                  "distance": 982,
                  "location": {
                        "address": "1311 Bernard Ave",
                        "country": "CA",
                        "cross_street": "coin Outremont",
                        "formatted_address": "1311 Bernard Ave (coin Outremont), Montr\u00e9al QC H2V 1W1",
                        "locality": "Montreal",
                        "postcode": "H2V 1W1",
                        "region": "QC"
                  },
                  "name": "Le Glacier Bilboquet",
                  "popularity": 0.9378075321725965,
                  "price": 2,
                  "rating": 9.0
            },
            {
                  "distance": 839,
                  "location": {
                        "address": "5761 Saint-Laurent Blvd",
                        "country": "CA",
                        "cross_street": "coin Bernard",
                        "formatted_address": "5761 Saint-Laurent Blvd (coin Bernard), Montr\u00e9al QC H2T 1S9",
                        "locality": "Montreal",
                        "postcode": "H2T 1S9",
                        "region": "QC"
                  },
                  "name": "Pastel Rita",
                  "popularity": 0.9478141559424679,
                  "price": 1,
                  "rating": 8.9
            },
            {
                  "distance": 863,
                  "location": {
                        "address": "95 Jean-Talon Rue O",
                        "country": "CA",
                        "cross_street": "Saint-Urbain",
                        "formatted_address": "95 Jean-Talon Rue O (Saint-Urbain), Montr\u00e9al QC H2R 2W8",
                        "locality": "Montreal",
                        "postcode": "H2R 2W8",
                        "region": "QC"
                  },
                  "name": "Brasserie Harricana",
                  "popularity": 0.95985522331567,
                  "rating": 8.8
            },
            {
                  "distance": 844,
                  "location": {
                        "address": "277 Dante Rue",
                        "country": "CA",
                        "cross_street": "",
                        "formatted_address": "277 Dante Rue, Montr\u00e9al QC H2S 1K3",
                        "locality": "Montreal",
                        "postcode": "H2S 1K3",
                        "region": "QC"
                  },
                  "name": "Pasticceria Alati-Caserta",
                  "popularity": 0.9710328349735049,
                  "price": 1,
                  "rating": 8.8
            },
            {
                  "distance": 429,
                  "location": {
                        "address": "6389 Saint-Laurent Blvd",
                        "country": "CA",
                        "formatted_address": "6389 Saint-Laurent Blvd, Montr\u00e9al QC H2S 3C3",
                        "locality": "Montreal",
                        "postcode": "H2S 3C3",
                        "region": "QC"
                  },
                  "name": "Pastaga",
                  "popularity": 0.9347085541256623,
                  "price": 2,
                  "rating": 8.8
            },
            {
                  "distance": 421,
                  "location": {
                        "address": "6704 Clark Rue",
                        "country": "CA",
                        "cross_street": "coin St-Zotique",
                        "formatted_address": "6704 Clark Rue (coin St-Zotique), Montr\u00e9al QC H2S 3E9",
                        "locality": "Montreal",
                        "postcode": "H2S 3E9",
                        "region": "QC"
                  },
                  "name": "Dinette Triple Crown",
                  "popularity": 0.9051618092354277,
                  "price": 2,
                  "rating": 8.7
            },
            {
                  "distance": 841,
                  "location": {
                        "address": "7129 Saint-Laurent Blvd",
                        "address_extended": "Coin avenue Shamrock",
                        "country": "CA",
                        "cross_street": "Coin avenue Shamrock",
                        "formatted_address": "7129 Saint-Laurent Blvd (Coin avenue Shamrock), Montr\u00e9al QC H2S 0B2",
                        "locality": "Montreal",
                        "postcode": "H2S 0B2",
                        "region": "QC"
                  },
                  "name": "Birra",
                  "popularity": 0.9695779712339136,
                  "price": 2,
                  "rating": 8.6
            },
            {
                  "distance": 887,
                  "location": {
                        "address": "378 Saint-Zotique Rue E",
                        "country": "CA",
                        "cross_street": "",
                        "formatted_address": "378 Saint-Zotique Rue E, Montr\u00e9al QC H2S 1L7",
                        "locality": "Montreal",
                        "postcode": "H2S 1L7",
                        "region": "QC"
                  },
                  "name": "La Brume Dans Mes Lunettes",
                  "popularity": 0.9542605034065103,
                  "price": 1,
                  "rating": 8.6
            },
            {
                  "distance": 573,
                  "location": {
                        "address": "83 Saint-Zotique Rue E",
                        "country": "CA",
                        "cross_street": "",
                        "formatted_address": "83 Saint-Zotique Rue E, Montr\u00e9al QC H2S 1K7",
                        "locality": "Montreal",
                        "postcode": "H2S 1K7",
                        "region": "QC"
                  },
                  "name": "\u00c9picerie Pumpui",
                  "popularity": 0.9057650454201362,
                  "price": 2,
                  "rating": 8.6
            },
            {
                  "distance": 728,
                  "location": {
                        "address": "5836 Saint-Laurent Blvd",
                        "country": "CA",
                        "cross_street": "",
                        "formatted_address": "5836 Saint-Laurent Blvd, Montr\u00e9al QC H2T 1T3",
                        "locality": "Montreal",
                        "postcode": "H2T 1T3",
                        "region": "QC"
                  },
                  "name": "Le Butterblume",
                  "popularity": 0.9501443035579107,
                  "price": 1,
                  "rating": 8.6
            },
            {
                  "distance": 956,
                  "location": {
                        "address": "6956 Drolet Rue",
                        "country": "CA",
                        "cross_street": "entre Mozart & B\u00e9langer",
                        "formatted_address": "6956 Drolet Rue (entre Mozart & B\u00e9langer), Montr\u00e9al QC H2S 2T3",
                        "locality": "Montreal",
                        "postcode": "H2S 2T3",
                        "region": "QC"
                  },
                  "name": "Chez Tousignant",
                  "popularity": 0.9384225965177896,
                  "rating": 8.6
            },
            {
                  "distance": 425,
                  "location": {
                        "address": "6631 Saint-Laurent Blvd",
                        "country": "CA",
                        "cross_street": "sud de St-Zotique",
                        "formatted_address": "6631 Saint-Laurent Blvd (sud de St-Zotique), Montr\u00e9al QC H2S 3C5",
                        "locality": "Montreal",
                        "postcode": "H2S 3C5",
                        "region": "QC"
                  },
                  "name": "Vices & Versa Bistro du Terroir Inc",
                  "popularity": 0.9497303179409539,
                  "price": 2,
                  "rating": 8.5
            },
            {
                  "distance": 907,
                  "location": {
                        "address": "6414 Saint-Denis Rue",
                        "country": "CA",
                        "cross_street": "Rue Beaubien",
                        "formatted_address": "6414 Saint-Denis Rue (Rue Beaubien), Montr\u00e9al QC H2S 2R7",
                        "locality": "Montreal",
                        "postcode": "H2S 2R7",
                        "region": "QC"
                  },
                  "name": "Restaurant Pho Tay Ho",
                  "popularity": 0.944525927327782,
                  "price": 1,
                  "rating": 8.5
            },
            {
                  "distance": 783,
                  "location": {
                        "address": "5788 Saint-Laurent Blvd",
                        "country": "CA",
                        "cross_street": "Bernard",
                        "formatted_address": "5788 Saint-Laurent Blvd (Bernard), Montr\u00e9al QC H2T 1S8",
                        "locality": "Montreal",
                        "postcode": "H2T 1S8",
                        "region": "QC"
                  },
                  "name": "Ping Pong Club",
                  "popularity": 0.9317869984859954,
                  "price": 2,
                  "rating": 8.4
            },
            {
                  "distance": 741,
                  "location": {
                        "address": "1057 Bernard Ave",
                        "country": "CA",
                        "cross_street": "entre Durocher & Querbes",
                        "formatted_address": "1057 Bernard Ave (entre Durocher & Querbes), Outremont QC H2V 1V1",
                        "locality": "Outremont",
                        "postcode": "H2V 1V1",
                        "region": "QC"
                  },
                  "name": "Lester's Aaa Delicatessen",
                  "popularity": 0.9608606169568509,
                  "price": 2,
                  "rating": 8.3
            },
            {
                  "distance": 911,
                  "location": {
                        "address": "654 Jean-Talon Rue O",
                        "country": "CA",
                        "cross_street": "",
                        "formatted_address": "654 Jean-Talon Rue O, Montr\u00e9al QC H3N 1R7",
                        "locality": "Montreal",
                        "postcode": "H3N 1R7",
                        "region": "QC"
                  },
                  "name": "Restaurant Village Grecque Inc",
                  "popularity": 0.9827663701741105,
                  "price": 2,
                  "rating": 8.1
            },
            {
                  "distance": 902,
                  "location": {
                        "address": "5611 Ave du Parc",
                        "country": "CA",
                        "cross_street": "St-Viateur",
                        "formatted_address": "5611 Ave du Parc (St-Viateur), Montr\u00e9al QC H2V 4H2",
                        "locality": "Montreal",
                        "postcode": "H2V 4H2",
                        "region": "QC"
                  },
                  "name": "Ta Chido",
                  "popularity": 0.9069360333080999,
                  "price": 1,
                  "rating": 8.1
            },
            {
                  "distance": 924,
                  "location": {
                        "address": "11265 Bernard Ave",
                        "country": "CA",
                        "cross_street": "btwn Ave. Champagneur & Ave. Outremont",
                        "formatted_address": "11265 Bernard Ave (btwn Ave. Champagneur & Ave. Outremont), Montr\u00e9al QC H2V 1V8",
                        "locality": "Montreal",
                        "postcode": "H2V 1V8",
                        "region": "QC"
                  },
                  "name": "Restaurant le Petit Italien",
                  "popularity": 0.9217094057532172,
                  "price": 3,
                  "rating": 8.1
            },
            {
                  "distance": 472,
                  "location": {
                        "address": "35 Beaubien Rue E",
                        "country": "CA",
                        "cross_street": "",
                        "formatted_address": "35 Beaubien Rue E, Montr\u00e9al QC H2S 1P7",
                        "locality": "Montreal",
                        "postcode": "H2S 1P7",
                        "region": "QC"
                  },
                  "name": "Moustache Caf\u00e9",
                  "popularity": 0.9216857494322483,
                  "price": 1,
                  "rating": 8.1
            },
            {
                  "distance": 400,
                  "location": {
                        "address": "6527 St Laurent Blvd",
                        "country": "CA",
                        "cross_street": "Beaubien",
                        "formatted_address": "6527 St Laurent Blvd (Beaubien), Montr\u00e9al QC H2S 3C3",
                        "locality": "Montreal",
                        "postcode": "H2S 3C3",
                        "region": "QC"
                  },
                  "name": "Plougastel",
                  "popularity": 0.8961487509462528,
                  "price": 1,
                  "rating": 8.0
            },
            {
                  "distance": 946,
                  "location": {
                        "address": "1464 Van Horne Ave",
                        "country": "CA",
                        "cross_street": "entre Stuart & Dollard",
                        "formatted_address": "1464 Van Horne Ave (entre Stuart & Dollard), Outremont QC H2V 1L2",
                        "locality": "Outremont",
                        "postcode": "H2V 1L2",
                        "region": "QC"
                  },
                  "name": "Paltoquet",
                  "popularity": 0.9282503785011355,
                  "price": 1,
                  "rating": 8.0
            },
            {
                  "distance": 632,
                  "location": {
                        "address": "6827 St-Dominique Rue",
                        "country": "CA",
                        "cross_street": "Dante",
                        "formatted_address": "6827 St-Dominique Rue (Dante), Montr\u00e9al QC H2S 3B1",
                        "locality": "Montreal",
                        "postcode": "H2S 3B1",
                        "region": "QC"
                  },
                  "name": "Pizzeria Gema",
                  "popularity": 0.9067586109008327,
                  "price": 2,
                  "rating": 7.9
            },
            {
                  "distance": 741,
                  "location": {
                        "address": "189 Dante Rue",
                        "country": "CA",
                        "cross_street": "coin De Gasp\u00e9",
                        "formatted_address": "189 Dante Rue (coin De Gasp\u00e9), Montr\u00e9al QC H2S 1K1",
                        "locality": "Montreal",
                        "postcode": "H2S 1K1",
                        "region": "QC"
                  },
                  "name": "Pizzeria Napoletana",
                  "popularity": 0.9475775927327782,
                  "price": 1,
                  "rating": 7.9
            },
            {
                  "distance": 482,
                  "location": {
                        "address": "386 Beaumont Ave",
                        "country": "CA",
                        "cross_street": "",
                        "formatted_address": "386 Beaumont Ave, Montr\u00e9al QC H3N 1T4",
                        "locality": "Montreal",
                        "postcode": "H3N 1T4",
                        "region": "QC"
                  },
                  "name": "Denise",
                  "popularity": 0.9686553747161242,
                  "price": 2,
                  "rating": 7.9
            },
            {
                  "distance": 905,
                  "location": {
                        "address": "351 Rue de Bellechasse",
                        "country": "CA",
                        "cross_street": "btwn Drolet & St-Denis",
                        "formatted_address": "351 Rue de Bellechasse (btwn Drolet & St-Denis), Montr\u00e9al QC H2S 1X1",
                        "locality": "Montreal",
                        "postcode": "H2S 1X1",
                        "region": "QC"
                  },
                  "name": "Elio Pizzeria",
                  "popularity": 0.9754683951551855,
                  "price": 1,
                  "rating": 7.9
            },
            {
                  "distance": 464,
                  "location": {
                        "address": "6700 Saint-Laurent Blvd",
                        "country": "CA",
                        "cross_street": "St-Zotique",
                        "formatted_address": "6700 Saint-Laurent Blvd (St-Zotique), Montr\u00e9al QC H2S 3C7",
                        "locality": "Montreal",
                        "postcode": "H2S 3C7",
                        "region": "QC"
                  },
                  "name": "Saint-Houblon Petite-Italie",
                  "popularity": 0.9672951362604087,
                  "price": 3,
                  "rating": 7.9
            },
            {
                  "distance": 688,
                  "location": {
                        "address": "359 Bernard Rue O",
                        "country": "CA",
                        "cross_street": "coin Du Parc",
                        "formatted_address": "359 Bernard Rue O (coin Du Parc), Montr\u00e9al QC H2V 1T6",
                        "locality": "Montreal",
                        "postcode": "H2V 1T6",
                        "region": "QC"
                  },
                  "name": "Boulangerie Cheskie Inc",
                  "popularity": 0.9672005109765329,
                  "price": 1,
                  "rating": 7.8
            },
            {
                  "distance": 627,
                  "location": {
                        "address": "48 Dante Rue",
                        "country": "CA",
                        "cross_street": "St-Dominique",
                        "formatted_address": "48 Dante Rue (St-Dominique), Montr\u00e9al QC H2S 1J5",
                        "locality": "Montreal",
                        "postcode": "H2S 1J5",
                        "region": "QC"
                  },
                  "name": "Impasto",
                  "popularity": 0.8786075889477668,
                  "price": 2,
                  "rating": 7.8
            },
            {
                  "distance": 418,
                  "location": {
                        "address": "6584 Saint-Laurent Blvd",
                        "country": "CA",
                        "cross_street": "",
                        "formatted_address": "6584 Saint-Laurent Blvd, Montr\u00e9al QC H2S 3C6",
                        "locality": "Montreal",
                        "postcode": "H2S 3C6",
                        "region": "QC"
                  },
                  "name": "Taverne Cobra",
                  "popularity": 0.920254542013626,
                  "price": 1,
                  "rating": 7.7
            },
            {
                  "distance": 988,
                  "location": {
                        "address": "7335 Rue du Mile-End",
                        "country": "CA",
                        "cross_street": "Rue de Castelnau",
                        "formatted_address": "7335 Rue du Mile-End (Rue de Castelnau), Montr\u00e9al QC H2R 2Z7",
                        "locality": "Montreal",
                        "postcode": "H2R 2Z7",
                        "region": "QC"
                  },
                  "name": "Caf\u00e9 St-Henri HQ",
                  "popularity": 0.9647993943981832,
                  "price": 1,
                  "rating": 7.7
            }
      ],
      "context": {
            "geo_bounds": {
                  "circle": {
                        "center": {
                              "latitude": 45.5276501,
                              "longitude": -73.61229971
                        },
                        "radius": 1000
                  }
            }
      }
}