{
      "results": [
            {
                  "distance": 771,
                  "location": {
                        "address": "3353 Masson Rue",
                        "country": "CA",
                        "cross_street": "",
                        "formatted_address": "3353 Masson Rue, Montr\u00e9al QC H1X 1R5",
                        "locality": "Montreal",
                        "postcode": "H1X 1R5",
                        "region": "QC"
                  },
                  "name": "Maesmi",
                  "popularity": 0.9623154806964421,
                  "price": 1,
                  "rating": 8.9
            },
            {
                  "distance": 947,
                  "location": {
                        "address": "2407 Ave du Mont-Royal Est",
                        "country": "CA",
                        "cross_street": "entre Franch\u00e8re & Chapleau",
                        "formatted_address": "2407 Ave du Mont-Royal Est (entre Franch\u00e8re & Chapleau), Montr\u00e9al QC H2H 1L2",
                        "locality": "Montreal",
                        "postcode": "H2H 1L2",
                        "region": "QC"
                  },
                  "name": "Boswell Brasserie Artisanale",
                  "popularity": 0.9548282551097653,
                  "price": 2,
                  "rating": 8.6
            },
            {
                  "distance": 840,
                  "location": {
                        "address": "1995 Masson Rue",
                        "country": "CA",
                        "cross_street": "coin Bordeaux",
                        "formatted_address": "1995 Masson Rue (coin Bordeaux), Montr\u00e9al QC H2H 1A5",
                        "locality": "Montreal",
                        "postcode": "H2H 1A5",
                        "region": "QC"
                  },
                  "name": "L'Entre-Pots",
                  "popularity": 0.955679882664648,
                  "price": 1,
                  "rating": 8.5
            },
            {
                  "distance": 966,
                  "location": {
                        "address": "5860 Ave de Lorimier",
                        "country": "CA",
                        "cross_street": "Rue des Carri\u00e8res",
                        "formatted_address": "5860 Ave de Lorimier (Rue des Carri\u00e8res), Montr\u00e9al QC H2G 2N9",
                        "locality": "Montreal",
                        "postcode": "H2G 2N9",
                        "region": "QC"
                  },
                  "name": "Broue Pub Brouhaha",
                  "popularity": 0.9734221233913701,
                  "price": 2,
                  "rating": 8.2
            },
            {
                  "distance": 796,
                  "location": {
                        "address": "2440 Rosemont Blvd",
                        "country": "CA",
                        "cross_street": "",
                        "formatted_address": "2440 Rosemont Blvd, Montr\u00e9al QC H2G 1V2",
                        "locality": "Montreal",
                        "postcode": "H2G 1V2",
                        "region": "QC"
                  },
                  "name": "Pub Rosemont",
                  "popularity": 0.9464539174867524,
                  "price": 3,
                  "rating": 8.2
            },
            {
                  "distance": 606,
                  "location": {
                        "address": "3188 Masson Rue",
                        "country": "CA",
                        "cross_street": "coin 10e avenue",
                        "formatted_address": "3188 Masson Rue (coin 10e avenue), Montr\u00e9al QC H1Y 1Y1",
                        "locality": "Montreal",
                        "postcode": "H1Y 1Y1",
                        "region": "QC"
                  },
                  "name": "La Succursale",
                  "popularity": 0.9643262679788039,
                  "price": 2,
                  "rating": 8.2
            },
            {
                  "distance": 44,
                  "location": {
                        "address": "2618 Masson Rue",
                        "country": "CA",
                        "cross_street": "",
                        "formatted_address": "2618 Masson Rue, Montr\u00e9al QC H1Y 3E5",
                        "locality": "Montreal",
                        "postcode": "H1Y 3E5",
                        "region": "QC"
                  },
                  "name": "La Cr\u00e9mi\u00e8re",
                  "popularity": 0.8805474072672218,
                  "price": 1,
                  "rating": 7.7
            },
            {
                  "distance": 547,
                  "location": {
                        "address": "5405 9e Ave",
                        "country": "CA",
                        "cross_street": "coin Masson",
                        "formatted_address": "5405 9e Ave (coin Masson), Montr\u00e9al QC H1Y 2J7",
                        "locality": "Montreal",
                        "postcode": "H1Y 2J7",
                        "region": "QC"
                  },
                  "name": "Frite Alors",
                  "popularity": 0.9371096707040121,
                  "price": 1,
                  "rating": 7.5
            },
            {
                  "distance": 421,
                  "location": {
                        "address": "3001 Masson Rue",
                        "country": "CA",
                        "formatted_address": "3001 Masson Rue, Montr\u00e9al QC H1Y 1X7",
                        "locality": "Montreal",
                        "postcode": "H1Y 1X7",
                        "region": "QC"
                  },
                  "name": "Boulangerie Premi\u00e8re Moisson",
                  "popularity": 0.8898206850870553,
                  "price": 1,
                  "rating": 7.4
            },
            {
                  "distance": 432,
                  "location": {
                        "address": "3014 Masson Rue",
                        "country": "CA",
                        "cross_street": "coin 7e avenue",
                        "formatted_address": "3014 Masson Rue (coin 7e avenue), Montr\u00e9al QC H1Y 1X6",
                        "locality": "Montreal",
                        "postcode": "H1Y 1X6",
                        "region": "QC"
                  },
                  "name": "Chez Baptiste Sur Masson",
                  "popularity": 0.9593347842543528,
                  "price": 2,
                  "rating": 7.3
            },
            {
                  "distance": 378,
                  "location": {
                        "address": "2460 Dandurand Rue",
                        "country": "CA",
                        "formatted_address": "2460 Dandurand Rue, Montr\u00e9al QC H2G 2A3",
                        "locality": "Montreal",
                        "postcode": "H2G 2A3",
                        "region": "QC"
                  },
                  "name": "Tim Hortons",
                  "popularity": 0.9830857305071915,
                  "price": 1,
                  "rating": 6.5
            },
            {
                  "distance": 665,
                  "location": {
                        "address": "5228 d'Iberville Rue",
                        "country": "CA",
                        "cross_street": "coin Masson",
                        "formatted_address": "5228 d'Iberville Rue (coin Masson), Montr\u00e9al QC H2G 2A8",
                        "locality": "Montreal",
                        "postcode": "H2G 2A8",
                        "region": "QC"
                  },
                  "name": "Bar Sel et Poivre",
                  "popularity": 0.9735758894776685,
                  "rating": 5.9
            },
            {
                  "distance": 981,
                  "location": {
                        "address": "3255 Rosemont Blvd",
                        "country": "CA",
                        "formatted_address": "3255 Rosemont Blvd, Montr\u00e9al QC H1X 1K1",
                        "locality": "Montreal",
                        "postcode": "H1X 1K1",
                        "region": "QC"
                  },
                  "name": "Restaurant le Petit Quebec",
                  "popularity": 0.9626703255109765,
                  "price": 1,
                  "rating": 5.2
            },
            {
                  "distance": 224,
                  "location": {
                        "address": "2530 Masson Rue",
                        "country": "CA",
                        "cross_street": "coin Iberville",
                        "formatted_address": "2530 Masson Rue (coin Iberville), Montr\u00e9al QC H1Y 1V8",
                        "locality": "Montreal",
                        "postcode": "H1Y 1V8",
                        "region": "QC"
                  },
                  "name": "McDonald's",
                  "popularity": 0.9850965177895533,
                  "price": 1,
                  "rating": 5.1,
                  "store_id": "5336"
            },
            {
                  "distance": 24,
                  "location": {
                        "address": "2609 Masson Rue",
                        "country": "CA",
                        "cross_street": "",
                        "formatted_address": "2609 Masson Rue, Montreal QC H1Y 1W1",
                        "locality": "Montreal",
                        "postcode": "H1Y 1W1",
                        "region": "QC"
                  },
                  "name": "Broue Bar Gasp\u00e9",
                  "popularity": 0.06894634746404239,
                  "price": 2
            },
            {
                  "distance": 56,
                  "location": {
                        "address": "2581 Masson Rue",
                        "country": "CA",
                        "cross_street": "1\u00e8re avenue",
                        "formatted_address": "2581 Masson Rue (1\u00e8re avenue), Montr\u00e9al QC H1Y 1V7",
                        "locality": "Montreal",
                        "postcode": "H1Y 1V7",
                        "region": "QC"
                  },
                  "name": "Bar Chez Tzina",
                  "popularity": 0.9494227857683573,
                  "price": 1
            },
            {
                  "distance": 281,
                  "location": {
                        "address": "5416 d'Iberville Rue",
                        "country": "CA",
                        "cross_street": "Masson",
                        "formatted_address": "5416 d'Iberville Rue (Masson), Montr\u00e9al QC",
                        "locality": "Montreal",
                        "region": "QC"
                  },
                  "name": "Kool Cafe Inc",
                  "popularity": 0.15313919379258137,
                  "price": 2
            },
            {
                  "distance": 306,
                  "location": {
                        "address": "2874 Masson Rue",
                        "country": "CA",
                        "cross_street": "",
                        "formatted_address": "2874 Masson Rue, Montr\u00e9al QC H1Y 1W9",
                        "locality": "Montreal",
                        "postcode": "H1Y 1W9",
                        "region": "QC"
                  },
                  "name": "Le Pok\u00e9 Station",
                  "popularity": 0.8739236373959122
            },
            {
                  "distance": 396,
                  "location": {
                        "address": "2931 Masson Rue",
                        "country": "CA",
                        "cross_street": "",
                        "formatted_address": "2931 Masson Rue, Montr\u00e9al QC H1Y 1X5",
                        "locality": "Montreal",
                        "postcode": "H1Y 1X5",
                        "region": "QC"
                  },
                  "name": "Elvita's Latin Fusion Cuisine",
                  "popularity": 0.9454721801665406,
                  "price": 2
            },
            {
                  "distance": 454,
                  "location": {
                        "address": "3036 Masson Rue",
                        "country": "CA",
                        "cross_street": "",
                        "formatted_address": "3036 Masson Rue, Montr\u00e9al QC H1Y 1X6",
                        "locality": "Montreal",
                        "postcode": "H1Y 1X6",
                        "region": "QC"
                  },
                  "name": "Joyo Burger",
                  "popularity": 0.9241223504920515,
                  "price": 1
            },
            {
                  "distance": 504,
                  "location": {
                        "address": "5500 Fullum Rue",
                        "address_extended": "Suite 105",
                        "country": "CA",
                        "cross_street": "",
                        "formatted_address": "5500 Fullum Rue, Montr\u00e9al QC H2G 2H3",
                        "locality": "Montreal",
                        "postcode": "H2G 2H3",
                        "region": "QC"
                  },
                  "name": "Kittel Compagnie de Caf\u00e9",
                  "popularity": 0.044816900075700224,
                  "price": 1
            },
            {
                  "distance": 519,
                  "location": {
                        "address": "3127 Masson Rue",
                        "country": "CA",
                        "cross_street": "",
                        "formatted_address": "3127 Masson Rue, Montr\u00e9al QC H1Y 1X9",
                        "locality": "Montreal",
                        "postcode": "H1Y 1X9",
                        "region": "QC"
                  },
                  "name": "Mojito & Margarita",
                  "popularity": 0.880429125662377,
                  "price": 1
            },
            {
                  "distance": 525,
                  "location": {
                        "address": "3135 Masson Rue",
                        "country": "CA",
                        "cross_street": "",
                        "formatted_address": "3135 Masson Rue, Montr\u00e9al QC H1Y 1X9",
                        "locality": "Montreal",
                        "postcode": "H1Y 1X9",
                        "region": "QC"
                  },
                  "name": "Billy Buck",
                  "popularity": 0.30010408781226344,
                  "price": 1
            },
            {
                  "distance": 542,
                  "location": {
                        "address": "3150 Masson Rue",
                        "country": "CA",
                        "cross_street": "coin 9e avenue",
                        "formatted_address": "3150 Masson Rue (coin 9e avenue), Montr\u00e9al QC H1Y 1Y1",
                        "locality": "Montreal",
                        "postcode": "H1Y 1Y1",
                        "region": "QC"
                  },
                  "name": "Restaurant Basha",
                  "popularity": 0.9222298448145344,
                  "price": 1
            },
            {
                  "distance": 680,
                  "location": {
                        "address": "3244 Masson Rue",
                        "country": "CA",
                        "cross_street": "",
                        "formatted_address": "3244 Masson Rue, Montr\u00e9al QC H1Y 1Y3",
                        "locality": "Montreal",
                        "postcode": "H1Y 1Y3",
                        "region": "QC"
                  },
                  "name": "A&W Restaurant",
                  "popularity": 0.9042273845571537,
                  "price": 1,
                  "store_id": "5903"
            },
            {
                  "distance": 703,
                  "location": {
                        "address": "3251 Masson Rue",
                        "country": "CA",
                        "cross_street": "Coin boulevard Saint-Michel",
                        "formatted_address": "3251 Masson Rue (Coin boulevard Saint-Michel), Montr\u00e9al QC H1X 1R3",
                        "locality": "Montreal",
                        "postcode": "H1X 1R3",
                        "region": "QC"
                  },
                  "name": "Bar Monaco",
                  "popularity": 0.6515069076457229,
                  "price": 2
            },
            {
                  "distance": 723,
                  "location": {
                        "address": "4600 Molson Rue",
                        "country": "CA",
                        "cross_street": "",
                        "formatted_address": "4600 Molson Rue, Montr\u00e9al QC H1Y 0A3",
                        "locality": "Montreal",
                        "postcode": "H1Y 0A3",
                        "region": "QC"
                  },
                  "name": "Mito Sushi",
                  "popularity": 0.625981737320212,
                  "price": 2
            },
            {
                  "distance": 810,
                  "location": {
                        "address": "2100 Laurier Ave E",
                        "country": "CA",
                        "cross_street": "DeLorimier",
                        "formatted_address": "2100 Laurier Ave E (DeLorimier), Montr\u00e9al QC H2H 1B9",
                        "locality": "Montreal",
                        "postcode": "H2H 1B9",
                        "region": "QC"
                  },
                  "name": "Laurier Deli",
                  "popularity": 0.8912164080242241,
                  "price": 1
            },
            {
                  "distance": 891,
                  "location": {
                        "address": "2055 Laurier Ave E",
                        "country": "CA",
                        "cross_street": "De Lorimier",
                        "formatted_address": "2055 Laurier Ave E (De Lorimier), Montr\u00e9al QC H2H 1B8",
                        "locality": "Montreal",
                        "postcode": "H2H 1B8",
                        "region": "QC"
                  },
                  "name": "Dans la Gueule du Loup",
                  "popularity": 0.9511615253595761,
                  "price": 1
            },
            {
                  "distance": 902,
                  "location": {
                        "address": "5477 Chabot Rue",
                        "country": "CA",
                        "cross_street": "",
                        "formatted_address": "5477 Chabot Rue, Montr\u00e9al QC H2H 1Z1",
                        "locality": "Montreal",
                        "postcode": "H2H 1Z1",
                        "region": "QC"
                  },
                  "name": "Maison Chabot",
                  "popularity": 0.9506765707797123,
                  "price": 1
            },
            {
                  "distance": 905,
                  "location": {
                        "address": "3224 Rosemont Blvd",
                        "country": "CA",
                        "cross_street": "",
                        "formatted_address": "3224 Rosemont Blvd, Montr\u00e9al QC H1Y 1M7",
                        "locality": "Montreal",
                        "postcode": "H1Y 1M7",
                        "region": "QC"
                  },
                  "name": "Poulet 3 Pattes",
                  "popularity": 0.8786430734292203,
                  "price": 2
            },
            {
                  "distance": 990,
                  "location": {
                        "address": "2300 Ave du Mont-Royal Est",
                        "country": "CA",
                        "cross_street": "Fullum",
                        "formatted_address": "2300 Ave du Mont-Royal Est (Fullum), Montr\u00e9al QC H2H 1K8",
                        "locality": "Montreal",
                        "postcode": "H2H 1K8",
                        "region": "QC"
                  },
                  "name": "Le Viet Sandwich",
                  "popularity": 0.8731074943224829,
                  "price": 2
            },
            {
                  "distance": 998,
                  "location": {
                        "address": "2600 William-Tremblay Rue",
                        "country": "CA",
                        "cross_street": "",
                        "formatted_address": "2600 William-Tremblay Rue, Montr\u00e9al QC H1Y 3J2",
                        "locality": "Montreal",
                        "postcode": "H1Y 3J2",
                        "region": "QC"
                  },
                  "name": "Station W",
                  "popularity": 0.9345902725208176,
                  "price": 1
            },
            {
                  "distance": 999,
                  "location": {
                        "address": "5866 Ave de Lorimier",
                        "country": "CA",
                        "cross_street": "",
                        "formatted_address": "5866 Ave de Lorimier, Montr\u00e9al QC H2G 2N9",
                        "locality": "Montreal",
                        "postcode": "H2G 2N9",
                        "region": "QC"
                  },
                  "name": "180G",
                  "popularity": 0.8939368849356548,
                  "price": 1
            },
            {
                  "distance": 1524,
                  "location": {
                        "address": "2862 Rosemont Blvd",
                        "country": "CA",
                        "cross_street": "5e Avenue",
                        "formatted_address": "2862 Rosemont Blvd (5e Avenue), Montr\u00e9al QC H1Y 1L7",
                        "locality": "Montreal",
                        "postcode": "H1Y 1L7",
                        "region": "QC"
                  },
                  "name": "O Fuzion",
                  "popularity": 0.09026069265707796,
                  "price": 2
            }
      ],
      "context": {
            "geo_bounds": {
                  "circle": {
                        "center": {
                              "latitude": 45.5451997,
                              "longitude": -73.57645065
                        },
                        "radius": 1000
                  }
            }
      }
}