{
      "results": [
            {
                  "distance": 854,
                  "location": {
                        "address": "1001 Jean-Talon Rue O",
                        "country": "CA",
                        "cross_street": "at Birnam",
                        "formatted_address": "1001 Jean-Talon Rue O (at Birnam), Montr\u00e9al QC H3N 1T2",
                        "locality": "Montreal",
                        "postcode": "H3N 1T2",
                        "region": "QC"
                  },
                  "name": "Restaurant Bombay Mahal",
                  "popularity": 0.9612864307342922,
                  "price": 2,
                  "rating": 8.6
            },
            {
                  "distance": 866,
                  "location": {
                        "address": "996 Jean-Talon Rue O",
                        "country": "CA",
                        "cross_street": "Brinam",
                        "formatted_address": "996 Jean-Talon Rue O (Brinam), Montr\u00e9al QC H3N 1S8",
                        "locality": "Montreal",
                        "postcode": "H3N 1S8",
                        "region": "QC"
                  },
                  "name": "Indian Curry House",
                  "popularity": 0.9859244890234671,
                  "price": 1,
                  "rating": 8.1
            },
            {
                  "distance": 878,
                  "location": {
                        "address": "1464 Van Horne Ave",
                        "country": "CA",
                        "cross_street": "entre Stuart & Dollard",
                        "formatted_address": "1464 Van Horne Ave (entre Stuart & Dollard), Outremont QC H2V 1L2",
                        "locality": "Outremont",
                        "postcode": "H2V 1L2",
                        "region": "QC"
                  },
                  "name": "Paltoquet",
                  "popularity": 0.9282503785011355,
                  "price": 1,
                  "rating": 8.0
            },
            {
                  "distance": 925,
                  "location": {
                        "address": "920 Jean-Talon Rue O",
                        "country": "CA",
                        "cross_street": "",
                        "formatted_address": "920 Jean-Talon Rue O, Montr\u00e9al QC H3N 1S6",
                        "locality": "Montreal",
                        "postcode": "H3N 1S6",
                        "region": "QC"
                  },
                  "name": "Punjab Palace",
                  "popularity": 0.9633563588190764,
                  "price": 2,
                  "rating": 7.8
            },
            {
                  "distance": 514,
                  "location": {
                        "address": "1248 Beaumont Ave",
                        "country": "CA",
                        "formatted_address": "1248 Beaumont Ave, Montr\u00e9al QC H3P 3E5",
                        "locality": "Montreal",
                        "postcode": "H3P 3E5",
                        "region": "QC"
                  },
                  "name": "Sushi Plus",
                  "popularity": 0.956247634367903,
                  "price": 2,
                  "rating": 7.7
            },
            {
                  "distance": 815,
                  "location": {
                        "address": "1024 Jean Talon Rue W",
                        "country": "CA",
                        "cross_street": "coin De l'Acadie",
                        "formatted_address": "1024 Jean Talon Rue W (coin De l'Acadie), Montr\u00e9al QC H3N 1T1",
                        "locality": "Montreal",
                        "postcode": "H3N 1T1",
                        "region": "QC"
                  },
                  "name": "Flavours of India",
                  "popularity": 0.9423377176381529,
                  "price": 2,
                  "rating": 7.4
            },
            {
                  "distance": 824,
                  "location": {
                        "address": "2707 Van Horne Ave",
                        "address_extended": "# 2615",
                        "country": "CA",
                        "cross_street": "",
                        "formatted_address": "2707 Van Horne Ave, Montr\u00e9al QC H3S 1P6",
                        "locality": "Montreal",
                        "postcode": "H3S 1P6",
                        "region": "QC"
                  },
                  "name": "Subway",
                  "popularity": 0.8892056207418623,
                  "price": 1,
                  "rating": 6.4
            },
            {
                  "distance": 896,
                  "location": {
                        "address": "1452 Van Horne Ave",
                        "country": "CA",
                        "cross_street": "coin av. Stuart",
                        "formatted_address": "1452 Van Horne Ave (coin av. Stuart), Outremont QC H2V 1L2",
                        "locality": "Outremont",
                        "postcode": "H2V 1L2",
                        "region": "QC"
                  },
                  "name": "Subway",
                  "popularity": 0.32512064723694173,
                  "price": 1,
                  "rating": 6.2,
                  "store_id": "41805"
            },
            {
                  "distance": 806,
                  "location": {
                        "address": "1505 Van Horne Ave",
                        "country": "CA",
                        "cross_street": "Dollard",
                        "formatted_address": "1505 Van Horne Ave (Dollard), Outremont QC H2V 1L4",
                        "locality": "Outremont",
                        "postcode": "H2V 1L4",
                        "region": "QC"
                  },
                  "name": "Van Horne Pizzeria",
                  "popularity": 0.8809850492051476,
                  "price": 1,
                  "rating": 5.0
            },
            {
                  "distance": 392,
                  "location": {
                        "address": "1300 Beaumont Ave",
                        "country": "CA",
                        "formatted_address": "1300 Beaumont Ave, Montr\u00e9al QC H3P 3E5",
                        "locality": "Montreal",
                        "postcode": "H3P 3E5",
                        "region": "QC"
                  },
                  "name": "McDonald's",
                  "popularity": 0.9923708364875095,
                  "price": 1,
                  "rating": 4.8,
                  "store_id": "5095"
            },
            {
                  "distance": 423,
                  "location": {
                        "address": "250 Graham Blvd",
                        "country": "CA",
                        "cross_street": "",
                        "formatted_address": "250 Graham Blvd, Mont-Royal QC H3P 2C5",
                        "locality": "Mont-Royal",
                        "postcode": "H3P 2C5",
                        "region": "QC"
                  },
                  "name": "Domino's Pizza",
                  "popularity": 0.9223954390613172,
                  "price": 1,
                  "store_id": "10650"
            },
            {
                  "distance": 719,
                  "location": {
                        "address": "1100 Beaumont Ave",
                        "country": "CA",
                        "cross_street": "Acadie",
                        "formatted_address": "1100 Beaumont Ave (Acadie), Montr\u00e9al QC H3P 3H5",
                        "locality": "Montreal",
                        "postcode": "H3P 3H5",
                        "region": "QC"
                  },
                  "name": "Cartier Caf\u00e9 BIstro",
                  "popularity": 0.9433076267978804,
                  "price": 1
            },
            {
                  "distance": 753,
                  "location": {
                        "address": "1541 Van Horne Ave",
                        "country": "CA",
                        "cross_street": "Av McEachran",
                        "formatted_address": "1541 Van Horne Ave (Av McEachran), Montr\u00e9al QC H2V 1L4",
                        "locality": "Montreal",
                        "postcode": "H2V 1L4",
                        "region": "QC"
                  },
                  "name": "Roch le Coq",
                  "popularity": 0.9616531037093111,
                  "price": 1
            },
            {
                  "distance": 773,
                  "location": {
                        "address": "1541 Van Horne",
                        "country": "CA",
                        "cross_street": "",
                        "formatted_address": "1541 Van Horne, Montreal QC H3S 2T5",
                        "locality": "Montreal",
                        "postcode": "H3S 2T5",
                        "region": "QC"
                  },
                  "name": "Pendeli's",
                  "popularity": 0.6617500946252839,
                  "price": 1
            },
            {
                  "distance": 873,
                  "location": {
                        "address": "1461 Van Horne Ave",
                        "country": "CA",
                        "cross_street": "",
                        "formatted_address": "1461 Van Horne Ave, Montr\u00e9al QC H2V 1L3",
                        "locality": "Montreal",
                        "postcode": "H2V 1L3",
                        "region": "QC"
                  },
                  "name": "Caf\u00e9 DAX",
                  "popularity": 0.9622090272520818,
                  "price": 1
            },
            {
                  "distance": 876,
                  "location": {
                        "address": "950 Beaumont Ave",
                        "address_extended": "Suite 105",
                        "country": "CA",
                        "cross_street": "L'Acadie Boulevard",
                        "formatted_address": "950 Beaumont Ave (L'Acadie Boulevard), Montr\u00e9al QC H3N 1V5",
                        "locality": "Montreal",
                        "postcode": "H3N 1V5",
                        "region": "QC"
                  },
                  "name": "Beau Mont",
                  "popularity": 0.9565433383800152,
                  "price": 3
            },
            {
                  "distance": 889,
                  "location": {
                        "address": "1453 Van Horne Ave",
                        "country": "CA",
                        "formatted_address": "1453 Van Horne Ave, Montr\u00e9al QC H2V 1L3",
                        "locality": "Montreal",
                        "postcode": "H2V 1L3",
                        "region": "QC"
                  },
                  "name": "Double Pizza",
                  "popularity": 0.876916161998486,
                  "price": 1
            },
            {
                  "distance": 892,
                  "location": {
                        "address": "975 Jean-Talon Rue O",
                        "country": "CA",
                        "cross_street": "",
                        "formatted_address": "975 Jean-Talon Rue O, Montr\u00e9al QC H3N 1S9",
                        "locality": "Montreal",
                        "postcode": "H3N 1S9",
                        "region": "QC"
                  },
                  "name": "Punjab Sweet",
                  "popularity": 0.9590154239212718,
                  "price": 2
            },
            {
                  "distance": 914,
                  "location": {
                        "address": "931 Jean Talon Rue W",
                        "country": "CA",
                        "cross_street": "Stuart",
                        "formatted_address": "931 Jean Talon Rue W (Stuart), Montr\u00e9al QC H3N 1S9",
                        "locality": "Montreal",
                        "postcode": "H3N 1S9",
                        "region": "QC"
                  },
                  "name": "Cafe C Central",
                  "popularity": 0.20640140045420136,
                  "price": 1
            },
            {
                  "distance": 964,
                  "location": {
                        "address": "901 Jean-Talon Rue O",
                        "country": "CA",
                        "formatted_address": "901 Jean-Talon Rue O, Montr\u00e9al QC H3N 1S7",
                        "locality": "Montreal",
                        "postcode": "H3N 1S7",
                        "region": "QC"
                  },
                  "name": "Miss Jean Talon Restaurant",
                  "popularity": 0.8740300908402725,
                  "price": 2
            },
            {
                  "distance": 424,
                  "location": {
                        "address": "246 Graham Blvd",
                        "country": "CA",
                        "formatted_address": "246 Graham Blvd, Mont-Royal QC H3P 2C5",
                        "locality": "Mont-Royal",
                        "postcode": "H3P 2C5",
                        "region": "QC"
                  },
                  "name": "Dagwoods Sandwichs et Salades"
            },
            {
                  "distance": 553,
                  "location": {
                        "address": "1244 Beaumont Ave",
                        "country": "CA",
                        "formatted_address": "1244 Beaumont Ave, Mont-Royal QC H3P 3E5",
                        "locality": "Mont-Royal",
                        "postcode": "H3P 3E5",
                        "region": "QC"
                  },
                  "name": "Cage Aux Sports"
            },
            {
                  "distance": 703,
                  "location": {
                        "address": "779 Rockland Ave",
                        "country": "CA",
                        "formatted_address": "779 Rockland Ave, Outremont QC H2V 2Z7",
                        "locality": "Outremont",
                        "postcode": "H2V 2Z7",
                        "region": "QC"
                  },
                  "name": "Les Vraies Affaires"
            },
            {
                  "distance": 704,
                  "location": {
                        "address": "1589 Van Horne Ave",
                        "country": "CA",
                        "formatted_address": "1589 Van Horne Ave, Outremont QC H2V 1L6",
                        "locality": "Outremont",
                        "postcode": "H2V 1L6",
                        "region": "QC"
                  },
                  "name": "BIOBAB Mini March\u00e9"
            },
            {
                  "distance": 712,
                  "location": {
                        "address": "2720 Pl de Darlington",
                        "country": "CA",
                        "formatted_address": "2720 Pl de Darlington, Montreal QC H3S 1L5",
                        "locality": "Montreal",
                        "postcode": "H3S 1L5",
                        "region": "QC"
                  },
                  "name": "Joaquin's Cigar Lounge"
            },
            {
                  "distance": 825,
                  "location": {
                        "address": "1016 Jean-Talon Rue O",
                        "country": "CA",
                        "formatted_address": "1016 Jean-Talon Rue O, Montreal QC H3N 1T1",
                        "locality": "Montreal",
                        "postcode": "H3N 1T1",
                        "region": "QC"
                  },
                  "name": "Ram Sweet Shop"
            },
            {
                  "distance": 840,
                  "location": {
                        "address": "6685 Ave de Darlington",
                        "country": "CA",
                        "formatted_address": "6685 Ave de Darlington, Montreal QC H3S 2J6",
                        "locality": "Montreal",
                        "postcode": "H3S 2J6",
                        "region": "QC"
                  },
                  "name": "Boulangerie Sindidab"
            },
            {
                  "distance": 901,
                  "location": {
                        "address": "868 Beaumont Ave",
                        "country": "CA",
                        "formatted_address": "868 Beaumont Ave, Montreal QC H3N 1V5",
                        "locality": "Montreal",
                        "postcode": "H3N 1V5",
                        "region": "QC"
                  },
                  "name": "Milos Restaurant"
            },
            {
                  "distance": 965,
                  "location": {
                        "address": "885 Jean",
                        "country": "CA",
                        "formatted_address": "885 Jean, Montreal QC H2Y 1C6",
                        "locality": "Montreal",
                        "postcode": "H2Y 1C6",
                        "region": "QC"
                  },
                  "name": "Sparta cafe"
            },
            {
                  "distance": 965,
                  "location": {
                        "address": "880 Jean-Talon Rue O",
                        "country": "CA",
                        "formatted_address": "880 Jean-Talon Rue O, Montreal QC H3N 1S6",
                        "locality": "Montreal",
                        "postcode": "H3N 1S6",
                        "region": "QC"
                  },
                  "name": "Nouveau Caf\u00e9 Cozmos Inc"
            },
            {
                  "distance": 969,
                  "location": {
                        "address": "991 Ogilvy Ave",
                        "country": "CA",
                        "formatted_address": "991 Ogilvy Ave, Montreal QC H3N 1P3",
                        "locality": "Montreal",
                        "postcode": "H3N 1P3",
                        "region": "QC"
                  },
                  "name": "Taverne Portara"
            },
            {
                  "distance": 972,
                  "location": {
                        "address": "885 Jean-Talon Rue O",
                        "country": "CA",
                        "formatted_address": "885 Jean-Talon Rue O, Montreal QC H3N 1S7",
                        "locality": "Montreal",
                        "postcode": "H3N 1S7",
                        "region": "QC"
                  },
                  "name": "Sparta Cafe Billiard"
            },
            {
                  "distance": 999,
                  "location": {
                        "address": "1368 Van Horne Ave",
                        "country": "CA",
                        "formatted_address": "1368 Van Horne Ave, Outremont QC H2V 1K8",
                        "locality": "Outremont",
                        "postcode": "H2V 1K8",
                        "region": "QC"
                  },
                  "name": "Sushi Time"
            }
      ],
      "context": {
            "geo_bounds": {
                  "circle": {
                        "center": {
                              "latitude": 45.51694782,
                              "longitude": -73.62631559
                        },
                        "radius": 1000
                  }
            }
      }
}