{
      "results": [
            {
                  "distance": 953,
                  "location": {
                        "address": "190 Cremazie Blvd E",
                        "country": "CA",
                        "cross_street": "",
                        "formatted_address": "190 Cremazie Blvd E, Montr\u00e9al QC H2P 1E2",
                        "locality": "Montreal",
                        "postcode": "H2P 1E2",
                        "region": "QC"
                  },
                  "name": "Starbucks",
                  "popularity": 0.9921934140802422,
                  "price": 1,
                  "rating": 8.1,
                  "store_id": "1009058"
            },
            {
                  "distance": 565,
                  "location": {
                        "address": "8870 Lajeunesse Rue",
                        "country": "CA",
                        "cross_street": "Ave Emile-Journault",
                        "formatted_address": "8870 Lajeunesse Rue (Ave Emile-Journault), Montr\u00e9al QC H2M 1R6",
                        "locality": "Montreal",
                        "postcode": "H2M 1R6",
                        "region": "QC"
                  },
                  "name": "Auberge du Dragon Rouge",
                  "popularity": 0.9823760408781226,
                  "price": 2,
                  "rating": 8.0
            },
            {
                  "distance": 894,
                  "location": {
                        "address": "755 Cremazie Blvd E",
                        "country": "CA",
                        "cross_street": "Chateaubriand",
                        "formatted_address": "755 Cremazie Blvd E (Chateaubriand), Montr\u00e9al QC H2M 1M1",
                        "locality": "Montreal",
                        "postcode": "H2M 1M1",
                        "region": "QC"
                  },
                  "name": "Patate Rouge",
                  "popularity": 0.9723812452687358,
                  "price": 1,
                  "rating": 7.7
            },
            {
                  "distance": 284,
                  "location": {
                        "address": "9481 Lajeunesse Rue",
                        "country": "CA",
                        "cross_street": "coin Louvain",
                        "formatted_address": "9481 Lajeunesse Rue (coin Louvain), Montr\u00e9al QC H2M 1S5",
                        "locality": "Montreal",
                        "postcode": "H2M 1S5",
                        "region": "QC"
                  },
                  "name": "Martini Pizzeria",
                  "popularity": 0.9776211203633611,
                  "price": 1,
                  "rating": 6.8
            },
            {
                  "distance": 720,
                  "location": {
                        "address": "8779 Lajeunesse Rue",
                        "country": "CA",
                        "cross_street": "at boul. Cr\u00e9mazie E",
                        "formatted_address": "8779 Lajeunesse Rue (at boul. Cr\u00e9mazie E), Montr\u00e9al QC H2M 1R7",
                        "locality": "Montreal",
                        "postcode": "H2M 1R7",
                        "region": "QC"
                  },
                  "name": "Sushi Naniyori",
                  "popularity": 0.8812452687358062,
                  "price": 2,
                  "rating": 6.6
            },
            {
                  "distance": 904,
                  "location": {
                        "address": "9720 St Laurent Blvd",
                        "country": "CA",
                        "cross_street": "Port-Royal",
                        "formatted_address": "9720 St Laurent Blvd (Port-Royal), Montr\u00e9al QC H3L 2N3",
                        "locality": "Montreal",
                        "postcode": "H3L 2N3",
                        "region": "QC"
                  },
                  "name": "Subway",
                  "popularity": 0.9250212906888721,
                  "price": 1,
                  "rating": 6.6,
                  "store_id": "Restaurant #29723"
            },
            {
                  "distance": 756,
                  "location": {
                        "address": "8753 Lajeunesse Rue",
                        "country": "CA",
                        "cross_street": "Cr\u00e9mazie",
                        "formatted_address": "8753 Lajeunesse Rue (Cr\u00e9mazie), Montr\u00e9al QC H2M 1R7",
                        "locality": "Montreal",
                        "postcode": "H2M 1R7",
                        "region": "QC"
                  },
                  "name": "Brasserie du M\u00e9tro",
                  "popularity": 0.9003004352763059,
                  "price": 1,
                  "rating": 6.5
            },
            {
                  "distance": 965,
                  "location": {
                        "address": "8780 St-Laurent Blvd",
                        "address_extended": "Unit 3A",
                        "country": "CA",
                        "cross_street": "",
                        "formatted_address": "8780 St-Laurent Blvd, Montr\u00e9al QC H2N 1M4",
                        "locality": "Montreal",
                        "postcode": "H2N 1M4",
                        "region": "QC"
                  },
                  "name": "Subway",
                  "popularity": 0.11242666540499621,
                  "price": 1,
                  "rating": 6.2,
                  "store_id": "#21498"
            },
            {
                  "distance": 661,
                  "location": {
                        "address": "9485 St Laurent Blvd",
                        "country": "CA",
                        "cross_street": "Chabanel West",
                        "formatted_address": "9485 St Laurent Blvd (Chabanel West), Montr\u00e9al QC H2N 1P6",
                        "locality": "Montreal",
                        "postcode": "H2N 1P6",
                        "region": "QC"
                  },
                  "name": "Tim Hortons",
                  "popularity": 0.9955880961392884,
                  "price": 1,
                  "rating": 5.7
            },
            {
                  "distance": 808,
                  "location": {
                        "address": "545 Cremazie Blvd E",
                        "country": "CA",
                        "cross_street": "coin Lajeunesse",
                        "formatted_address": "545 Cremazie Blvd E (coin Lajeunesse), Montr\u00e9al QC H2M 2V1",
                        "locality": "Montreal",
                        "postcode": "H2M 2V1",
                        "region": "QC"
                  },
                  "name": "Van Houtte",
                  "popularity": 0.9684424678274035,
                  "price": 1,
                  "rating": 5.5
            },
            {
                  "distance": 249,
                  "location": {
                        "address": "9100 Lajeunesse Rue",
                        "country": "CA",
                        "cross_street": "Legendre",
                        "formatted_address": "9100 Lajeunesse Rue (Legendre), Montr\u00e9al QC",
                        "locality": "Montreal",
                        "region": "QC"
                  },
                  "name": "Ono Sushi",
                  "popularity": 0.9068295798637396,
                  "price": 2
            },
            {
                  "distance": 345,
                  "location": {
                        "address": "769 Legendre Rue E",
                        "country": "CA",
                        "cross_street": "Rue Saint-Hubert",
                        "formatted_address": "769 Legendre Rue E (Rue Saint-Hubert), Montr\u00e9al QC H2M 1H1",
                        "locality": "Montreal",
                        "postcode": "H2M 1H1",
                        "region": "QC"
                  },
                  "name": "Casa Cr\u00e9ole Inc",
                  "popularity": 0.3330336866010598,
                  "price": 2
            },
            {
                  "distance": 352,
                  "location": {
                        "address": "795 Legendre Rue E",
                        "country": "CA",
                        "cross_street": "",
                        "formatted_address": "795 Legendre Rue E, Montr\u00e9al QC H2M 1H1",
                        "locality": "Montreal",
                        "postcode": "H2M 1H1",
                        "region": "QC"
                  },
                  "name": "Boulangerie P\u00e2tisserie C Chaud",
                  "popularity": 0.1991625662376987,
                  "price": 2
            },
            {
                  "distance": 533,
                  "location": {
                        "address": "8899 Berri Rue",
                        "country": "CA",
                        "cross_street": "",
                        "formatted_address": "8899 Berri Rue, Montr\u00e9al QC H2M 1P5",
                        "locality": "Montreal",
                        "postcode": "H2M 1P5",
                        "region": "QC"
                  },
                  "name": "Tasty",
                  "popularity": 0.9246309613928841,
                  "price": 1
            },
            {
                  "distance": 733,
                  "location": {
                        "address": "8762 Lajeunesse Rue",
                        "country": "CA",
                        "formatted_address": "8762 Lajeunesse Rue, Montr\u00e9al QC H2M 1R6",
                        "locality": "Montreal",
                        "postcode": "H2M 1R6",
                        "region": "QC"
                  },
                  "name": "Restaurant Da Remo",
                  "popularity": 0.14357021196063588
            },
            {
                  "distance": 766,
                  "location": {
                        "address": "75 de Port Royal Est",
                        "country": "CA",
                        "formatted_address": "75 de Port Royal Est, Montr\u00e9al QC H3L 3T1",
                        "locality": "Montreal",
                        "postcode": "H3L 3T1",
                        "region": "QC"
                  },
                  "name": "Cultures",
                  "popularity": 0.0521030469341408,
                  "price": 1
            },
            {
                  "distance": 814,
                  "location": {
                        "address": "1001 Sauve Rue E",
                        "country": "CA",
                        "cross_street": "Saint-Hubert",
                        "formatted_address": "1001 Sauve Rue E (Saint-Hubert), Montr\u00e9al QC",
                        "locality": "Montreal",
                        "region": "QC"
                  },
                  "name": "Casse-Croute March\u00e9 d'Or",
                  "popularity": 0.09350160862982589,
                  "price": 1
            },
            {
                  "distance": 844,
                  "location": {
                        "address": "9705 Saint-Laurent Blvd",
                        "country": "CA",
                        "cross_street": "Boulevard Saint-Laurent",
                        "formatted_address": "9705 Saint-Laurent Blvd (Boulevard Saint-Laurent), Montr\u00e9al QC H3L 2N4",
                        "locality": "Montreal",
                        "postcode": "H3L 2N4",
                        "region": "QC"
                  },
                  "name": "Domino's Pizza",
                  "popularity": 0.9154759651778955,
                  "price": 1
            },
            {
                  "distance": 893,
                  "location": {
                        "address": "8820 Saint-Laurent Blvd",
                        "country": "CA",
                        "formatted_address": "8820 Saint-Laurent Blvd, Montr\u00e9al QC H2N 1M4",
                        "locality": "Montreal",
                        "postcode": "H2N 1M4",
                        "region": "QC"
                  },
                  "name": "Le Bar Salon Solid Gold Inc",
                  "popularity": 0.945188304314913,
                  "price": 3
            },
            {
                  "distance": 956,
                  "location": {
                        "address": "8780 St-Laurent Blvd",
                        "country": "CA",
                        "cross_street": "",
                        "formatted_address": "8780 St-Laurent Blvd, Montr\u00e9al QC H2N 1M4",
                        "locality": "Montreal",
                        "postcode": "H2N 1M4",
                        "region": "QC"
                  },
                  "name": "Thai Express",
                  "popularity": 0.5878595760787282,
                  "price": 2
            },
            {
                  "distance": 982,
                  "location": {
                        "address": "8780 Saint-Laurent Blvd",
                        "address_extended": "Suite 6",
                        "country": "CA",
                        "cross_street": "",
                        "formatted_address": "8780 Saint-Laurent Blvd, Montr\u00e9al QC H2N 1M4",
                        "locality": "Montreal",
                        "postcode": "H2N 1M4",
                        "region": "QC"
                  },
                  "name": "R\u00f4tisserie Scores",
                  "popularity": 0.6160933951551855,
                  "price": 2,
                  "store_id": "SC_35"
            },
            {
                  "distance": 130,
                  "location": {
                        "address": "9183 Lajeunesse Rue",
                        "country": "CA",
                        "formatted_address": "9183 Lajeunesse Rue, Montreal QC H2M 1S3",
                        "locality": "Montreal",
                        "postcode": "H2M 1S3",
                        "region": "QC"
                  },
                  "name": "Bistro Lajeunesse Inc"
            },
            {
                  "distance": 193,
                  "location": {
                        "address": "410 Chabanel Rue O",
                        "country": "CA",
                        "formatted_address": "410 Chabanel Rue O, Montreal QC H2N 1G7",
                        "locality": "Montreal",
                        "postcode": "H2N 1G7",
                        "region": "QC"
                  },
                  "name": "Fashion Bistro"
            },
            {
                  "distance": 373,
                  "location": {
                        "address": "8998 Lajeunesse Rue",
                        "country": "CA",
                        "formatted_address": "8998 Lajeunesse Rue, Montreal QC H2M 1R9",
                        "locality": "Montreal",
                        "postcode": "H2M 1R9",
                        "region": "QC"
                  },
                  "name": "Resto Bar Don Mario"
            },
            {
                  "distance": 734,
                  "location": {
                        "address": "850 Sauve Rue E",
                        "country": "CA",
                        "formatted_address": "850 Sauve Rue E, Montreal QC H2C 1Z2",
                        "locality": "Montreal",
                        "postcode": "H2C 1Z2",
                        "region": "QC"
                  },
                  "name": "Allee Sushi"
            },
            {
                  "distance": 824,
                  "location": {
                        "address": "8899 Saint-Laurent Blvd",
                        "country": "CA",
                        "formatted_address": "8899 Saint-Laurent Blvd, Montreal QC H2N 1M2",
                        "locality": "Montreal",
                        "postcode": "H2N 1M2",
                        "region": "QC"
                  },
                  "name": "Resto Bar Beauharnois"
            },
            {
                  "distance": 837,
                  "location": {
                        "address": "9705 St Laurent Blvd",
                        "country": "CA",
                        "formatted_address": "9705 St Laurent Blvd, Montreal QC H3L 2N4",
                        "locality": "Montreal",
                        "postcode": "H3L 2N4",
                        "region": "QC"
                  },
                  "name": "Domino's"
            },
            {
                  "distance": 880,
                  "location": {
                        "address": "9700 Saint-Laurent Blvd",
                        "country": "CA",
                        "formatted_address": "9700 Saint-Laurent Blvd, Montreal QC H3L 2N3",
                        "locality": "Montreal",
                        "postcode": "H3L 2N3",
                        "region": "QC"
                  },
                  "name": "Chez Noura"
            },
            {
                  "distance": 893,
                  "location": {
                        "address": "11 rue de Port-Royal Ouest",
                        "country": "CA",
                        "formatted_address": "11 rue de Port-Royal Ouest, Montreal QC H3L 2A5",
                        "locality": "Montreal",
                        "postcode": "H3L 2A5",
                        "region": "QC"
                  },
                  "name": "Domino's Pizza"
            },
            {
                  "distance": 941,
                  "location": {
                        "address": "8780 Saint-Laurent Blvd",
                        "country": "CA",
                        "formatted_address": "8780 Saint-Laurent Blvd, Montreal QC H2N 1M4",
                        "locality": "Montreal",
                        "postcode": "H2N 1M4",
                        "region": "QC"
                  },
                  "name": "Restaurant Baccha"
            },
            {
                  "distance": 964,
                  "location": {
                        "address": "8780 Saint-Laurent Blvd",
                        "country": "CA",
                        "formatted_address": "8780 Saint-Laurent Blvd, Montreal QC",
                        "locality": "Montreal",
                        "region": "QC"
                  },
                  "name": "Thai Express - Cr\u00e9mazie"
            },
            {
                  "distance": 964,
                  "location": {
                        "address": "111 Chabanel St O W",
                        "address_extended": "Suite 101",
                        "country": "CA",
                        "formatted_address": "111 Chabanel St O W, Montreal QC H2N 1C9",
                        "locality": "Montreal",
                        "postcode": "H2N 1C9",
                        "region": "QC"
                  },
                  "name": "Coats Bell Inc"
            },
            {
                  "distance": 993,
                  "location": {
                        "address": "8591 Saint-Denis Rue",
                        "country": "CA",
                        "formatted_address": "8591 Saint-Denis Rue, Montreal QC H2P 2H4",
                        "locality": "Montreal",
                        "postcode": "H2P 2H4",
                        "region": "QC"
                  },
                  "name": "Damsar Inc"
            },
            {
                  "distance": 996,
                  "location": {
                        "address": "150 Chabanel Rue O",
                        "country": "CA",
                        "formatted_address": "150 Chabanel Rue O, Montreal QC H2N 1G1",
                        "locality": "Montreal",
                        "postcode": "H2N 1G1",
                        "region": "QC"
                  },
                  "name": "P\u00e2tisserie Bistro Dolce & Compagnie"
            }
      ],
      "context": {
            "geo_bounds": {
                  "circle": {
                        "center": {
                              "latitude": 45.54986843,
                              "longitude": -73.64765659
                        },
                        "radius": 1000
                  }
            }
      }
}