{
      "results": [
            {
                  "distance": 650,
                  "location": {
                        "address": "4328 Saint-Laurent Blvd",
                        "country": "CA",
                        "cross_street": "Marie-Anne",
                        "formatted_address": "4328 Saint-Laurent Blvd (Marie-Anne), Montr\u00e9al QC H2W 1Z3",
                        "locality": "Montreal",
                        "postcode": "H2W 1Z3",
                        "region": "QC"
                  },
                  "name": "Darling",
                  "popularity": 0.9573358251324754,
                  "price": 3,
                  "rating": 9.2
            },
            {
                  "distance": 877,
                  "location": {
                        "address": "322 Ave du Mont-Royal Est",
                        "country": "CA",
                        "cross_street": "coin Drolet",
                        "formatted_address": "322 Ave du Mont-Royal Est (coin Drolet), Montr\u00e9al QC H2T 1P7",
                        "locality": "Montreal",
                        "postcode": "H2T 1P7",
                        "region": "QC"
                  },
                  "name": "Au Kouign-Amann",
                  "popularity": 0.9501206472369417,
                  "price": 2,
                  "rating": 9.2
            },
            {
                  "distance": 903,
                  "location": {
                        "address": "124 Saint- Viateur Rue O",
                        "country": "CA",
                        "cross_street": "coin Waverly",
                        "formatted_address": "124 Saint- Viateur Rue O (coin Waverly), Montr\u00e9al QC H2T 2L1",
                        "locality": "Montreal",
                        "postcode": "H2T 2L1",
                        "region": "QC"
                  },
                  "name": "Caf\u00e9 Olimpico",
                  "popularity": 0.9736468584405753,
                  "price": 1,
                  "rating": 9.2
            },
            {
                  "distance": 667,
                  "location": {
                        "address": "9 Fairmount Ave E",
                        "country": "CA",
                        "cross_street": "coin Fairmount",
                        "formatted_address": "9 Fairmount Ave E (coin Fairmount), Montr\u00e9al QC H2T 1C7",
                        "locality": "Montreal",
                        "postcode": "H2T 1C7",
                        "region": "QC"
                  },
                  "name": "Larry's",
                  "popularity": 0.9267955147615443,
                  "price": 2,
                  "rating": 9.2
            },
            {
                  "distance": 881,
                  "location": {
                        "address": "263 Saint- Viateur Rue O",
                        "country": "CA",
                        "cross_street": "entre Jeanne-Mance & du Parc",
                        "formatted_address": "263 Saint- Viateur Rue O (entre Jeanne-Mance & du Parc), Montr\u00e9al QC H2V 1Y1",
                        "locality": "Montreal",
                        "postcode": "H2V 1Y1",
                        "region": "QC"
                  },
                  "name": "St-Viateur Bagel",
                  "popularity": 0.9821986184708554,
                  "price": 1,
                  "rating": 9.1
            },
            {
                  "distance": 738,
                  "location": {
                        "address": "5357 Ave du Parc",
                        "country": "CA",
                        "cross_street": "entre St-Viateur & Fairmount",
                        "formatted_address": "5357 Ave du Parc (entre St-Viateur & Fairmount), Montr\u00e9al QC H2V 4G9",
                        "locality": "Montreal",
                        "postcode": "H2V 4G9",
                        "region": "QC"
                  },
                  "name": "Milos Restaurant",
                  "popularity": 0.9470098410295231,
                  "price": 4,
                  "rating": 9.1
            },
            {
                  "distance": 771,
                  "location": {
                        "address": "77 Rachel Rue O",
                        "country": "CA",
                        "cross_street": "entre Clark & St-Urbain",
                        "formatted_address": "77 Rachel Rue O (entre Clark & St-Urbain), Montr\u00e9al QC H2W 1G2",
                        "locality": "Montreal",
                        "postcode": "H2W 1G2",
                        "region": "QC"
                  },
                  "name": "Noren \u306e\u308c\u3093",
                  "popularity": 0.9153103709311128,
                  "price": 2,
                  "rating": 9.1
            },
            {
                  "distance": 942,
                  "location": {
                        "address": "4627 Saint-Denis Rue",
                        "country": "CA",
                        "cross_street": "",
                        "formatted_address": "4627 Saint-Denis Rue, Montr\u00e9al QC H2J 2L4",
                        "locality": "Montreal",
                        "postcode": "H2J 2L4",
                        "region": "QC"
                  },
                  "name": "Caf\u00e9 Myriade - le Plateau",
                  "popularity": 0.9432603141559425,
                  "price": 1,
                  "rating": 9.1
            },
            {
                  "distance": 923,
                  "location": {
                        "address": "4690 Saint-Denis Rue",
                        "country": "CA",
                        "formatted_address": "4690 Saint-Denis Rue, Montr\u00e9al QC H2J 2L3",
                        "locality": "Montreal",
                        "postcode": "H2J 2L3",
                        "region": "QC"
                  },
                  "name": "Ouzeri",
                  "popularity": 0.9096801665404997,
                  "price": 2,
                  "rating": 9.0
            },
            {
                  "distance": 431,
                  "location": {
                        "address": "4631 Saint-Laurent Blvd",
                        "country": "CA",
                        "cross_street": "entre Mont-Royal & Villeneuve",
                        "formatted_address": "4631 Saint-Laurent Blvd (entre Mont-Royal & Villeneuve), Montr\u00e9al QC H2T 1R2",
                        "locality": "Montreal",
                        "postcode": "H2T 1R2",
                        "region": "QC"
                  },
                  "name": "Aux Vivres",
                  "popularity": 0.9429054693414081,
                  "price": 2,
                  "rating": 9.0
            },
            {
                  "distance": 934,
                  "location": {
                        "address": "151 Rachel Rue E",
                        "country": "CA",
                        "cross_street": "coin De Bullion",
                        "formatted_address": "151 Rachel Rue E (coin De Bullion), Montr\u00e9al QC H2W 1E1",
                        "locality": "Montreal",
                        "postcode": "H2W 1E1",
                        "region": "QC"
                  },
                  "name": "Caf\u00e9 N\u00e9v\u00e9",
                  "popularity": 0.9299654617713853,
                  "price": 2,
                  "rating": 9.0
            },
            {
                  "distance": 961,
                  "location": {
                        "address": "3990 Saint-Urbain Rue",
                        "country": "CA",
                        "cross_street": "coin Duluth",
                        "formatted_address": "3990 Saint-Urbain Rue (coin Duluth), Montr\u00e9al QC H2W 1T7",
                        "locality": "Montreal",
                        "postcode": "H2W 1T7",
                        "region": "QC"
                  },
                  "name": "Caf\u00e9 Santropol",
                  "popularity": 0.9517529333838002,
                  "price": 2,
                  "rating": 8.9
            },
            {
                  "distance": 937,
                  "location": {
                        "address": "4105 Saint-Laurent Blvd",
                        "country": "CA",
                        "cross_street": "",
                        "formatted_address": "4105 Saint-Laurent Blvd, Montr\u00e9al QC H2W 1Y7",
                        "locality": "Montreal",
                        "postcode": "H2W 1Y7",
                        "region": "QC"
                  },
                  "name": "Le Majestique",
                  "popularity": 0.9523443414080243,
                  "price": 2,
                  "rating": 8.9
            },
            {
                  "distance": 832,
                  "location": {
                        "address": "4177 Saint-Laurent Blvd",
                        "country": "CA",
                        "cross_street": "coin Rachel",
                        "formatted_address": "4177 Saint-Laurent Blvd (coin Rachel), Montr\u00e9al QC H2W 1Y7",
                        "locality": "Montreal",
                        "postcode": "H2W 1Y7",
                        "region": "QC"
                  },
                  "name": "Patati Patata Friterie de Luxe",
                  "popularity": 0.9553960068130204,
                  "price": 2,
                  "rating": 8.8
            },
            {
                  "distance": 478,
                  "location": {
                        "address": "4524 Saint-Laurent Blvd",
                        "country": "CA",
                        "cross_street": "coin Mont-Royal",
                        "formatted_address": "4524 Saint-Laurent Blvd (coin Mont-Royal), Montr\u00e9al QC H2T 1R3",
                        "locality": "Montreal",
                        "postcode": "H2T 1R3",
                        "region": "QC"
                  },
                  "name": "Hof Kelsten",
                  "popularity": 0.9274578917486752,
                  "price": 2,
                  "rating": 8.8
            },
            {
                  "distance": 932,
                  "location": {
                        "address": "54 Saint-Viateur Rue O",
                        "country": "CA",
                        "cross_street": "",
                        "formatted_address": "54 Saint-Viateur Rue O, Montr\u00e9al QC H2T 2K8",
                        "locality": "Montreal",
                        "postcode": "H2T 2K8",
                        "region": "QC"
                  },
                  "name": "Falafel Yoni",
                  "popularity": 0.9097038228614686,
                  "price": 1,
                  "rating": 8.6
            },
            {
                  "distance": 340,
                  "location": {
                        "address": "123 Ave du Mont-Royal O",
                        "country": "CA",
                        "cross_street": "",
                        "formatted_address": "123 Ave du Mont-Royal O, Montr\u00e9al QC H2T 2S9",
                        "locality": "Montreal",
                        "postcode": "H2T 2S9",
                        "region": "QC"
                  },
                  "name": "Paquebot Mont-Royal",
                  "popularity": 0.9561411809235427,
                  "price": 1,
                  "rating": 8.6
            },
            {
                  "distance": 431,
                  "location": {
                        "address": "4653 Saint-Laurent Blvd",
                        "country": "CA",
                        "cross_street": "angle Villeneuve",
                        "formatted_address": "4653 Saint-Laurent Blvd (angle Villeneuve), Montr\u00e9al QC H2T 1R2",
                        "locality": "Montreal",
                        "postcode": "H2T 1R2",
                        "region": "QC"
                  },
                  "name": "Robin des Bois",
                  "popularity": 0.8559093489780469,
                  "price": 1,
                  "rating": 8.6
            },
            {
                  "distance": 944,
                  "location": {
                        "address": "52 Saint-Viateur Rue O",
                        "country": "CA",
                        "cross_street": "",
                        "formatted_address": "52 Saint-Viateur Rue O, Montr\u00e9al QC H2T 2K8",
                        "locality": "Montreal",
                        "postcode": "H2T 2K8",
                        "region": "QC"
                  },
                  "name": "Bishop & Bagg",
                  "popularity": 0.9365064345193036,
                  "price": 2,
                  "rating": 8.6
            },
            {
                  "distance": 495,
                  "location": {
                        "address": "5200 Hutchison Rue",
                        "country": "CA",
                        "cross_street": "coin Fairmount",
                        "formatted_address": "5200 Hutchison Rue (coin Fairmount), Montr\u00e9al QC H2V 4B3",
                        "locality": "Montreal",
                        "postcode": "H2V 4B3",
                        "region": "QC"
                  },
                  "name": "La Croissanterie Figaro",
                  "popularity": 0.9416398561695685,
                  "price": 1,
                  "rating": 8.6
            },
            {
                  "distance": 552,
                  "location": {
                        "address": "5240 Ave du Parc",
                        "country": "CA",
                        "cross_street": "Fairmount",
                        "formatted_address": "5240 Ave du Parc (Fairmount), Montr\u00e9al QC H2V 4G7",
                        "locality": "Montreal",
                        "postcode": "H2V 4G7",
                        "region": "QC"
                  },
                  "name": "Th\u00e9\u00e2tre Fairmount",
                  "popularity": 0.9877696820590461,
                  "rating": 8.6
            },
            {
                  "distance": 899,
                  "location": {
                        "address": "176 Saint Viateur Rue O",
                        "address_extended": "# 174",
                        "country": "CA",
                        "cross_street": "",
                        "formatted_address": "176 Saint Viateur Rue O, Montr\u00e9al QC H2T 2L3",
                        "locality": "Montreal",
                        "postcode": "H2T 2L3",
                        "region": "QC"
                  },
                  "name": "\u00cele Flottante",
                  "popularity": 0.891583080999243,
                  "price": 3,
                  "rating": 8.5
            },
            {
                  "distance": 899,
                  "location": {
                        "address": "351 Ave du Mont-Royal E",
                        "country": "CA",
                        "cross_street": "",
                        "formatted_address": "351 Ave du Mont-Royal E, Montr\u00e9al QC H2T 1R1",
                        "locality": "Montreal",
                        "postcode": "H2T 1R1",
                        "region": "QC"
                  },
                  "name": "Le Toledo",
                  "popularity": 0.9615111657834974,
                  "price": 1,
                  "rating": 8.4
            },
            {
                  "distance": 665,
                  "location": {
                        "address": "5207 Saint-Laurent Blvd",
                        "country": "CA",
                        "cross_street": "",
                        "formatted_address": "5207 Saint-Laurent Blvd, Montr\u00e9al QC H2T 1S4",
                        "locality": "Montreal",
                        "postcode": "H2T 1S4",
                        "region": "QC"
                  },
                  "name": "Tsukuyomi Ramen",
                  "popularity": 0.9078113171839516,
                  "rating": 8.3
            },
            {
                  "distance": 919,
                  "location": {
                        "address": "351 Laurier Ave E",
                        "country": "CA",
                        "cross_street": "coin Drolet",
                        "formatted_address": "351 Laurier Ave E (coin Drolet), Montr\u00e9al QC H2T 1G7",
                        "locality": "Montreal",
                        "postcode": "H2T 1G7",
                        "region": "QC"
                  },
                  "name": "Restaurant Chez Claudette",
                  "popularity": 0.9536454390613172,
                  "price": 1,
                  "rating": 8.3
            },
            {
                  "distance": 579,
                  "location": {
                        "address": "5150 St-Laurent Blvd",
                        "country": "CA",
                        "cross_street": "",
                        "formatted_address": "5150 St-Laurent Blvd, Montr\u00e9al QC H2T 1R8",
                        "locality": "Montreal",
                        "postcode": "H2T 1R8",
                        "region": "QC"
                  },
                  "name": "Cin\u00e9ma Moderne",
                  "popularity": 0.9271267032551098,
                  "price": 1,
                  "rating": 8.3
            },
            {
                  "distance": 887,
                  "location": {
                        "address": "180 Saint- Viateur Rue O",
                        "country": "CA",
                        "cross_street": "angle Esplanade",
                        "formatted_address": "180 Saint- Viateur Rue O (angle Esplanade), Montr\u00e9al QC H2T 2L3",
                        "locality": "Montreal",
                        "postcode": "H2T 2L3",
                        "region": "QC"
                  },
                  "name": "Club Social",
                  "popularity": 0.9385408781226343,
                  "price": 1,
                  "rating": 8.2
            },
            {
                  "distance": 915,
                  "location": {
                        "address": "354 Ave du Mont-Royal Est",
                        "country": "CA",
                        "cross_street": "entre Drolet & St-Denis",
                        "formatted_address": "354 Ave du Mont-Royal Est (entre Drolet & St-Denis), Montr\u00e9al QC H2T 1P9",
                        "locality": "Montreal",
                        "postcode": "H2T 1P9",
                        "region": "QC"
                  },
                  "name": "Bily Kun",
                  "popularity": 0.927327781983346,
                  "price": 2,
                  "rating": 8.2
            },
            {
                  "distance": 386,
                  "location": {
                        "address": "93 Ave du Mont-Royal Ouest",
                        "country": "CA",
                        "cross_street": "coin St-Urbain",
                        "formatted_address": "93 Ave du Mont-Royal Ouest (coin St-Urbain), Montr\u00e9al QC H2T 2S5",
                        "locality": "Montreal",
                        "postcode": "H2T 2S5",
                        "region": "QC"
                  },
                  "name": "Beautys Luncheonette",
                  "popularity": 0.9646929409538229,
                  "price": 2,
                  "rating": 8.1
            },
            {
                  "distance": 592,
                  "location": {
                        "address": "34 Fairmount Ave O",
                        "country": "CA",
                        "cross_street": "coin Clark",
                        "formatted_address": "34 Fairmount Ave O (coin Clark), Montr\u00e9al QC H2T 2M1",
                        "locality": "Montreal",
                        "postcode": "H2T 2M1",
                        "region": "QC"
                  },
                  "name": "Wilensky's Light Lunch",
                  "popularity": 0.9229631907645723,
                  "price": 1,
                  "rating": 8.1
            },
            {
                  "distance": 972,
                  "location": {
                        "address": "5611 Ave du Parc",
                        "country": "CA",
                        "cross_street": "St-Viateur",
                        "formatted_address": "5611 Ave du Parc (St-Viateur), Montr\u00e9al QC H2V 4H2",
                        "locality": "Montreal",
                        "postcode": "H2V 4H2",
                        "region": "QC"
                  },
                  "name": "Ta Chido",
                  "popularity": 0.9069360333080999,
                  "price": 1,
                  "rating": 8.1
            },
            {
                  "distance": 36,
                  "location": {
                        "address": "4806 Ave du Parc",
                        "country": "CA",
                        "cross_street": "",
                        "formatted_address": "4806 Ave du Parc, Montr\u00e9al QC H2V 4E6",
                        "locality": "Montreal",
                        "postcode": "H2V 4E6",
                        "region": "QC"
                  },
                  "name": "Philinos Restaurant Bar",
                  "popularity": 0.9275406888720666,
                  "price": 2,
                  "rating": 8.1
            },
            {
                  "distance": 155,
                  "location": {
                        "address": "4581 Ave du Parc",
                        "country": "CA",
                        "cross_street": "",
                        "formatted_address": "4581 Ave du Parc, Montr\u00e9al QC H2V 4E4",
                        "locality": "Montreal",
                        "postcode": "H2V 4E4",
                        "region": "QC"
                  },
                  "name": "Lola Rosa",
                  "popularity": 0.9120931112793338,
                  "price": 2,
                  "rating": 8.1
            },
            {
                  "distance": 393,
                  "location": {
                        "address": "115 Laurier Ave O",
                        "country": "CA",
                        "cross_street": "entre St-Urbain & De l'Esplanade",
                        "formatted_address": "115 Laurier Ave O (entre St-Urbain & De l'Esplanade), Montr\u00e9al QC H2T 2N6",
                        "locality": "Montreal",
                        "postcode": "H2T 2N6",
                        "region": "QC"
                  },
                  "name": "Bar Henrietta",
                  "popularity": 0.9364591218773657,
                  "price": 2,
                  "rating": 8.1
            },
            {
                  "distance": 515,
                  "location": {
                        "address": "142 Fairmount Ave O",
                        "country": "CA",
                        "cross_street": "",
                        "formatted_address": "142 Fairmount Ave O, Montr\u00e9al QC H2T 2M5",
                        "locality": "Montreal",
                        "postcode": "H2T 2M5",
                        "region": "QC"
                  },
                  "name": "La Khaima",
                  "popularity": 0.9312310749432249,
                  "price": 2,
                  "rating": 8.0
            }
      ],
      "context": {
            "geo_bounds": {
                  "circle": {
                        "center": {
                              "latitude": 45.51829,
                              "longitude": -73.59235
                        },
                        "radius": 1000
                  }
            }
      }
}