{
      "results": [
            {
                  "distance": 579,
                  "location": {
                        "address": "6394 Sherbrooke Rue E",
                        "country": "CA",
                        "cross_street": "",
                        "formatted_address": "6394 Sherbrooke Rue E, Montr\u00e9al QC H1N 3P6",
                        "locality": "Montreal",
                        "postcode": "H1N 3P6",
                        "region": "QC"
                  },
                  "name": "Kazumi",
                  "popularity": 0.9112296555639667,
                  "price": 2,
                  "rating": 7.7
            },
            {
                  "distance": 975,
                  "location": {
                        "address": "6780 Sherbrooke Rue E",
                        "country": "CA",
                        "formatted_address": "6780 Sherbrooke Rue E, Montr\u00e9al QC H1N 1E1",
                        "locality": "Montreal",
                        "postcode": "H1N 1E1",
                        "region": "QC"
                  },
                  "name": "Restaurant Chez Lien",
                  "popularity": 0.9078231453444361,
                  "price": 2,
                  "rating": 7.3
            },
            {
                  "distance": 519,
                  "location": {
                        "address": "6649 rue de Marseille",
                        "country": "CA",
                        "cross_street": "coin Langelier",
                        "formatted_address": "6649 rue de Marseille (coin Langelier), Montr\u00e9al QC H1N 1M1",
                        "locality": "Montreal",
                        "postcode": "H1N 1M1",
                        "region": "QC"
                  },
                  "name": "Vincent Sous-Marins",
                  "popularity": 0.9284396290688872,
                  "price": 1,
                  "rating": 7.2
            },
            {
                  "distance": 693,
                  "location": {
                        "address": "5670 Sherbrooke Rue E",
                        "country": "CA",
                        "cross_street": "",
                        "formatted_address": "5670 Sherbrooke Rue E, Montr\u00e9al QC H1N 1A1",
                        "locality": "Montreal",
                        "postcode": "H1N 1A1",
                        "region": "QC"
                  },
                  "name": "Chez Cora",
                  "popularity": 0.9456732588947767,
                  "price": 1,
                  "rating": 7.2
            },
            {
                  "distance": 850,
                  "location": {
                        "address": "6666 Sherbrooke Rue E",
                        "country": "CA",
                        "formatted_address": "6666 Sherbrooke Rue E, Montr\u00e9al QC H1N 1C9",
                        "locality": "Montreal",
                        "postcode": "H1N 1C9",
                        "region": "QC"
                  },
                  "name": "Nouillesetc",
                  "popularity": 0.9570756056018168,
                  "price": 1,
                  "rating": 6.9
            },
            {
                  "distance": 709,
                  "location": {
                        "address": "5666 Sherbrooke Rue E",
                        "country": "CA",
                        "cross_street": "",
                        "formatted_address": "5666 Sherbrooke Rue E, Montr\u00e9al QC H1N 1A1",
                        "locality": "Montreal",
                        "postcode": "H1N 1A1",
                        "region": "QC"
                  },
                  "name": "Beni Hana Cuisine Japonaise",
                  "popularity": 0.9583885314155942,
                  "price": 2,
                  "rating": 6.5
            },
            {
                  "distance": 594,
                  "location": {
                        "address": "5787 Sherbrooke Rue E",
                        "country": "CA",
                        "cross_street": "at rue Lacordaire",
                        "formatted_address": "5787 Sherbrooke Rue E (at rue Lacordaire), Montr\u00e9al QC H1N 3R5",
                        "locality": "Montreal",
                        "postcode": "H1N 3R5",
                        "region": "QC"
                  },
                  "name": "Casa Grecque",
                  "popularity": 0.9753146290688872,
                  "price": 2,
                  "rating": 6.5
            },
            {
                  "distance": 747,
                  "location": {
                        "address": "6583 Sherbrooke Rue E",
                        "country": "CA",
                        "formatted_address": "6583 Sherbrooke Rue E, Montr\u00e9al QC H1N 1C5",
                        "locality": "Montreal",
                        "postcode": "H1N 1C5",
                        "region": "QC"
                  },
                  "name": "Restaurant Pacini",
                  "popularity": 0.9377365632096897,
                  "price": 2,
                  "rating": 6.4
            },
            {
                  "distance": 555,
                  "location": {
                        "address": "6361 Sherbrooke Rue E",
                        "country": "CA",
                        "cross_street": "",
                        "formatted_address": "6361 Sherbrooke Rue E, Montr\u00e9al QC H1N 1C4",
                        "locality": "Montreal",
                        "postcode": "H1N 1C4",
                        "region": "QC"
                  },
                  "name": "Restaurant le Gout de Thailand",
                  "popularity": 0.8454414269492808,
                  "price": 2,
                  "rating": 6.3
            },
            {
                  "distance": 505,
                  "location": {
                        "address": "6225 Sherbrooke Rue E",
                        "country": "CA",
                        "cross_street": "",
                        "formatted_address": "6225 Sherbrooke Rue E, Montr\u00e9al QC H1N 1C3",
                        "locality": "Montreal",
                        "postcode": "H1N 1C3",
                        "region": "QC"
                  },
                  "name": "R\u00f4tisserie St-Hubert",
                  "popularity": 0.9696371120363361,
                  "price": 2,
                  "rating": 6.2,
                  "store_id": "100090"
            },
            {
                  "distance": 583,
                  "location": {
                        "address": "6355 Sherbrooke St E",
                        "country": "CA",
                        "cross_street": "coin Carignan",
                        "formatted_address": "6355 Sherbrooke St E (coin Carignan), Montr\u00e9al QC H1N 1C4",
                        "locality": "Montreal",
                        "postcode": "H1N 1C4",
                        "region": "QC"
                  },
                  "name": "Subway",
                  "popularity": 0.9711984292202877,
                  "price": 1,
                  "rating": 6.2,
                  "store_id": "16551"
            },
            {
                  "distance": 884,
                  "location": {
                        "address": "6765 Hochelaga Rue",
                        "country": "CA",
                        "cross_street": "Langelier",
                        "formatted_address": "6765 Hochelaga Rue (Langelier), Montr\u00e9al QC H1N 1Y2",
                        "locality": "Montreal",
                        "postcode": "H1N 1Y2",
                        "region": "QC"
                  },
                  "name": "Tim Hortons",
                  "popularity": 0.9929859008327026,
                  "price": 1,
                  "rating": 6.1
            },
            {
                  "distance": 946,
                  "location": {
                        "address": "5460 Sherbrooke Rue O",
                        "country": "CA",
                        "cross_street": "L'Assomption",
                        "formatted_address": "5460 Sherbrooke Rue O (L'Assomption), Montr\u00e9al QC H4A 1V9",
                        "locality": "Montreal",
                        "postcode": "H4A 1V9",
                        "region": "QC"
                  },
                  "name": "Au Vieux Duluth",
                  "popularity": 0.8967519871309614,
                  "price": 2,
                  "rating": 5.9
            },
            {
                  "distance": 666,
                  "location": {
                        "address": "3065 Ave de Granby",
                        "country": "CA",
                        "cross_street": "",
                        "formatted_address": "3065 Ave de Granby, Montr\u00e9al QC H1N 2Z7",
                        "locality": "Montreal",
                        "postcode": "H1N 2Z7",
                        "region": "QC"
                  },
                  "name": "Tim Hortons",
                  "popularity": 0.9168835162755489,
                  "price": 1,
                  "rating": 5.9
            },
            {
                  "distance": 436,
                  "location": {
                        "address": "5900 Sherbrooke Rue E",
                        "country": "CA",
                        "cross_street": "coin Bossuet",
                        "formatted_address": "5900 Sherbrooke Rue E (coin Bossuet), Montr\u00e9al QC H1N 1B5",
                        "locality": "Montreal",
                        "postcode": "H1N 1B5",
                        "region": "QC"
                  },
                  "name": "Tim Hortons",
                  "popularity": 0.9798329863739591,
                  "price": 1,
                  "rating": 5.9
            },
            {
                  "distance": 620,
                  "location": {
                        "address": "6415 Sherbrooke Rue E",
                        "country": "CA",
                        "cross_street": "coin De Granby",
                        "formatted_address": "6415 Sherbrooke Rue E (coin De Granby), Montr\u00e9al QC H1N 1C5",
                        "locality": "Montreal",
                        "postcode": "H1N 1C5",
                        "region": "QC"
                  },
                  "name": "McDonald's",
                  "popularity": 0.991672975018925,
                  "price": 1,
                  "rating": 5.4,
                  "store_id": "2253"
            },
            {
                  "distance": 510,
                  "location": {
                        "address": "6348 Sherbrooke Rue E",
                        "country": "CA",
                        "cross_street": "De Carignan",
                        "formatted_address": "6348 Sherbrooke Rue E (De Carignan), Montr\u00e9al QC H1N 3P6",
                        "locality": "Montreal",
                        "postcode": "H1N 3P6",
                        "region": "QC"
                  },
                  "name": "Burger King",
                  "popularity": 0.9755393641180924,
                  "price": 1,
                  "rating": 5.3,
                  "store_id": "1886"
            },
            {
                  "distance": 123,
                  "location": {
                        "address": "6371 Sherbrooke Rue E",
                        "country": "CA",
                        "cross_street": "",
                        "formatted_address": "6371 Sherbrooke Rue E, Montr\u00e9al QC H1N 1C4",
                        "locality": "Montreal",
                        "postcode": "H1N 1C4",
                        "region": "QC"
                  },
                  "name": "Sherbrooke Pizza",
                  "popularity": 0.9260030280090841,
                  "price": 1
            },
            {
                  "distance": 378,
                  "location": {
                        "address": "6666 Rue de Marseille",
                        "country": "CA",
                        "cross_street": "langelier",
                        "formatted_address": "6666 Rue de Marseille (langelier), Montr\u00e9al QC H1N 1M3",
                        "locality": "Montreal",
                        "postcode": "H1N 1M3",
                        "region": "QC"
                  },
                  "name": "New Milano",
                  "popularity": 0.9698618470855412,
                  "price": 2
            },
            {
                  "distance": 402,
                  "location": {
                        "address": "6060 Sherbrooke Rue E",
                        "country": "CA",
                        "cross_street": "Duquesne",
                        "formatted_address": "6060 Sherbrooke Rue E (Duquesne), Montr\u00e9al QC H1N 1C1",
                        "locality": "Montreal",
                        "postcode": "H1N 1C1",
                        "region": "QC"
                  },
                  "name": "Globe Caf\u00e9 Bistro",
                  "popularity": 0.8291185654806964,
                  "price": 2
            },
            {
                  "distance": 447,
                  "location": {
                        "address": "5960 Sherbrooke Rue E",
                        "country": "CA",
                        "cross_street": "",
                        "formatted_address": "5960 Sherbrooke Rue E, Montreal QC H1N 1B8",
                        "locality": "Montreal",
                        "postcode": "H1N 1B8",
                        "region": "QC"
                  },
                  "name": "Genki Sushi",
                  "popularity": 0.10825132475397427,
                  "price": 2
            },
            {
                  "distance": 511,
                  "location": {
                        "address": "5849 Sherbrooke Rue E",
                        "country": "CA",
                        "cross_street": "",
                        "formatted_address": "5849 Sherbrooke Rue E, Montr\u00e9al QC H1N 1B6",
                        "locality": "Montreal",
                        "postcode": "H1N 1B6",
                        "region": "QC"
                  },
                  "name": "Restaurant Chez O",
                  "popularity": 0.9108866389099167,
                  "price": 2
            },
            {
                  "distance": 518,
                  "location": {
                        "address": "5843 Sherbrooke Rue E",
                        "country": "CA",
                        "cross_street": "",
                        "formatted_address": "5843 Sherbrooke Rue E, Montreal QC H1N 1B3",
                        "locality": "Montreal",
                        "postcode": "H1N 1B3",
                        "region": "QC"
                  },
                  "name": "Sushi Chef",
                  "popularity": 0.9343891937925813,
                  "price": 2
            },
            {
                  "distance": 535,
                  "location": {
                        "address": "6325 Sherbrooke Rue E",
                        "country": "CA",
                        "formatted_address": "6325 Sherbrooke Rue E, Montr\u00e9al QC H1N 1C3",
                        "locality": "Montreal",
                        "postcode": "H1N 1C3",
                        "region": "QC"
                  },
                  "name": "Bar El Cid",
                  "popularity": 0.9127909727479182
            },
            {
                  "distance": 540,
                  "location": {
                        "address": "5865 Hochelaga Rue",
                        "country": "CA",
                        "cross_street": "Louis-Veuillot",
                        "formatted_address": "5865 Hochelaga Rue (Louis-Veuillot), Montr\u00e9al QC H1N 1X2",
                        "locality": "Montreal",
                        "postcode": "H1N 1X2",
                        "region": "QC"
                  },
                  "name": "Soupe and Roll",
                  "popularity": 0.9531841408024224,
                  "price": 2
            },
            {
                  "distance": 545,
                  "location": {
                        "address": "6366 Sherbrooke Rue E",
                        "country": "CA",
                        "cross_street": "",
                        "formatted_address": "6366 Sherbrooke Rue E, Montr\u00e9al QC H1N 3P6",
                        "locality": "Montreal",
                        "postcode": "H1N 3P6",
                        "region": "QC"
                  },
                  "name": "Boustan",
                  "popularity": 0.8367950416351249,
                  "price": 2
            },
            {
                  "distance": 555,
                  "location": {
                        "address": "6018 Hochelaga Rue",
                        "country": "CA",
                        "cross_street": "",
                        "formatted_address": "6018 Hochelaga Rue, Montr\u00e9al QC H1N 1X6",
                        "locality": "Montreal",
                        "postcode": "H1N 1X6",
                        "region": "QC"
                  },
                  "name": "Bar 3 Barils",
                  "popularity": 0.6373604277062831,
                  "price": 1
            },
            {
                  "distance": 558,
                  "location": {
                        "address": "6343 Sherbrooke Rue E",
                        "country": "CA",
                        "cross_street": "",
                        "formatted_address": "6343 Sherbrooke Rue E, Montr\u00e9al QC H1N 1C3",
                        "locality": "Montreal",
                        "postcode": "H1N 1C3",
                        "region": "QC"
                  },
                  "name": "Ronde 1 Sushi",
                  "popularity": 0.868293433005299,
                  "price": 2
            },
            {
                  "distance": 585,
                  "location": {
                        "address": "6395 Sherbrooke Rue E",
                        "country": "CA",
                        "cross_street": "",
                        "formatted_address": "6395 Sherbrooke Rue E, Montr\u00e9al QC H1N 1C4",
                        "locality": "Montreal",
                        "postcode": "H1N 1C4",
                        "region": "QC"
                  },
                  "name": "La Belle Province",
                  "popularity": 0.9417463096139288,
                  "price": 1
            },
            {
                  "distance": 623,
                  "location": {
                        "address": "3365 Ave de Granby",
                        "country": "CA",
                        "cross_street": "Sherbrooke",
                        "formatted_address": "3365 Ave de Granby (Sherbrooke), Montr\u00e9al QC H1N 2Z7",
                        "locality": "Montreal",
                        "postcode": "H1N 2Z7",
                        "region": "QC"
                  },
                  "name": "Paulos",
                  "popularity": 0.9388602384557153,
                  "price": 2
            },
            {
                  "distance": 659,
                  "location": {
                        "address": "3175 Ave de Granby",
                        "address_extended": "Bureau 14",
                        "country": "CA",
                        "cross_street": "Btw rue de Marseille & Faribault",
                        "formatted_address": "3175 Ave de Granby (Btw rue de Marseille & Faribault), Montr\u00e9al QC H1N 2Z7",
                        "locality": "Montreal",
                        "postcode": "H1N 2Z7",
                        "region": "QC"
                  },
                  "name": "Aurora Brasserie",
                  "popularity": 0.9075747539742619,
                  "price": 3
            },
            {
                  "distance": 670,
                  "location": {
                        "address": "6365 Sherbrooke Rue E",
                        "country": "CA",
                        "cross_street": "",
                        "formatted_address": "6365 Sherbrooke Rue E, Montr\u00e9al QC H1N 1C4",
                        "locality": "Montreal",
                        "postcode": "H1N 1C4",
                        "region": "QC"
                  },
                  "name": "Sake Sushi Express",
                  "popularity": 0.8375638720666162,
                  "price": 2
            },
            {
                  "distance": 699,
                  "location": {
                        "address": "5660 Sherbrooke Rue E",
                        "country": "CA",
                        "cross_street": "Dickson",
                        "formatted_address": "5660 Sherbrooke Rue E (Dickson), Montr\u00e9al QC H1N 1A1",
                        "locality": "Montreal",
                        "postcode": "H1N 1A1",
                        "region": "QC"
                  },
                  "name": "Enoteca Monza Pizzeria Moderna",
                  "popularity": 0.9203373391370174,
                  "price": 2
            },
            {
                  "distance": 707,
                  "location": {
                        "address": "6001 rue de Jumonville",
                        "country": "CA",
                        "cross_street": "",
                        "formatted_address": "6001 rue de Jumonville, Montr\u00e9al QC H1M 1R5",
                        "locality": "Montreal",
                        "postcode": "H1M 1R5",
                        "region": "QC"
                  },
                  "name": "Restaurant le Saint-Jacques",
                  "popularity": 0.8955573429220288,
                  "price": 2
            },
            {
                  "distance": 817,
                  "location": {
                        "address": "6737 Rue de Marseille",
                        "country": "CA",
                        "formatted_address": "6737 Rue de Marseille, Montr\u00e9al QC H1N 1M4",
                        "locality": "Montreal",
                        "postcode": "H1N 1M4",
                        "region": "QC"
                  },
                  "name": "Cremerie Mix",
                  "popularity": 0.8993896669190008,
                  "price": 1
            }
      ],
      "context": {
            "geo_bounds": {
                  "circle": {
                        "center": {
                              "latitude": 45.57581236,
                              "longitude": -73.54123056
                        },
                        "radius": 1000
                  }
            }
      }
}