{
      "results": [
            {
                  "distance": 895,
                  "location": {
                        "address": "9797 Papineau Ave",
                        "country": "CA",
                        "cross_street": "coin Sauv\u00e9",
                        "formatted_address": "9797 Papineau Ave (coin Sauv\u00e9), Montr\u00e9al QC H2B 1Z5",
                        "locality": "Montreal",
                        "postcode": "H2B 1Z5",
                        "region": "QC"
                  },
                  "name": "McDonald's",
                  "popularity": 0.9969128501135504,
                  "price": 1,
                  "rating": 5.1,
                  "store_id": "40167"
            },
            {
                  "distance": 496,
                  "location": {
                        "address": "2639 Charland Ave",
                        "country": "CA",
                        "cross_street": "",
                        "formatted_address": "2639 Charland Ave, Montreal QC H1Z 1C7",
                        "locality": "Montreal",
                        "postcode": "H1Z 1C7",
                        "region": "QC"
                  },
                  "name": "Andr\u00e9amise",
                  "popularity": 0.5353070590461771,
                  "price": 2
            },
            {
                  "distance": 501,
                  "location": {
                        "address": "9509 Ave de Lorimier",
                        "country": "CA",
                        "cross_street": "",
                        "formatted_address": "9509 Ave de Lorimier, Montr\u00e9al QC H1Z 2M8",
                        "locality": "Montreal",
                        "postcode": "H1Z 2M8",
                        "region": "QC"
                  },
                  "name": "Restaurant Chez Marie",
                  "popularity": 0.8299465367146102,
                  "price": 2
            },
            {
                  "distance": 616,
                  "location": {
                        "address": "9289 Saint-Michel Blvd",
                        "country": "CA",
                        "cross_street": "",
                        "formatted_address": "9289 Saint-Michel Blvd, Montreal QC H1Z 3G7",
                        "locality": "Montreal",
                        "postcode": "H1Z 3G7",
                        "region": "QC"
                  },
                  "name": "Restaurant Merengue",
                  "popularity": 0.20279381150643452,
                  "price": 2
            },
            {
                  "distance": 662,
                  "location": {
                        "address": "9482 Saint-Michel Blvd",
                        "country": "CA",
                        "cross_street": "Charland",
                        "formatted_address": "9482 Saint-Michel Blvd (Charland), Montr\u00e9al QC H1Z 3H2",
                        "locality": "Montreal",
                        "postcode": "H1Z 3H2",
                        "region": "QC"
                  },
                  "name": "Grill N Go",
                  "popularity": 0.9747468773656321,
                  "price": 2
            },
            {
                  "distance": 698,
                  "location": {
                        "address": "9086 Saint-Michel Blvd",
                        "country": "CA",
                        "cross_street": "",
                        "formatted_address": "9086 Saint-Michel Blvd, Montr\u00e9al QC H1Z 3G5",
                        "locality": "Montreal",
                        "postcode": "H1Z 3G5",
                        "region": "QC"
                  },
                  "name": "Restaurant Escape",
                  "popularity": 0.1013436790310371,
                  "price": 2
            },
            {
                  "distance": 779,
                  "location": {
                        "address": "9700 Saint-Michel Blvd",
                        "country": "CA",
                        "cross_street": "",
                        "formatted_address": "9700 Saint-Michel Blvd, Montr\u00e9al QC H1H 5G6",
                        "locality": "Montreal",
                        "postcode": "H1H 5G6",
                        "region": "QC"
                  },
                  "name": "Osteria Pranzo",
                  "popularity": 0.3297691143073429,
                  "price": 2
            },
            {
                  "distance": 964,
                  "location": {
                        "address": "Desserte Sud Aut 440 Ouest",
                        "country": "CA",
                        "cross_street": "le Carrefour",
                        "formatted_address": "Desserte Sud Aut 440 Ouest (le Carrefour), Laval QC H7T 2H6",
                        "locality": "Laval",
                        "postcode": "H7T 2H6",
                        "region": "QC"
                  },
                  "name": "Broadway Cheesecake Co",
                  "popularity": 0.45649602573807724,
                  "price": 1
            },
            {
                  "distance": 223,
                  "location": {
                        "address": "9237 d'Iberville Rue",
                        "country": "CA",
                        "formatted_address": "9237 d'Iberville Rue, Montreal QC H1Z 2R3",
                        "locality": "Montreal",
                        "postcode": "H1Z 2R3",
                        "region": "QC"
                  },
                  "name": "Resto Bar Patchek"
            },
            {
                  "distance": 290,
                  "location": {
                        "address": "2330 Charland Ave",
                        "country": "CA",
                        "formatted_address": "2330 Charland Ave, Montreal QC H1Z 1B7",
                        "locality": "Montreal",
                        "postcode": "H1Z 1B7",
                        "region": "QC"
                  },
                  "name": "Restaurant Chez Ti-Blanc"
            },
            {
                  "distance": 319,
                  "location": {
                        "address": "2347 Charland Ave",
                        "country": "CA",
                        "formatted_address": "2347 Charland Ave, Montreal QC H1Z 1B8",
                        "locality": "Montreal",
                        "postcode": "H1Z 1B8",
                        "region": "QC"
                  },
                  "name": "Cafe Bistro Charland"
            },
            {
                  "distance": 320,
                  "location": {
                        "address": "2347 Charland Ave",
                        "country": "CA",
                        "formatted_address": "2347 Charland Ave, Montreal QC H1Z 1B8",
                        "locality": "Montreal",
                        "postcode": "H1Z 1B8",
                        "region": "QC"
                  },
                  "name": "Cafe Bistro"
            },
            {
                  "distance": 321,
                  "location": {
                        "address": "2347 Charland Ave",
                        "country": "CA",
                        "formatted_address": "2347 Charland Ave, Montreal QC H1Z 1B8",
                        "locality": "Montreal",
                        "postcode": "H1Z 1B8",
                        "region": "QC"
                  },
                  "name": "Restaurant Cafe Bistro"
            },
            {
                  "distance": 338,
                  "location": {
                        "address": "2275 Charland Ave",
                        "country": "CA",
                        "formatted_address": "2275 Charland Ave, Montreal QC H1Z 1B5",
                        "locality": "Montreal",
                        "postcode": "H1Z 1B5",
                        "region": "QC"
                  },
                  "name": "Boulangerie et Patisserie Romina"
            },
            {
                  "distance": 498,
                  "location": {
                        "address": "9099 d'Iberville Rue",
                        "country": "CA",
                        "formatted_address": "9099 d'Iberville Rue, Montreal QC H1Z 2R2",
                        "locality": "Montreal",
                        "postcode": "H1Z 2R2",
                        "region": "QC"
                  },
                  "name": "Boulangerie Island Organix"
            },
            {
                  "distance": 512,
                  "location": {
                        "address": "2720 Legendre Rue E",
                        "country": "CA",
                        "formatted_address": "2720 Legendre Rue E, Montreal QC H1Z 1N4",
                        "locality": "Montreal",
                        "postcode": "H1Z 1N4",
                        "region": "QC"
                  },
                  "name": "Produits Maia"
            },
            {
                  "distance": 548,
                  "location": {
                        "address": "2430 Sauve Rue E",
                        "country": "CA",
                        "formatted_address": "2430 Sauve Rue E, Montreal QC H2B 1B7",
                        "locality": "Montreal",
                        "postcode": "H2B 1B7",
                        "region": "QC"
                  },
                  "name": "Cremerie Douceur d Ete"
            },
            {
                  "distance": 562,
                  "location": {
                        "address": "2790 Charland Ave",
                        "country": "CA",
                        "formatted_address": "2790 Charland Ave, Montreal QC H1Z 1C9",
                        "locality": "Montreal",
                        "postcode": "H1Z 1C9",
                        "region": "QC"
                  },
                  "name": "Cafe Larose"
            },
            {
                  "distance": 628,
                  "location": {
                        "address": "9289 Saint-Michel Blvd",
                        "country": "CA",
                        "formatted_address": "9289 Saint-Michel Blvd, Montreal QC H1Z 3G7",
                        "locality": "Montreal",
                        "postcode": "H1Z 3G7",
                        "region": "QC"
                  },
                  "name": "Chinito Veloz"
            },
            {
                  "distance": 652,
                  "location": {
                        "address": "9211 Saint-Michel Blvd",
                        "country": "CA",
                        "formatted_address": "9211 Saint-Michel Blvd, Montreal QC H1Z 3G6",
                        "locality": "Montreal",
                        "postcode": "H1Z 3G6",
                        "region": "QC"
                  },
                  "name": "Rebecca Pizza"
            },
            {
                  "distance": 663,
                  "location": {
                        "address": "9482 Saint-Michel Blvd",
                        "country": "CA",
                        "formatted_address": "9482 Saint-Michel Blvd, Montreal QC",
                        "locality": "Montreal",
                        "region": "QC"
                  },
                  "name": "GrillnGo"
            },
            {
                  "distance": 668,
                  "location": {
                        "address": "9179A Saint-Michel Blvd",
                        "country": "CA",
                        "formatted_address": "9179A Saint-Michel Blvd, Montreal QC H1Z 3G6",
                        "locality": "Montreal",
                        "postcode": "H1Z 3G6",
                        "region": "QC"
                  },
                  "name": "Caf\u00e9 Pub Tropical"
            },
            {
                  "distance": 702,
                  "location": {
                        "address": "9070 Saint-Michel Blvd",
                        "country": "CA",
                        "formatted_address": "9070 Saint-Michel Blvd, Montreal QC H1Z 3G5",
                        "locality": "Montreal",
                        "postcode": "H1Z 3G5",
                        "region": "QC"
                  },
                  "name": "Bar Brandy"
            },
            {
                  "distance": 739,
                  "location": {
                        "address": "9032 Saint-Michel Blvd",
                        "country": "CA",
                        "formatted_address": "9032 Saint-Michel Blvd, Montreal QC H1Z 3G4",
                        "locality": "Montreal",
                        "postcode": "H1Z 3G4",
                        "region": "QC"
                  },
                  "name": "La Belle Haitiana"
            },
            {
                  "distance": 787,
                  "location": {
                        "address": "8982 Saint-Michel Blvd",
                        "country": "CA",
                        "formatted_address": "8982 Saint-Michel Blvd, Montreal QC H1Z 3G4",
                        "locality": "Montreal",
                        "postcode": "H1Z 3G4",
                        "region": "QC"
                  },
                  "name": "Cafe Goccia"
            },
            {
                  "distance": 799,
                  "location": {
                        "address": "9031 Saint Michel Blvd",
                        "country": "CA",
                        "formatted_address": "9031 Saint Michel Blvd, Montreal QC H1Z 3G3",
                        "locality": "Montreal",
                        "postcode": "H1Z 3G3",
                        "region": "QC"
                  },
                  "name": "Pizza Pizza",
                  "store_id": "343"
            },
            {
                  "distance": 868,
                  "location": {
                        "address": "8880 9e Ave",
                        "country": "CA",
                        "formatted_address": "8880 9e Ave, Montreal QC H1Z 3A4",
                        "locality": "Montreal",
                        "postcode": "H1Z 3A4",
                        "region": "QC"
                  },
                  "name": "Club Italo Canadien"
            },
            {
                  "distance": 971,
                  "location": {
                        "address": "8818 Saint-Michel Blvd",
                        "country": "CA",
                        "formatted_address": "8818 Saint-Michel Blvd, Montreal QC H1Z 3G2",
                        "locality": "Montreal",
                        "postcode": "H1Z 3G2",
                        "region": "QC"
                  },
                  "name": "Caf\u00e9 Sins"
            },
            {
                  "distance": 985,
                  "location": {
                        "address": "1799 Sauve Rue E",
                        "country": "CA",
                        "formatted_address": "1799 Sauve Rue E, Montreal QC H2C 3H2",
                        "locality": "Montreal",
                        "postcode": "H2C 3H2",
                        "region": "QC"
                  },
                  "name": "Restaurant Dag"
            }
      ],
      "context": {
            "geo_bounds": {
                  "circle": {
                        "center": {
                              "latitude": 45.56925096,
                              "longitude": -73.63642623
                        },
                        "radius": 1000
                  }
            }
      }
}