{
      "results": [
            {
                  "distance": 581,
                  "location": {
                        "address": "600 Saint-Joseph Blvd",
                        "country": "CA",
                        "cross_street": "",
                        "formatted_address": "600 Saint-Joseph Blvd, Lachine QC H8S 2M1",
                        "locality": "Lachine",
                        "postcode": "H8S 2M1",
                        "region": "QC"
                  },
                  "name": "Restaurant la Strada",
                  "popularity": 0.8477360900832702,
                  "price": 3,
                  "rating": 7.1
            },
            {
                  "distance": 234,
                  "location": {
                        "address": "Lasalle Blvd",
                        "country": "CA",
                        "cross_street": "",
                        "formatted_address": "Lasalle Blvd, Lachine QC",
                        "locality": "Lachine",
                        "region": "QC"
                  },
                  "name": "Dairy Queen",
                  "popularity": 0.8709547691143074,
                  "price": 1,
                  "rating": 6.6
            },
            {
                  "distance": 813,
                  "location": {
                        "address": "601 Notre-Dame Rue",
                        "country": "CA",
                        "cross_street": "6e Avenue",
                        "formatted_address": "601 Notre-Dame Rue (6e Avenue), Lachine QC H8S 2B4",
                        "locality": "Lachine",
                        "postcode": "H8S 2B4",
                        "region": "QC"
                  },
                  "name": "Bardeco",
                  "popularity": 0.9232470666161998,
                  "price": 1
            },
            {
                  "distance": 833,
                  "location": {
                        "address": "1000 Saint-Joseph Blvd",
                        "country": "CA",
                        "cross_street": "10e avenue",
                        "formatted_address": "1000 Saint-Joseph Blvd (10e avenue), Lachine QC H8S 2M6",
                        "locality": "Lachine",
                        "postcode": "H8S 2M6",
                        "region": "QC"
                  },
                  "name": "Pahpatzoa",
                  "popularity": 0.8607352384557153,
                  "price": 1
            },
            {
                  "distance": 950,
                  "location": {
                        "address": "900 Notre-Dame Rue",
                        "country": "CA",
                        "cross_street": "",
                        "formatted_address": "900 Notre-Dame Rue, Lachine QC H8S 2B9",
                        "locality": "Lachine",
                        "postcode": "H8S 2B9",
                        "region": "QC"
                  },
                  "name": "Bar l'H\u00f4tel-de-ville",
                  "popularity": 0.6886000189250567,
                  "price": 1
            },
            {
                  "distance": 983,
                  "location": {
                        "address": "880 Notre-Dame Rue",
                        "country": "CA",
                        "cross_street": "",
                        "formatted_address": "880 Notre-Dame Rue, Lachine QC H8S 2B7",
                        "locality": "Lachine",
                        "postcode": "H8S 2B7",
                        "region": "QC"
                  },
                  "name": "Trans Canada Pizzeria & Submarine",
                  "popularity": 0.32975728614685845,
                  "price": 2
            },
            {
                  "distance": 808,
                  "location": {
                        "address": "580 Notre-Dame Rue",
                        "country": "CA",
                        "formatted_address": "580 Notre-Dame Rue, Lachine QC H8S 2B2",
                        "locality": "Lachine",
                        "postcode": "H8S 2B2",
                        "region": "QC"
                  },
                  "name": "Bar Liqueur"
            },
            {
                  "distance": 812,
                  "location": {
                        "address": "580 Notre-Dame Rue",
                        "country": "CA",
                        "formatted_address": "580 Notre-Dame Rue, Lachine QC H8S 2B2",
                        "locality": "Lachine",
                        "postcode": "H8S 2B2",
                        "region": "QC"
                  },
                  "name": "Bar Western Chez Marcel"
            },
            {
                  "distance": 902,
                  "location": {
                        "address": "825 Notre-Dame Rue",
                        "country": "CA",
                        "formatted_address": "825 Notre-Dame Rue, Lachine QC H8S 2B8",
                        "locality": "Lachine",
                        "postcode": "H8S 2B8",
                        "region": "QC"
                  },
                  "name": "Bistro Lachine"
            },
            {
                  "distance": 902,
                  "location": {
                        "address": "825 Notre-Dame Rue",
                        "country": "CA",
                        "formatted_address": "825 Notre-Dame Rue, Lachine QC H8S 2B8",
                        "locality": "Lachine",
                        "postcode": "H8S 2B8",
                        "region": "QC"
                  },
                  "name": "Le Pub"
            }
      ],
      "context": {
            "geo_bounds": {
                  "circle": {
                        "center": {
                              "latitude": 45.42916697,
                              "longitude": -73.66280973
                        },
                        "radius": 1000
                  }
            }
      }
}