{
      "results": [
            {
                  "distance": 151,
                  "location": {
                        "address": "195 Young Rue",
                        "country": "CA",
                        "cross_street": "entre Ottawa & Wellington",
                        "formatted_address": "195 Young Rue (entre Ottawa & Wellington), Montr\u00e9al QC H3C 2E9",
                        "locality": "Montreal",
                        "postcode": "H3C 2E9",
                        "region": "QC"
                  },
                  "name": "La B\u00eate \u00e0 Pain",
                  "popularity": 0.967153198334595,
                  "price": 1,
                  "rating": 9.3
            },
            {
                  "distance": 949,
                  "location": {
                        "address": "351 Saint-Paul Rue O",
                        "country": "CA",
                        "cross_street": "Coin St-Pierre",
                        "formatted_address": "351 Saint-Paul Rue O (Coin St-Pierre), Montr\u00e9al QC H2Y 2A7",
                        "locality": "Montreal",
                        "postcode": "H2Y 2A7",
                        "region": "QC"
                  },
                  "name": "Olive & Gourmando",
                  "popularity": 0.9503217259651779,
                  "price": 2,
                  "rating": 9.2
            },
            {
                  "distance": 443,
                  "location": {
                        "address": "782 Wellington Rue",
                        "country": "CA",
                        "cross_street": "Prince",
                        "formatted_address": "782 Wellington Rue (Prince), Montr\u00e9al QC H3C 1T7",
                        "locality": "Montreal",
                        "postcode": "H3C 1T7",
                        "region": "QC"
                  },
                  "name": "Monopole",
                  "popularity": 0.9502389288417865,
                  "price": 1,
                  "rating": 9.0
            },
            {
                  "distance": 962,
                  "location": {
                        "address": "312 Saint-Paul Rue O",
                        "country": "CA",
                        "cross_street": "Saint-Pierre",
                        "formatted_address": "312 Saint-Paul Rue O (Saint-Pierre), Montr\u00e9al QC H2Y 2A3",
                        "locality": "Montreal",
                        "postcode": "H2Y 2A3",
                        "region": "QC"
                  },
                  "name": "Barroco",
                  "popularity": 0.9301901968205905,
                  "price": 4,
                  "rating": 9.0
            },
            {
                  "distance": 679,
                  "location": {
                        "address": "696 William St",
                        "country": "CA",
                        "cross_street": "King",
                        "formatted_address": "696 William St (King), Montr\u00e9al QC H3C 1N9",
                        "locality": "Montreal",
                        "postcode": "H3C 1N9",
                        "region": "QC"
                  },
                  "name": "La Dispensa",
                  "popularity": 0.9653198334595003,
                  "price": 1,
                  "rating": 8.9
            },
            {
                  "distance": 915,
                  "location": {
                        "address": "777 Robert-Bourassa Blvd",
                        "country": "CA",
                        "cross_street": "",
                        "formatted_address": "777 Robert-Bourassa Blvd, Montr\u00e9al QC H3C 3Z7",
                        "locality": "Montreal",
                        "postcode": "H3C 3Z7",
                        "region": "QC"
                  },
                  "name": "Portus 360",
                  "popularity": 0.9773609008327026,
                  "price": 2,
                  "rating": 8.9
            },
            {
                  "distance": 876,
                  "location": {
                        "address": "363 d'Youville Pl",
                        "country": "CA",
                        "cross_street": "St Pierre et McGill",
                        "formatted_address": "363 d'Youville Pl (St Pierre et McGill), Montr\u00e9al QC H2Y 2B7",
                        "locality": "Montreal",
                        "postcode": "H2Y 2B7",
                        "region": "QC"
                  },
                  "name": "Deli Italien Bello",
                  "popularity": 0.9035058667676003,
                  "price": 2,
                  "rating": 8.9
            },
            {
                  "distance": 853,
                  "location": {
                        "address": "407 McGill Rue",
                        "address_extended": "# 100A",
                        "country": "CA",
                        "formatted_address": "407 McGill Rue, Montr\u00e9al QC H2Y 2G3",
                        "locality": "Montreal",
                        "postcode": "H2Y 2G3",
                        "region": "QC"
                  },
                  "name": "Restaurant Holder",
                  "popularity": 0.954083080999243,
                  "price": 2,
                  "rating": 8.9
            },
            {
                  "distance": 897,
                  "location": {
                        "address": "460 McGill Rue",
                        "country": "CA",
                        "cross_street": "",
                        "formatted_address": "460 McGill Rue, Montr\u00e9al QC H2Y 2H2",
                        "locality": "Montreal",
                        "postcode": "H2Y 2H2",
                        "region": "QC"
                  },
                  "name": "Structure Torr\u00e9facteurs - Structure Coffee Roasters",
                  "popularity": 0.9362343868281605,
                  "price": 1,
                  "rating": 8.6
            },
            {
                  "distance": 876,
                  "location": {
                        "address": "433 McGill Rue",
                        "country": "CA",
                        "cross_street": "St-Maurice",
                        "formatted_address": "433 McGill Rue (St-Maurice), Montr\u00e9al QC H2Y 2H1",
                        "locality": "Montreal",
                        "postcode": "H2Y 2H1",
                        "region": "QC"
                  },
                  "name": "Brit & Chips",
                  "popularity": 0.9405280090840272,
                  "price": 2,
                  "rating": 8.6
            },
            {
                  "distance": 954,
                  "location": {
                        "address": "1638 Notre-Dame Rue O",
                        "country": "CA",
                        "cross_street": "entre Guy & Richmond",
                        "formatted_address": "1638 Notre-Dame Rue O (entre Guy & Richmond), Montr\u00e9al QC H3J 1M1",
                        "locality": "Montreal",
                        "postcode": "H3J 1M1",
                        "region": "QC"
                  },
                  "name": "Foxy",
                  "popularity": 0.9481216881150644,
                  "price": 2,
                  "rating": 8.6
            },
            {
                  "distance": 232565,
                  "location": {
                        "address": "363 d'Youville Pl",
                        "country": "CA",
                        "cross_street": "",
                        "formatted_address": "363 d'Youville Pl, Montreal QC H2Y 2B7",
                        "locality": "Qu\u00e9bec",
                        "postcode": "H2Y 2B7",
                        "region": "QC"
                  },
                  "name": "Bello Deli",
                  "popularity": 0.9531404375441073,
                  "price": 2,
                  "rating": 8.5
            },
            {
                  "distance": 973,
                  "location": {
                        "address": "298 d'Youville Pl",
                        "country": "CA",
                        "formatted_address": "298 d'Youville Pl, Montr\u00e9al QC H2Y 2B6",
                        "locality": "Montreal",
                        "postcode": "H2Y 2B6",
                        "region": "QC"
                  },
                  "name": "Gibby's",
                  "popularity": 0.9558927895533686,
                  "price": 2,
                  "rating": 8.5
            },
            {
                  "distance": 730,
                  "location": {
                        "address": "1485 Ottawa Rue",
                        "country": "CA",
                        "cross_street": "coin Guy",
                        "formatted_address": "1485 Ottawa Rue (coin Guy), Montr\u00e9al QC H3C 1S9",
                        "locality": "Montreal",
                        "postcode": "H3C 1S9",
                        "region": "QC"
                  },
                  "name": "Brasseur de Montr\u00e9al",
                  "popularity": 0.9854750189250567,
                  "price": 2,
                  "rating": 8.5
            },
            {
                  "distance": 869,
                  "location": {
                        "address": "369 d'Youville Pl",
                        "country": "CA",
                        "cross_street": "",
                        "formatted_address": "369 d'Youville Pl, Montr\u00e9al QC H2Y 2B7",
                        "locality": "Montreal",
                        "postcode": "H2Y 2B7",
                        "region": "QC"
                  },
                  "name": "L'Amour du Pain - Vieux-Montr\u00e9al",
                  "popularity": 0.9404925246025738,
                  "price": 1,
                  "rating": 8.4
            },
            {
                  "distance": 715,
                  "location": {
                        "address": "1380 Notre-Dame Rue O",
                        "country": "CA",
                        "cross_street": "Rue de l'aqueduc",
                        "formatted_address": "1380 Notre-Dame Rue O (Rue de l'aqueduc), Montr\u00e9al QC H3C 1K8",
                        "locality": "Montreal",
                        "postcode": "H3C 1K8",
                        "region": "QC"
                  },
                  "name": "Rockaberry",
                  "popularity": 0.9618423542770629,
                  "rating": 8.3
            },
            {
                  "distance": 927,
                  "location": {
                        "address": "1642 Notre-Dame Rue O",
                        "country": "CA",
                        "cross_street": "entre Richmond & Guy",
                        "formatted_address": "1642 Notre-Dame Rue O (entre Richmond & Guy), Montr\u00e9al QC H3J 1M1",
                        "locality": "Montreal",
                        "postcode": "H3J 1M1",
                        "region": "QC"
                  },
                  "name": "Le Bureau Bar a Tapas",
                  "popularity": 0.9004305450416351,
                  "price": 3,
                  "rating": 8.3
            },
            {
                  "distance": 449,
                  "location": {
                        "address": "300 Rue de la Montagne",
                        "country": "CA",
                        "cross_street": "Rue Du Seminaire",
                        "formatted_address": "300 Rue de la Montagne (Rue Du Seminaire), Montr\u00e9al QC H3C 2B1",
                        "locality": "Montreal",
                        "postcode": "H3C 2B1",
                        "region": "QC"
                  },
                  "name": "Le Petit Dep",
                  "popularity": 0.9751963474640424,
                  "price": 1,
                  "rating": 8.2
            },
            {
                  "distance": 889,
                  "location": {
                        "address": "468 McGill Rue",
                        "country": "CA",
                        "cross_street": "",
                        "formatted_address": "468 McGill Rue, Montr\u00e9al QC H2Y 2H2",
                        "locality": "Montreal",
                        "postcode": "H2Y 2H2",
                        "region": "QC"
                  },
                  "name": "Five Guys Burgers & Fries",
                  "popularity": 0.9749361279333838,
                  "price": 2,
                  "rating": 8.2,
                  "store_id": "1281"
            },
            {
                  "distance": 952,
                  "location": {
                        "address": "320 Saint-Paul Rue O",
                        "country": "CA",
                        "cross_street": "rue Saint-Pierre",
                        "formatted_address": "320 Saint-Paul Rue O (rue Saint-Pierre), Montr\u00e9al QC H2Y 2A3",
                        "locality": "Montreal",
                        "postcode": "H2Y 2A3",
                        "region": "QC"
                  },
                  "name": "Les Pyr\u00e9n\u00e9es",
                  "popularity": 0.9086866010598031,
                  "price": 4,
                  "rating": 8.1
            },
            {
                  "distance": 713,
                  "location": {
                        "address": "626 Marguerite d'Youville Rue",
                        "country": "CA",
                        "cross_street": "",
                        "formatted_address": "626 Marguerite d'Youville Rue, Montr\u00e9al QC H3C 1W7",
                        "locality": "Montreal",
                        "postcode": "H3C 1W7",
                        "region": "QC"
                  },
                  "name": "Jellyfish Crudo+Charbon",
                  "popularity": 0.9344601627554883,
                  "price": 3,
                  "rating": 8.1
            },
            {
                  "distance": 45,
                  "location": {
                        "address": "100 Peel Rue",
                        "country": "CA",
                        "cross_street": "coin Smith",
                        "formatted_address": "100 Peel Rue (coin Smith), Montr\u00e9al QC H3C 0L8",
                        "locality": "Montreal",
                        "postcode": "H3C 0L8",
                        "region": "QC"
                  },
                  "name": "Zibo",
                  "popularity": 0.9744275170325511,
                  "price": 2,
                  "rating": 8.1
            },
            {
                  "distance": 105,
                  "location": {
                        "address": "1059 Wellington Rue",
                        "country": "CA",
                        "cross_street": "Rue Peel",
                        "formatted_address": "1059 Wellington Rue (Rue Peel), Montr\u00e9al QC H3C 1V6",
                        "locality": "Montreal",
                        "postcode": "H3C 1V6",
                        "region": "QC"
                  },
                  "name": "Pizzeria Moretti",
                  "popularity": 0.965237036336109,
                  "price": 2,
                  "rating": 8.0
            },
            {
                  "distance": 908,
                  "location": {
                        "address": "464 McGill Rue",
                        "country": "CA",
                        "cross_street": "",
                        "formatted_address": "464 McGill Rue, Montr\u00e9al QC H2Y 2H2",
                        "locality": "Montreal",
                        "postcode": "H2Y 2H2",
                        "region": "QC"
                  },
                  "name": "Lov",
                  "popularity": 0.9287826457229371,
                  "price": 2,
                  "rating": 7.8
            },
            {
                  "distance": 812,
                  "location": {
                        "address": "357 Rue de la Commune O",
                        "country": "CA",
                        "cross_street": "",
                        "formatted_address": "357 Rue de la Commune O, Montr\u00e9al QC",
                        "locality": "Montreal",
                        "region": "QC"
                  },
                  "name": "357C",
                  "popularity": 0.5329295987887964,
                  "price": 3,
                  "rating": 7.6
            },
            {
                  "distance": 849,
                  "location": {
                        "address": "1524 Notre-Dame Rue O",
                        "country": "CA",
                        "cross_street": "",
                        "formatted_address": "1524 Notre-Dame Rue O, Montr\u00e9al QC H3C 1L1",
                        "locality": "Montreal",
                        "postcode": "H3C 1L1",
                        "region": "QC"
                  },
                  "name": "Maman",
                  "popularity": 0.9602692089326268,
                  "price": 3,
                  "rating": 7.6
            },
            {
                  "distance": 955,
                  "location": {
                        "address": "410 Saint-Pierre Rue",
                        "country": "CA",
                        "cross_street": "",
                        "formatted_address": "410 Saint-Pierre Rue, Montr\u00e9al QC H2Y 2M2",
                        "locality": "Montreal",
                        "postcode": "H2Y 2M2",
                        "region": "QC"
                  },
                  "name": "Pub Saint Pierre",
                  "popularity": 0.9357730885692657,
                  "price": 1,
                  "rating": 7.2
            },
            {
                  "distance": 972,
                  "location": {
                        "address": "501B McGill Rue",
                        "country": "CA",
                        "cross_street": "Notre-Dame",
                        "formatted_address": "501B McGill Rue (Notre-Dame), Montr\u00e9al QC H2Y 0B7",
                        "locality": "Montreal",
                        "postcode": "H2Y 0B7",
                        "region": "QC"
                  },
                  "name": "Kinton Ramen",
                  "popularity": 0.9527701551854656,
                  "rating": 7.2
            },
            {
                  "distance": 601,
                  "location": {
                        "address": "1197 Notre-Dame Rue O",
                        "country": "CA",
                        "cross_street": "",
                        "formatted_address": "1197 Notre-Dame Rue O, Montr\u00e9al QC H3C 0B1",
                        "locality": "Montreal",
                        "postcode": "H3C 0B1",
                        "region": "QC"
                  },
                  "name": "Okane Sushi Bar",
                  "popularity": 0.966195117335352,
                  "price": 2,
                  "rating": 6.9
            },
            {
                  "distance": 870,
                  "location": {
                        "address": "409 McGill Rue",
                        "country": "CA",
                        "cross_street": "",
                        "formatted_address": "409 McGill Rue, Montr\u00e9al QC H2Y 0B5",
                        "locality": "Montreal",
                        "postcode": "H2Y 0B5",
                        "region": "QC"
                  },
                  "name": "Le 409",
                  "popularity": 0.9377010787282362,
                  "price": 2,
                  "rating": 6.9
            },
            {
                  "distance": 871,
                  "location": {
                        "address": "444 McGill Rue",
                        "country": "CA",
                        "cross_street": "",
                        "formatted_address": "444 McGill Rue, Montr\u00e9al QC H2Y 2G1",
                        "locality": "Montreal",
                        "postcode": "H2Y 2G1",
                        "region": "QC"
                  },
                  "name": "Pizzeria No. 900",
                  "popularity": 0.9413441521574565,
                  "price": 1,
                  "rating": 6.9
            },
            {
                  "distance": 492,
                  "location": {
                        "address": "323 rue de la Montagne",
                        "country": "CA",
                        "cross_street": "",
                        "formatted_address": "323 rue de la Montagne, Montr\u00e9al QC H3C 0S6",
                        "locality": "Montreal",
                        "postcode": "H3C 0S6",
                        "region": "QC"
                  },
                  "name": "Boulangerie l'Amour du Pain",
                  "popularity": 0.9667510408781226,
                  "price": 1,
                  "rating": 6.8
            },
            {
                  "distance": 129,
                  "location": {
                        "address": "1055 Wellington St",
                        "address_extended": "Commerce C",
                        "country": "CA",
                        "cross_street": "",
                        "formatted_address": "1055 Wellington St, Montr\u00e9al QC H3C 1V6",
                        "locality": "Montreal",
                        "postcode": "H3C 1V6",
                        "region": "QC"
                  },
                  "name": "Subway",
                  "popularity": 0.607435181680545,
                  "price": 1,
                  "rating": 6.6,
                  "store_id": "66836"
            },
            {
                  "distance": 803,
                  "location": {
                        "address": "997 Saint-Jacques Rue",
                        "country": "CA",
                        "cross_street": "Coin De La Cath\u00e9drale",
                        "formatted_address": "997 Saint-Jacques Rue (Coin De La Cath\u00e9drale), Montr\u00e9al QC H3C 1G6",
                        "locality": "Montreal",
                        "postcode": "H3C 1G6",
                        "region": "QC"
                  },
                  "name": "Time Supper Club",
                  "popularity": 0.9734694360333082,
                  "price": 3,
                  "rating": 6.5
            },
            {
                  "distance": 255,
                  "location": {
                        "address": "241 Peel Rue",
                        "country": "CA",
                        "cross_street": "Ottawa",
                        "formatted_address": "241 Peel Rue (Ottawa), Montr\u00e9al QC H3C 2G6",
                        "locality": "Montreal",
                        "postcode": "H3C 2G6",
                        "region": "QC"
                  },
                  "name": "Tim Hortons",
                  "popularity": 0.9711511165783497,
                  "price": 1,
                  "rating": 6.4
            }
      ],
      "context": {
            "geo_bounds": {
                  "circle": {
                        "center": {
                              "latitude": 45.49276061,
                              "longitude": -73.55641052
                        },
                        "radius": 1000
                  }
            }
      }
}