{
      "results": [
            {
                  "distance": 1025,
                  "location": {
                        "address": "525 Saint-Martin Blvd O",
                        "country": "CA",
                        "cross_street": "",
                        "formatted_address": "525 Saint-Martin Blvd O, Laval QC H7M 1Y9",
                        "locality": "Laval",
                        "postcode": "H7M 1Y9",
                        "region": "QC"
                  },
                  "name": "Makoto Sushi",
                  "popularity": 0.8985093278586093,
                  "price": 2,
                  "rating": 8.2
            },
            {
                  "distance": 621,
                  "location": {
                        "address": "2250 Francis-Hughes Ave",
                        "country": "CA",
                        "cross_street": "",
                        "formatted_address": "2250 Francis-Hughes Ave, Laval QC H7S 2C3",
                        "locality": "Laval",
                        "postcode": "H7S 2C3",
                        "region": "QC"
                  },
                  "name": "Presse Caf\u00e9",
                  "popularity": 0.6396500937248951,
                  "price": 1
            },
            {
                  "distance": 704,
                  "location": {
                        "address": "1407 des Laurentides Blvd",
                        "country": "CA",
                        "cross_street": "",
                        "formatted_address": "1407 des Laurentides Blvd, Vimont QC H7M 2Y2",
                        "locality": "Vimont",
                        "postcode": "H7M 2Y2",
                        "region": "QC"
                  },
                  "name": "Champion Bar",
                  "popularity": 0.989199321610283,
                  "price": 3
            },
            {
                  "distance": 964,
                  "location": {
                        "address": "1746 des Laurentides Blvd",
                        "country": "CA",
                        "formatted_address": "1746 des Laurentides Blvd, Montr\u00e9al QC",
                        "locality": "Montreal",
                        "region": "QC"
                  },
                  "name": "Pizza Vimont",
                  "popularity": 0.4413996251004195,
                  "price": 1
            },
            {
                  "distance": 975,
                  "location": {
                        "address": "1760 des Laurentides Blvd",
                        "country": "CA",
                        "cross_street": "Boul St Martin",
                        "formatted_address": "1760 des Laurentides Blvd (Boul St Martin), Laval QC H7M 2Y4",
                        "locality": "Laval",
                        "postcode": "H7M 2Y4",
                        "region": "QC"
                  },
                  "name": "Restaurant Eggsquis",
                  "popularity": 0.9012764438096939,
                  "price": 1
            },
            {
                  "distance": 978,
                  "location": {
                        "address": "327 Saint-Martin Blvd O",
                        "country": "CA",
                        "cross_street": "",
                        "formatted_address": "327 Saint-Martin Blvd O, Laval QC H7M 1Y7",
                        "locality": "Laval",
                        "postcode": "H7M 1Y7",
                        "region": "QC"
                  },
                  "name": "Restaurant Chanchhaya",
                  "popularity": 0.00392751941444256,
                  "price": 2
            },
            {
                  "distance": 1011,
                  "location": {
                        "address": "565 Saint-Martin Blvd O",
                        "country": "CA",
                        "cross_street": "",
                        "formatted_address": "565 Saint-Martin Blvd O, Laval QC H7M 1Y9",
                        "locality": "Laval",
                        "postcode": "H7M 1Y9",
                        "region": "QC"
                  },
                  "name": "Allons Burger",
                  "popularity": 0.2257431045255735,
                  "price": 1
            },
            {
                  "distance": 651,
                  "location": {
                        "address": "2088 des Laurentides Blvd",
                        "country": "CA",
                        "formatted_address": "2088 des Laurentides Blvd, Laval QC H7M 2Y6",
                        "locality": "Laval",
                        "postcode": "H7M 2Y6",
                        "region": "QC"
                  },
                  "name": "Patisserie Buenos Aires"
            },
            {
                  "distance": 651,
                  "location": {
                        "address": "2094 des Laurentides Blvd",
                        "country": "CA",
                        "formatted_address": "2094 des Laurentides Blvd, Laval QC H7M 2Y6",
                        "locality": "Laval",
                        "postcode": "H7M 2Y6",
                        "region": "QC"
                  },
                  "name": "Ta\u00efyou Sushi"
            },
            {
                  "distance": 798,
                  "location": {
                        "address": "1922 des Laurentides Blvd",
                        "country": "CA",
                        "formatted_address": "1922 des Laurentides Blvd, Laval QC H7M 2Y5",
                        "locality": "Laval",
                        "postcode": "H7M 2Y5",
                        "region": "QC"
                  },
                  "name": "Grillades Laflamme"
            },
            {
                  "distance": 802,
                  "location": {
                        "address": "1922 des Laurentides Blvd",
                        "country": "CA",
                        "formatted_address": "1922 des Laurentides Blvd, Laval QC H7M 2Y5",
                        "locality": "Laval",
                        "postcode": "H7M 2Y5",
                        "region": "QC"
                  },
                  "name": "La Petite Mangue"
            },
            {
                  "distance": 885,
                  "location": {
                        "address": "1790 des Laurentides Blvd",
                        "country": "CA",
                        "formatted_address": "1790 des Laurentides Blvd, Laval QC H7M 2Y4",
                        "locality": "Laval",
                        "postcode": "H7M 2Y4",
                        "region": "QC"
                  },
                  "name": "BrasseRires"
            },
            {
                  "distance": 927,
                  "location": {
                        "address": "327 Saint-Martin Blvd O",
                        "country": "CA",
                        "formatted_address": "327 Saint-Martin Blvd O, Laval QC H7M 1Y7",
                        "locality": "Laval",
                        "postcode": "H7M 1Y7",
                        "region": "QC"
                  },
                  "name": "Restaurant Kantora"
            },
            {
                  "distance": 949,
                  "location": {
                        "address": "269 Rte Ouest RR 2",
                        "address_extended": "# 76",
                        "country": "CA",
                        "formatted_address": "269 Rte Ouest RR 2, Laval QC G0M 1B0",
                        "locality": "Laval",
                        "postcode": "G0M 1B0",
                        "region": "QC"
                  },
                  "name": "Casse-Cro\u00fbte Chez Marie"
            },
            {
                  "distance": 993,
                  "location": {
                        "address": "559 Saint-Martin Blvd O",
                        "country": "CA",
                        "formatted_address": "559 Saint-Martin Blvd O, Laval QC H7M 1Y9",
                        "locality": "Laval",
                        "postcode": "H7M 1Y9",
                        "region": "QC"
                  },
                  "name": "Boucherie et Grillades Farhat Laval"
            }
      ],
      "context": {
            "geo_bounds": {
                  "circle": {
                        "center": {
                              "latitude": 45.58470515,
                              "longitude": -73.71925414
                        },
                        "radius": 1000
                  }
            }
      }
}