{
      "results": [
            {
                  "distance": 909,
                  "location": {
                        "address": "3205 Cremazie Blvd E",
                        "country": "CA",
                        "cross_street": "Cr\u00e9mazie",
                        "formatted_address": "3205 Cremazie Blvd E (Cr\u00e9mazie), Montr\u00e9al QC H1Z 4M5",
                        "locality": "Montreal",
                        "postcode": "H1Z 4M5",
                        "region": "QC"
                  },
                  "name": "Pho Ngon",
                  "popularity": 0.9768404617713853,
                  "price": 2,
                  "rating": 8.5
            },
            {
                  "distance": 800,
                  "location": {
                        "address": "1950 Jean-Talon Rue E",
                        "country": "CA",
                        "cross_street": "Chabot",
                        "formatted_address": "1950 Jean-Talon Rue E (Chabot), Montr\u00e9al QC H2E 1T8",
                        "locality": "Montreal",
                        "postcode": "H2E 1T8",
                        "region": "QC"
                  },
                  "name": "Boulangerie & Charcuterie San Pietro",
                  "popularity": 0.953763720666162,
                  "price": 1,
                  "rating": 8.2
            },
            {
                  "distance": 520,
                  "location": {
                        "address": "8115 Papineau Ave",
                        "country": "CA",
                        "cross_street": "coin Jarry Est",
                        "formatted_address": "8115 Papineau Ave (coin Jarry Est), Montr\u00e9al QC H2E 2H7",
                        "locality": "Montreal",
                        "postcode": "H2E 2H7",
                        "region": "QC"
                  },
                  "name": "Tim Hortons",
                  "popularity": 0.9937783875851628,
                  "price": 1,
                  "rating": 8.0
            },
            {
                  "distance": 967,
                  "location": {
                        "address": "3204 Jarry Rue E",
                        "country": "CA",
                        "cross_street": "",
                        "formatted_address": "3204 Jarry Rue E, Montr\u00e9al QC H1Z 2E2",
                        "locality": "Montreal",
                        "postcode": "H1Z 2E2",
                        "region": "QC"
                  },
                  "name": "Restaurant O Cantinho",
                  "popularity": 0.9048542770628312,
                  "price": 2,
                  "rating": 8.0
            },
            {
                  "distance": 374,
                  "location": {
                        "address": "1812 Tillemont Rue",
                        "country": "CA",
                        "cross_street": "Papineau",
                        "formatted_address": "1812 Tillemont Rue (Papineau), Montr\u00e9al QC H2E 1C5",
                        "locality": "Montreal",
                        "postcode": "H2E 1C5",
                        "region": "QC"
                  },
                  "name": "Boulangerie & P\u00e2tisserie Tillemont Inc",
                  "popularity": 0.9615466502649508,
                  "price": 1,
                  "rating": 7.3
            },
            {
                  "distance": 431,
                  "location": {
                        "address": "7690 Papineau Ave",
                        "country": "CA",
                        "formatted_address": "7690 Papineau Ave, Montreal QC H2E 2H2",
                        "locality": "Montreal",
                        "postcode": "H2E 2H2",
                        "region": "QC"
                  },
                  "name": "Restaurant Deli-Plus",
                  "popularity": 0.9771243376230129,
                  "price": 1,
                  "rating": 6.6
            },
            {
                  "distance": 987,
                  "location": {
                        "address": "7734 Saint-Michel Blvd",
                        "country": "CA",
                        "cross_street": "at Cr\u00e9mazie Est",
                        "formatted_address": "7734 Saint-Michel Blvd (at Cr\u00e9mazie Est), Montr\u00e9al QC H2A 3A5",
                        "locality": "Montreal",
                        "postcode": "H2A 3A5",
                        "region": "QC"
                  },
                  "name": "March\u00e9 Kim Hour Inc",
                  "popularity": 0.9871546177138532,
                  "price": 1,
                  "rating": 6.4
            },
            {
                  "distance": 864,
                  "location": {
                        "address": "3201 Cremazie Blvd E",
                        "country": "CA",
                        "cross_street": "10e Avenue",
                        "formatted_address": "3201 Cremazie Blvd E (10e Avenue), Montr\u00e9al QC H1Z 4M5",
                        "locality": "Montreal",
                        "postcode": "H1Z 4M5",
                        "region": "QC"
                  },
                  "name": "Harvey's",
                  "popularity": 0.9832276684330054,
                  "price": 2,
                  "rating": 6.4,
                  "store_id": "2552"
            },
            {
                  "distance": 923,
                  "location": {
                        "address": "1280 Jarry Rue E",
                        "country": "CA",
                        "cross_street": "",
                        "formatted_address": "1280 Jarry Rue E, Montr\u00e9al QC H2P 1X1",
                        "locality": "Montreal",
                        "postcode": "H2P 1X1",
                        "region": "QC"
                  },
                  "name": "Subway",
                  "popularity": 0.9300955715367146,
                  "price": 1,
                  "rating": 6.4,
                  "store_id": "26612"
            },
            {
                  "distance": 533,
                  "location": {
                        "address": "1700 Jarry Rue E",
                        "country": "CA",
                        "cross_street": "",
                        "formatted_address": "1700 Jarry Rue E, Montr\u00e9al QC H2E 1B3",
                        "locality": "Montreal",
                        "postcode": "H2E 1B3",
                        "region": "QC"
                  },
                  "name": "KFC",
                  "popularity": 0.9714349924299773,
                  "price": 1,
                  "rating": 6.1
            },
            {
                  "distance": 415,
                  "location": {
                        "address": "1667 Villeray Rue",
                        "country": "CA",
                        "cross_street": "coin Marquette",
                        "formatted_address": "1667 Villeray Rue (coin Marquette), Montr\u00e9al QC H2E 1H5",
                        "locality": "Montreal",
                        "postcode": "H2E 1H5",
                        "region": "QC"
                  },
                  "name": "Cafe Roma",
                  "popularity": 0.9140920704012112,
                  "price": 1
            },
            {
                  "distance": 500,
                  "location": {
                        "address": "1600 Villeray Rue",
                        "country": "CA",
                        "cross_street": "",
                        "formatted_address": "1600 Villeray Rue, Montr\u00e9al QC H2E 1H3",
                        "locality": "Montreal",
                        "postcode": "H2E 1H3",
                        "region": "QC"
                  },
                  "name": "Le Pro",
                  "popularity": 0.8249668811506434,
                  "price": 1
            },
            {
                  "distance": 574,
                  "location": {
                        "address": "1660 Jarry Rue E",
                        "country": "CA",
                        "cross_street": "",
                        "formatted_address": "1660 Jarry Rue E, Montr\u00e9al QC H2E 1B3",
                        "locality": "Montreal",
                        "postcode": "H2E 1B3",
                        "region": "QC"
                  },
                  "name": "Le Gras Dur",
                  "popularity": 0.8562287093111279,
                  "price": 2
            },
            {
                  "distance": 649,
                  "location": {
                        "address": "1534 Jarry Rue E",
                        "country": "CA",
                        "cross_street": "",
                        "formatted_address": "1534 Jarry Rue E, Montr\u00e9al QC H2E 1A9",
                        "locality": "Montreal",
                        "postcode": "H2E 1A9",
                        "region": "QC"
                  },
                  "name": "Pizza Montreal",
                  "popularity": 0.9646456283118849,
                  "price": 1
            },
            {
                  "distance": 724,
                  "location": {
                        "address": "1370 Villeray Rue",
                        "country": "CA",
                        "cross_street": "",
                        "formatted_address": "1370 Villeray Rue, Montr\u00e9al QC H2E 1G6",
                        "locality": "Montreal",
                        "postcode": "H2E 1G6",
                        "region": "QC"
                  },
                  "name": "Tabac",
                  "popularity": 0.9707489591218774,
                  "price": 1
            },
            {
                  "distance": 730,
                  "location": {
                        "address": "1595 Jean-Talon Rue E",
                        "country": "CA",
                        "cross_street": "Marquette",
                        "formatted_address": "1595 Jean-Talon Rue E (Marquette), Montr\u00e9al QC H2E 1S9",
                        "locality": "Montreal",
                        "postcode": "H2E 1S9",
                        "region": "QC"
                  },
                  "name": "Marche Reynald",
                  "popularity": 0.27696820590461774
            },
            {
                  "distance": 734,
                  "location": {
                        "country": "CA",
                        "cross_street": "",
                        "formatted_address": ""
                  },
                  "name": "Le Roi de Taco",
                  "popularity": 0.8624621498864496,
                  "price": 1
            },
            {
                  "distance": 823,
                  "location": {
                        "address": "2517 Jean-Talon Rue E",
                        "country": "CA",
                        "cross_street": "Iberville",
                        "formatted_address": "2517 Jean-Talon Rue E (Iberville), Montr\u00e9al QC H2A 1T6",
                        "locality": "Montreal",
                        "postcode": "H2A 1T6",
                        "region": "QC"
                  },
                  "name": "Casse-Cro\u00fbte Sissi & Paul",
                  "popularity": 0.9293030847842544,
                  "price": 2
            },
            {
                  "distance": 843,
                  "location": {
                        "address": "2524 Jean-Talon Rue E",
                        "country": "CA",
                        "cross_street": "D' Iberville",
                        "formatted_address": "2524 Jean-Talon Rue E (D' Iberville), Montr\u00e9al QC H2A 1T7",
                        "locality": "Montreal",
                        "postcode": "H2A 1T7",
                        "region": "QC"
                  },
                  "name": "Mexico Restaurant",
                  "popularity": 0.8773301476154428,
                  "price": 1
            },
            {
                  "distance": 855,
                  "location": {
                        "address": "1840 Jean Talon Rue E",
                        "country": "CA",
                        "cross_street": "Papineau",
                        "formatted_address": "1840 Jean Talon Rue E (Papineau), Montr\u00e9al QC H2E 1T5",
                        "locality": "Montreal",
                        "postcode": "H2E 1T5",
                        "region": "QC"
                  },
                  "name": "Dilallo Burger et Bar",
                  "popularity": 0.9578207797123391,
                  "price": 2
            },
            {
                  "distance": 860,
                  "location": {
                        "address": "1270 Jarry Rue E",
                        "country": "CA",
                        "cross_street": "",
                        "formatted_address": "1270 Jarry Rue E, Montr\u00e9al QC H2P 1X1",
                        "locality": "Montreal",
                        "postcode": "H2P 1X1",
                        "region": "QC"
                  },
                  "name": "Pizza Pizza",
                  "popularity": 0.2194596896290689,
                  "price": 1,
                  "store_id": "335"
            },
            {
                  "distance": 868,
                  "location": {
                        "address": "2566 Jean Talon Rue E",
                        "country": "CA",
                        "cross_street": "",
                        "formatted_address": "2566 Jean Talon Rue E, Montr\u00e9al QC H2A 1T9",
                        "locality": "Montreal",
                        "postcode": "H2A 1T9",
                        "region": "QC"
                  },
                  "name": "Kokoriko",
                  "popularity": 0.6628737698713096,
                  "price": 2
            },
            {
                  "distance": 912,
                  "location": {
                        "address": "3145 Jarry Rue E",
                        "country": "CA",
                        "cross_street": "",
                        "formatted_address": "3145 Jarry Rue E, Montreal QC H1Z 0B6",
                        "locality": "Montreal",
                        "postcode": "H1Z 0B6",
                        "region": "QC"
                  },
                  "name": "Apelia Restaurant",
                  "popularity": 0.6579769114307343,
                  "price": 2
            },
            {
                  "distance": 313,
                  "location": {
                        "address": "7481 Ave de Lorimier",
                        "country": "CA",
                        "formatted_address": "7481 Ave de Lorimier, Montreal QC H2E 2P4",
                        "locality": "Montreal",
                        "postcode": "H2E 2P4",
                        "region": "QC"
                  },
                  "name": "Restaurant Pizza & Pasta"
            },
            {
                  "distance": 557,
                  "location": {
                        "address": "1700 Jarry Rue E",
                        "country": "CA",
                        "formatted_address": "1700 Jarry Rue E, Montreal QC H2E 1B3",
                        "locality": "Montreal",
                        "postcode": "H2E 1B3",
                        "region": "QC"
                  },
                  "name": "Restaurant PFK"
            },
            {
                  "distance": 600,
                  "location": {
                        "address": "1590 Jarry Rue E",
                        "country": "CA",
                        "formatted_address": "1590 Jarry Rue E, Montreal QC H2E 1B2",
                        "locality": "Montreal",
                        "postcode": "H2E 1B2",
                        "region": "QC"
                  },
                  "name": "Caf\u00e9 Bar Cosenza"
            },
            {
                  "distance": 639,
                  "location": {
                        "address": "8144 Marquette Rue",
                        "country": "CA",
                        "formatted_address": "8144 Marquette Rue, Montreal QC H2E 2G2",
                        "locality": "Montreal",
                        "postcode": "H2E 2G2",
                        "region": "QC"
                  },
                  "name": "Chez Junior"
            },
            {
                  "distance": 728,
                  "location": {
                        "address": "1370 Villeray Rue",
                        "country": "CA",
                        "formatted_address": "1370 Villeray Rue, Montreal QC H2E 1G6",
                        "locality": "Montreal",
                        "postcode": "H2E 1G6",
                        "region": "QC"
                  },
                  "name": "Bar 1370"
            },
            {
                  "distance": 753,
                  "location": {
                        "address": "2015 Jean-Talon Rue E",
                        "country": "CA",
                        "formatted_address": "2015 Jean-Talon Rue E, Montreal QC H2E 1V2",
                        "locality": "Montreal",
                        "postcode": "H2E 1V2",
                        "region": "QC"
                  },
                  "name": "Caf\u00e9 Zabana"
            },
            {
                  "distance": 827,
                  "location": {
                        "address": "7203 Papineau Ave",
                        "country": "CA",
                        "formatted_address": "7203 Papineau Ave, Montreal QC H2E 2G7",
                        "locality": "Montreal",
                        "postcode": "H2E 2G7",
                        "region": "QC"
                  },
                  "name": "El Chasqui Latino"
            },
            {
                  "distance": 828,
                  "location": {
                        "address": "2464 Jean-Talon Rue E",
                        "country": "CA",
                        "formatted_address": "2464 Jean-Talon Rue E, Montreal QC H2E 1W2",
                        "locality": "Montreal",
                        "postcode": "H2E 1W2",
                        "region": "QC"
                  },
                  "name": "Cafe Depot"
            },
            {
                  "distance": 897,
                  "location": {
                        "address": "2583 Jean-Talon Rue E",
                        "country": "CA",
                        "formatted_address": "2583 Jean-Talon Rue E, Montreal QC H2A 1V1",
                        "locality": "Montreal",
                        "postcode": "H2A 1V1",
                        "region": "QC"
                  },
                  "name": "Pamela Sue"
            },
            {
                  "distance": 924,
                  "location": {
                        "address": "3055A Villeray Rue",
                        "country": "CA",
                        "formatted_address": "3055A Villeray Rue, Montreal QC H2A 1E8",
                        "locality": "Montreal",
                        "postcode": "H2A 1E8",
                        "region": "QC"
                  },
                  "name": "Cafe Bistro la Dolce Vita"
            },
            {
                  "distance": 961,
                  "location": {
                        "address": "7682 Saint-Michel Blvd",
                        "country": "CA",
                        "formatted_address": "7682 Saint-Michel Blvd, Montreal QC H2A 3A5",
                        "locality": "Montreal",
                        "postcode": "H2A 3A5",
                        "region": "QC"
                  },
                  "name": "Brasserie Chez le Pere Gedeon"
            },
            {
                  "distance": 982,
                  "location": {
                        "address": "3204 Jarry Rue E",
                        "country": "CA",
                        "formatted_address": "3204 Jarry Rue E, Montreal QC H1Z 2E2",
                        "locality": "Montreal",
                        "postcode": "H1Z 2E2",
                        "region": "QC"
                  },
                  "name": "Grillades Portugaise Cantinho Eo Cantinhoe"
            }
      ],
      "context": {
            "geo_bounds": {
                  "circle": {
                        "center": {
                              "latitude": 45.55463653,
                              "longitude": -73.61255216
                        },
                        "radius": 1000
                  }
            }
      }
}