{
      "results": [
            {
                  "distance": 770,
                  "location": {
                        "address": "6703 Sherbrooke Rue O",
                        "country": "CA",
                        "cross_street": "Montclair St.",
                        "formatted_address": "6703 Sherbrooke Rue O (Montclair St.), Montr\u00e9al QC H4B 1P3",
                        "locality": "Montreal",
                        "postcode": "H4B 1P3",
                        "region": "QC"
                  },
                  "name": "Cafe 92 Degres",
                  "popularity": 0.9332300340651022,
                  "price": 1,
                  "rating": 8.7
            },
            {
                  "distance": 696,
                  "location": {
                        "address": "59 Westminster Ave N",
                        "address_extended": "Milner",
                        "country": "CA",
                        "cross_street": "Milner",
                        "formatted_address": "59 Westminster Ave N (Milner), Montr\u00e9al QC H4X 1Y8",
                        "locality": "Montreal",
                        "postcode": "H4X 1Y8",
                        "region": "QC"
                  },
                  "name": "Burger de Ville",
                  "popularity": 0.9558011049723757,
                  "price": 1,
                  "rating": 8.3
            },
            {
                  "distance": 192,
                  "location": {
                        "address": "7345 Sherbrooke St W",
                        "address_extended": "# 7335",
                        "country": "CA",
                        "formatted_address": "7345 Sherbrooke St W, Montr\u00e9al QC H4B 1R9",
                        "locality": "Montreal",
                        "postcode": "H4B 1R9",
                        "region": "QC"
                  },
                  "name": "Second Cup Coffee Co",
                  "popularity": 0.9502980696442089,
                  "price": 1,
                  "rating": 7.9,
                  "store_id": "3118"
            },
            {
                  "distance": 297,
                  "location": {
                        "address": "7420 Sherbrooke Rue W",
                        "address_extended": "Elmhurst St",
                        "country": "CA",
                        "cross_street": "Elmhurst St",
                        "formatted_address": "7420 Sherbrooke Rue W (Elmhurst St), Montr\u00e9al QC H4B 1R7",
                        "locality": "Montreal",
                        "postcode": "H4B 1R7",
                        "region": "QC"
                  },
                  "name": "Subway",
                  "popularity": 0.986610522331567,
                  "price": 1,
                  "rating": 6.4
            },
            {
                  "distance": 593,
                  "location": {
                        "address": "7270 Saint-Jacques Rue",
                        "country": "CA",
                        "cross_street": "rue West Broadway",
                        "formatted_address": "7270 Saint-Jacques Rue (rue West Broadway), Montr\u00e9al QC H4B 1W1",
                        "locality": "Montreal",
                        "postcode": "H4B 1W1",
                        "region": "QC"
                  },
                  "name": "McDonald's",
                  "popularity": 0.9968891937925813,
                  "price": 1,
                  "rating": 5.6,
                  "store_id": "7795"
            },
            {
                  "distance": 234,
                  "location": {
                        "address": "7363 Sherbrooke Rue O",
                        "country": "CA",
                        "cross_street": "",
                        "formatted_address": "7363 Sherbrooke Rue O, Montreal QC H4B 1S1",
                        "locality": "Montreal",
                        "postcode": "H4B 1S1",
                        "region": "QC"
                  },
                  "name": "Romi Pizza",
                  "popularity": 0.682070874337623,
                  "price": 1
            },
            {
                  "distance": 354,
                  "location": {
                        "address": "6969 Sherbrooke Rue O",
                        "country": "CA",
                        "cross_street": "",
                        "formatted_address": "6969 Sherbrooke Rue O, Montr\u00e9al QC H4B 1R1",
                        "locality": "Montreal",
                        "postcode": "H4B 1R1",
                        "region": "QC"
                  },
                  "name": "Dagwoods Sandwiches",
                  "popularity": 0.9354892127176382,
                  "price": 1
            },
            {
                  "distance": 411,
                  "location": {
                        "address": "6926 Sherbrooke Rue O",
                        "address_extended": "Suite 1",
                        "country": "CA",
                        "cross_street": "",
                        "formatted_address": "6926 Sherbrooke Rue O, Montr\u00e9al QC H4B 1P9",
                        "locality": "Montreal",
                        "postcode": "H4B 1P9",
                        "region": "QC"
                  },
                  "name": "MIA Caf\u00e9 Club",
                  "popularity": 0.8483156699470098,
                  "price": 1
            },
            {
                  "distance": 495,
                  "location": {
                        "address": "7425 Saint-Jacques Rue",
                        "country": "CA",
                        "cross_street": "",
                        "formatted_address": "7425 Saint-Jacques Rue, Montr\u00e9al QC H4B 1W6",
                        "locality": "Montreal",
                        "postcode": "H4B 1W6",
                        "region": "QC"
                  },
                  "name": "Goldie'S Resto Bar",
                  "popularity": 0.7141488455715367,
                  "price": 2
            },
            {
                  "distance": 526,
                  "location": {
                        "address": "7360 Saint Jacques Rue",
                        "country": "CA",
                        "cross_street": "Patricia",
                        "formatted_address": "7360 Saint Jacques Rue (Patricia), Montr\u00e9al QC H4B 1W3",
                        "locality": "Montreal",
                        "postcode": "H4B 1W3",
                        "region": "QC"
                  },
                  "name": "Spurs Country Bar",
                  "popularity": 0.8373273088569265,
                  "price": 3
            },
            {
                  "distance": 667,
                  "location": {
                        "address": "48 Westminster Ave N",
                        "country": "CA",
                        "cross_street": "Milner",
                        "formatted_address": "48 Westminster Ave N (Milner), Montreal-Ouest QC H4X 1Z2",
                        "locality": "Montreal West",
                        "postcode": "H4X 1Z2",
                        "region": "QC"
                  },
                  "name": "Sushi Shop Westminster",
                  "popularity": 0.3259668508287293,
                  "price": 2
            },
            {
                  "distance": 672,
                  "location": {
                        "address": "37 Westminster Ave N",
                        "country": "CA",
                        "cross_street": "",
                        "formatted_address": "37 Westminster Ave N, Montreal-Ouest QC H4X 1Y8",
                        "locality": "Montreal West",
                        "postcode": "H4X 1Y8",
                        "region": "QC"
                  },
                  "name": "Montreal Chinese Crepes & Dumplings",
                  "popularity": 0.8895027624309392,
                  "price": 1
            },
            {
                  "distance": 676,
                  "location": {
                        "address": "51 Westminster Ave N",
                        "country": "CA",
                        "cross_street": "",
                        "formatted_address": "51 Westminster Ave N, Montreal-Ouest QC H4X 1Y8",
                        "locality": "Montreal West",
                        "postcode": "H4X 1Y8",
                        "region": "QC"
                  },
                  "name": "Les D\u00e9lices Lafrenaie Montr\u00e9al-Ouest",
                  "popularity": 0.9337016574585635,
                  "price": 1
            },
            {
                  "distance": 900,
                  "location": {
                        "address": "6820 Saint-Jacques Rue",
                        "country": "CA",
                        "cross_street": "",
                        "formatted_address": "6820 Saint-Jacques Rue, Montr\u00e9al QC H4B 1V8",
                        "locality": "Montreal",
                        "postcode": "H4B 1V8",
                        "region": "QC"
                  },
                  "name": "Bar les Amazones",
                  "popularity": 0.9944644208932627,
                  "price": 3
            },
            {
                  "distance": 946,
                  "location": {
                        "address": "6752 St Jacques O",
                        "country": "CA",
                        "cross_street": "",
                        "formatted_address": "6752 St Jacques O, Montr\u00e9al QC",
                        "locality": "Montreal",
                        "region": "QC"
                  },
                  "name": "La Belle Province",
                  "popularity": 0.8788441521574565,
                  "price": 1
            },
            {
                  "distance": 322,
                  "location": {
                        "address": "6995 Ave de Monkland",
                        "country": "CA",
                        "formatted_address": "6995 Ave de Monkland, Montreal QC H4B 1J8",
                        "locality": "Montreal",
                        "postcode": "H4B 1J8",
                        "region": "QC"
                  },
                  "name": "Souvlaki Georges"
            },
            {
                  "distance": 462,
                  "location": {
                        "address": "2438 Ave de Mayfair",
                        "country": "CA",
                        "formatted_address": "2438 Ave de Mayfair, Montreal QC",
                        "locality": "Montreal",
                        "region": "QC"
                  },
                  "name": "Pisko"
            },
            {
                  "distance": 466,
                  "location": {
                        "address": "7427 Saint-Jacques Rue",
                        "country": "CA",
                        "formatted_address": "7427 Saint-Jacques Rue, Montreal QC H4B 1W6",
                        "locality": "Montreal",
                        "postcode": "H4B 1W6",
                        "region": "QC"
                  },
                  "name": "3926-3788 Quebec Inc"
            },
            {
                  "distance": 474,
                  "location": {
                        "address": "292 Saint-Catherine Rue W",
                        "country": "CA",
                        "formatted_address": "292 Saint-Catherine Rue W, Montreal QC H2X 2A1",
                        "locality": "Montreal",
                        "postcode": "H2X 2A1",
                        "region": "QC"
                  },
                  "name": "AL&Jo"
            },
            {
                  "distance": 497,
                  "location": {
                        "address": "281 St Denis",
                        "country": "CA",
                        "formatted_address": "281 St Denis, Montreal QC",
                        "locality": "Montreal",
                        "region": "QC"
                  },
                  "name": "2 Sorelle Gelato"
            },
            {
                  "distance": 512,
                  "location": {
                        "address": "7315 Saint-Jacques Rue",
                        "country": "CA",
                        "formatted_address": "7315 Saint-Jacques Rue, Montreal QC H4B 1W2",
                        "locality": "Montreal",
                        "postcode": "H4B 1W2",
                        "region": "QC"
                  },
                  "name": "Chez Timothee"
            },
            {
                  "distance": 575,
                  "location": {
                        "address": "7235 Saint-Jacques Rue",
                        "country": "CA",
                        "formatted_address": "7235 Saint-Jacques Rue, Montreal QC H4B 1V3",
                        "locality": "Montreal",
                        "postcode": "H4B 1V3",
                        "region": "QC"
                  },
                  "name": "Restauration Marine Inc"
            },
            {
                  "distance": 615,
                  "location": {
                        "address": "2373 Mariette Ave",
                        "country": "CA",
                        "formatted_address": "2373 Mariette Ave, Montreal QC H4B 2E7",
                        "locality": "Montreal",
                        "postcode": "H4B 2E7",
                        "region": "QC"
                  },
                  "name": "Della & Daughter's Cakes and Desserts"
            },
            {
                  "distance": 679,
                  "location": {
                        "address": "30 Westminster Ave N",
                        "country": "CA",
                        "formatted_address": "30 Westminster Ave N, Montreal-Ouest QC H4X 1Z2",
                        "locality": "Montreal-Ouest",
                        "postcode": "H4X 1Z2",
                        "region": "QC"
                  },
                  "name": "Les Aliments Carne Inc"
            },
            {
                  "distance": 713,
                  "location": {
                        "address": "30 Westminster Ave N",
                        "country": "CA",
                        "formatted_address": "30 Westminster Ave N, Montreal-Ouest QC H4X 1Z2",
                        "locality": "Montreal-Ouest",
                        "postcode": "H4X 1Z2",
                        "region": "QC"
                  },
                  "name": "Kammys"
            },
            {
                  "distance": 751,
                  "location": {
                        "address": "98 Westminster Ave N",
                        "country": "CA",
                        "formatted_address": "98 Westminster Ave N, Montreal-Ouest QC H4X 1Z2",
                        "locality": "Montreal-Ouest",
                        "postcode": "H4X 1Z2",
                        "region": "QC"
                  },
                  "name": "Emmagination"
            },
            {
                  "distance": 763,
                  "location": {
                        "address": "6707 Sherbrooke Rue O",
                        "country": "CA",
                        "formatted_address": "6707 Sherbrooke Rue O, Montreal QC H4B 1P3",
                        "locality": "Montreal",
                        "postcode": "H4B 1P3",
                        "region": "QC"
                  },
                  "name": "Restaurant de Chou"
            },
            {
                  "distance": 915,
                  "location": {
                        "address": "6810 Saint-Jacques Rue",
                        "country": "CA",
                        "formatted_address": "6810 Saint-Jacques Rue, Montreal QC H4B 1V8",
                        "locality": "Montreal",
                        "postcode": "H4B 1V8",
                        "region": "QC"
                  },
                  "name": "Picasso Serre"
            },
            {
                  "distance": 922,
                  "location": {
                        "address": "6810 Saint-Jacques Rue",
                        "country": "CA",
                        "formatted_address": "6810 Saint-Jacques Rue, Montreal QC H4B 1V8",
                        "locality": "Montreal",
                        "postcode": "H4B 1V8",
                        "region": "QC"
                  },
                  "name": "Brasserie le Manoir NDG"
            }
      ],
      "context": {
            "geo_bounds": {
                  "circle": {
                        "center": {
                              "latitude": 45.45750908,
                              "longitude": -73.63948524
                        },
                        "radius": 1000
                  }
            }
      }
}