{
      "results": [
            {
                  "distance": 590,
                  "location": {
                        "address": "5485 Victoria Ave",
                        "country": "CA",
                        "cross_street": "Saint-Kevin",
                        "formatted_address": "5485 Victoria Ave (Saint-Kevin), Montr\u00e9al QC H3W 2P9",
                        "locality": "Montreal",
                        "postcode": "H3W 2P9",
                        "region": "QC"
                  },
                  "name": "Restaurant Hoai Huong",
                  "popularity": 0.9431420325510976,
                  "price": 1,
                  "rating": 8.5
            },
            {
                  "distance": 872,
                  "location": {
                        "address": "6892 Victoria Ave",
                        "country": "CA",
                        "formatted_address": "6892 Victoria Ave, Montr\u00e9al QC H3W 2T4",
                        "locality": "Montreal",
                        "postcode": "H3W 2T4",
                        "region": "QC"
                  },
                  "name": "Caribbean Curry House",
                  "popularity": 0.9865986941710825,
                  "price": 2,
                  "rating": 8.3
            },
            {
                  "distance": 491,
                  "location": {
                        "address": "4759 Van Horne Ave",
                        "country": "CA",
                        "cross_street": "",
                        "formatted_address": "4759 Van Horne Ave, Montr\u00e9al QC H3W 1H8",
                        "locality": "Montreal",
                        "postcode": "H3W 1H8",
                        "region": "QC"
                  },
                  "name": "Thanjai Restaurant",
                  "popularity": 0.9719317751703255,
                  "price": 2,
                  "rating": 8.1
            },
            {
                  "distance": 797,
                  "location": {
                        "address": "5265 Decarie Blvd",
                        "country": "CA",
                        "cross_street": "Isabella",
                        "formatted_address": "5265 Decarie Blvd (Isabella), Montr\u00e9al QC H3W 3C2",
                        "locality": "Montreal",
                        "postcode": "H3W 3C2",
                        "region": "QC"
                  },
                  "name": "Snowdon Deli",
                  "popularity": 0.9864922407267221,
                  "price": 2,
                  "rating": 7.9
            },
            {
                  "distance": 488,
                  "location": {
                        "address": "5690 Victoria Ave",
                        "country": "CA",
                        "cross_street": "C\u00f4te St-Catherine",
                        "formatted_address": "5690 Victoria Ave (C\u00f4te St-Catherine), Montr\u00e9al QC H3W 2P8",
                        "locality": "Montreal",
                        "postcode": "H3W 2P8",
                        "region": "QC"
                  },
                  "name": "Sen Vang",
                  "popularity": 0.9870363361090083,
                  "price": 2,
                  "rating": 7.9
            },
            {
                  "distance": 829,
                  "location": {
                        "address": "5208 Decarie Blvd",
                        "country": "CA",
                        "cross_street": "",
                        "formatted_address": "5208 Decarie Blvd, Montr\u00e9al QC H3X 2H9",
                        "locality": "Montreal",
                        "postcode": "H3X 2H9",
                        "region": "QC"
                  },
                  "name": "Tropical Paradise",
                  "popularity": 0.9385527062831188,
                  "price": 2,
                  "rating": 7.9
            },
            {
                  "distance": 561,
                  "location": {
                        "address": "5493A Victoria Ave",
                        "country": "CA",
                        "cross_street": "Dupuis",
                        "formatted_address": "5493A Victoria Ave (Dupuis), Montr\u00e9al QC H3W 2P9",
                        "locality": "Montreal",
                        "postcode": "H3W 2P9",
                        "region": "QC"
                  },
                  "name": "Restaurant Jolee",
                  "popularity": 0.9849545798637396,
                  "rating": 7.5
            },
            {
                  "distance": 702,
                  "location": {
                        "address": "6625 Victoria Ave",
                        "country": "CA",
                        "cross_street": "",
                        "formatted_address": "6625 Victoria Ave, Montr\u00e9al QC H3W 2T2",
                        "locality": "Montreal",
                        "postcode": "H3W 2T2",
                        "region": "QC"
                  },
                  "name": "KFC",
                  "popularity": 0.9919450227100681,
                  "price": 1,
                  "rating": 7.4,
                  "store_id": "1257"
            },
            {
                  "distance": 464,
                  "location": {
                        "address": "4795 Van Horne Ave",
                        "country": "CA",
                        "cross_street": "coin Victoria",
                        "formatted_address": "4795 Van Horne Ave (coin Victoria), Montr\u00e9al QC H3W 1H8",
                        "locality": "Montreal",
                        "postcode": "H3W 1H8",
                        "region": "QC"
                  },
                  "name": "Second Cup Coffee Co",
                  "popularity": 0.9732920136260409,
                  "price": 1,
                  "rating": 7.1,
                  "store_id": "3115"
            },
            {
                  "distance": 988,
                  "location": {
                        "address": "5095 Queen Mary Ch",
                        "country": "CA",
                        "cross_street": "Westbury",
                        "formatted_address": "5095 Queen Mary Ch (Westbury), Montr\u00e9al QC H3W 1X4",
                        "locality": "Montreal",
                        "postcode": "H3W 1X4",
                        "region": "QC"
                  },
                  "name": "Tim Hortons",
                  "popularity": 0.9688091408024224,
                  "price": 1,
                  "rating": 6.8
            },
            {
                  "distance": 1011,
                  "location": {
                        "address": "5071 Queen Mary Rd",
                        "country": "CA",
                        "cross_street": "",
                        "formatted_address": "5071 Queen Mary Rd, Montr\u00e9al QC H3W 1X4",
                        "locality": "Montreal",
                        "postcode": "H3W 1X4",
                        "region": "QC"
                  },
                  "name": "Second Cup CAF\u00c9 & Cie avec Pinkberry yogourt glac\u00e9",
                  "popularity": 0.9350870552611658,
                  "price": 1,
                  "rating": 6.4
            },
            {
                  "distance": 3409,
                  "location": {
                        "address": "5177 Decarie Blvd",
                        "country": "CA",
                        "cross_street": "at Cornation",
                        "formatted_address": "5177 Decarie Blvd (at Cornation), Montr\u00e9al QC H3W 3C2",
                        "locality": "Montreal",
                        "postcode": "H3W 3C2",
                        "region": "QC"
                  },
                  "name": "Souvlaki George",
                  "popularity": 0.9824233535200606,
                  "price": 3,
                  "rating": 6.2
            },
            {
                  "distance": 891,
                  "location": {
                        "address": "5180 Decarie Blvd",
                        "country": "CA",
                        "cross_street": "",
                        "formatted_address": "5180 Decarie Blvd, Montr\u00e9al QC H3X 2H9",
                        "locality": "Montreal",
                        "postcode": "H3X 2H9",
                        "region": "QC"
                  },
                  "name": "Wendy's",
                  "popularity": 0.9889170136260409,
                  "price": 1,
                  "rating": 6.1,
                  "store_id": "6630"
            },
            {
                  "distance": 995,
                  "location": {
                        "address": "5155 Queen-Mary Ch",
                        "country": "CA",
                        "cross_street": "Station Snowdon",
                        "formatted_address": "5155 Queen-Mary Ch (Station Snowdon), Montr\u00e9al QC H3W 1X6",
                        "locality": "Montreal",
                        "postcode": "H3W 1X6",
                        "region": "QC"
                  },
                  "name": "McDonald's",
                  "popularity": 0.9941214042392127,
                  "price": 1,
                  "rating": 6.0,
                  "store_id": "13766"
            },
            {
                  "distance": 384,
                  "location": {
                        "address": "5940 Victoria Ave",
                        "country": "CA",
                        "cross_street": "",
                        "formatted_address": "5940 Victoria Ave, Montr\u00e9al QC H3W 2R8",
                        "locality": "Montreal",
                        "postcode": "H3W 2R8",
                        "region": "QC"
                  },
                  "name": "Pinoy Pansitan",
                  "popularity": 0.971647899318698,
                  "price": 2
            },
            {
                  "distance": 425,
                  "location": {
                        "address": "5505 Decarie Blvd",
                        "country": "CA",
                        "cross_street": "",
                        "formatted_address": "5505 Decarie Blvd, Montreal QC H3W 3C7",
                        "locality": "Montreal",
                        "postcode": "H3W 3C7",
                        "region": "QC"
                  },
                  "name": "Vodka Bar Inc",
                  "popularity": 0.7083648750946253,
                  "price": 2
            },
            {
                  "distance": 493,
                  "location": {
                        "address": "4759 Van Horne Ave",
                        "country": "CA",
                        "cross_street": "victoria",
                        "formatted_address": "4759 Van Horne Ave (victoria), Montr\u00e9al QC H3W 1H8",
                        "locality": "Montreal",
                        "postcode": "H3W 1H8",
                        "region": "QC"
                  },
                  "name": "Fireside Steakhouse",
                  "popularity": 0.4522497161241484,
                  "price": 4
            },
            {
                  "distance": 520,
                  "location": {
                        "address": "4735 Van Horne Ave",
                        "country": "CA",
                        "cross_street": "",
                        "formatted_address": "4735 Van Horne Ave, Montr\u00e9al QC H3W 1H8",
                        "locality": "Montreal",
                        "postcode": "H3W 1H8",
                        "region": "QC"
                  },
                  "name": "Restaurant Bahay Kubo",
                  "popularity": 0.9046650264950795,
                  "price": 2
            },
            {
                  "distance": 594,
                  "location": {
                        "address": "4655 Van Horne Ave",
                        "country": "CA",
                        "cross_street": "",
                        "formatted_address": "4655 Van Horne Ave, Montr\u00e9al QC H3W 1H8",
                        "locality": "Montreal",
                        "postcode": "H3W 1H8",
                        "region": "QC"
                  },
                  "name": "Domino's Pizza",
                  "popularity": 0.9313730128690386,
                  "price": 1,
                  "store_id": "10707"
            },
            {
                  "distance": 619,
                  "location": {
                        "address": "5487 Victoria Ave",
                        "country": "CA",
                        "cross_street": "",
                        "formatted_address": "5487 Victoria Ave, Montr\u00e9al QC H3W 2P9",
                        "locality": "Montreal",
                        "postcode": "H3W 2P9",
                        "region": "QC"
                  },
                  "name": "Pizza Gourmetti",
                  "popularity": 0.9082962717638153,
                  "price": 3
            },
            {
                  "distance": 723,
                  "location": {
                        "address": "4615 Van Horne Ave",
                        "country": "CA",
                        "cross_street": "",
                        "formatted_address": "4615 Van Horne Ave, Montr\u00e9al QC H3W 1H8",
                        "locality": "Montreal",
                        "postcode": "H3W 1H8",
                        "region": "QC"
                  },
                  "name": "Frontline Restaurant Enr",
                  "popularity": 0.2004518357305072,
                  "price": 2
            },
            {
                  "distance": 807,
                  "location": {
                        "address": "6939 Blvd D\u00e9carie",
                        "country": "CA",
                        "cross_street": "",
                        "formatted_address": "6939 Blvd D\u00e9carie, Montr\u00e9al QC H3W 3C1",
                        "locality": "Montreal",
                        "postcode": "H3W 3C1",
                        "region": "QC"
                  },
                  "name": "Blandino",
                  "popularity": 0.9300600870552612,
                  "price": 2
            },
            {
                  "distance": 949,
                  "location": {
                        "address": "6900 Decarie Blvd",
                        "address_extended": "M240",
                        "country": "CA",
                        "cross_street": "",
                        "formatted_address": "6900 Decarie Blvd, Montr\u00e9al QC H3X 2T8",
                        "locality": "Montreal",
                        "postcode": "H3X 2T8",
                        "region": "QC"
                  },
                  "name": "Elna Bistro",
                  "popularity": 0.96875
            },
            {
                  "distance": 1029,
                  "location": {
                        "address": "5001 Queen Mary Ch",
                        "country": "CA",
                        "cross_street": "",
                        "formatted_address": "5001 Queen Mary Ch, Montreal QC H3W 1X4",
                        "locality": "Montreal",
                        "postcode": "H3W 1X4",
                        "region": "QC"
                  },
                  "name": "Restaurant Ermitage",
                  "popularity": 0.6130653860711582
            },
            {
                  "distance": 414,
                  "location": {
                        "address": "5889A Victoria Ave",
                        "country": "CA",
                        "formatted_address": "5889A Victoria Ave, Montreal QC H3W 2R6",
                        "locality": "Montreal",
                        "postcode": "H3W 2R6",
                        "region": "QC"
                  },
                  "name": "Pizza Mima"
            },
            {
                  "distance": 421,
                  "location": {
                        "address": "5997 Victoria Ave",
                        "country": "CA",
                        "formatted_address": "5997 Victoria Ave, Montreal QC H3W 2R9",
                        "locality": "Montreal",
                        "postcode": "H3W 2R9",
                        "region": "QC"
                  },
                  "name": "Restaurant Al's C\u00f4te-des-Neiges"
            },
            {
                  "distance": 421,
                  "location": {
                        "address": "5987 Victoria Ave",
                        "country": "CA",
                        "formatted_address": "5987 Victoria Ave, Montreal QC H3W 2R9",
                        "locality": "Montreal",
                        "postcode": "H3W 2R9",
                        "region": "QC"
                  },
                  "name": "Restaurant Dev"
            },
            {
                  "distance": 450,
                  "location": {
                        "address": "5795 Victoria Ave",
                        "country": "CA",
                        "formatted_address": "5795 Victoria Ave, Montreal QC H3W 2R3",
                        "locality": "Montreal",
                        "postcode": "H3W 2R3",
                        "region": "QC"
                  },
                  "name": "Pizza Gourmetti"
            },
            {
                  "distance": 469,
                  "location": {
                        "address": "6320 Victoria Ave",
                        "country": "CA",
                        "formatted_address": "6320 Victoria Ave, Montreal QC H3W 2S4",
                        "locality": "Montreal",
                        "postcode": "H3W 2S4",
                        "region": "QC"
                  },
                  "name": "Kusinamiya Cuisine Amia"
            },
            {
                  "distance": 481,
                  "location": {
                        "address": "6445 Decarie Blvd",
                        "country": "CA",
                        "formatted_address": "6445 Decarie Blvd, Montreal QC H3W 3E1",
                        "locality": "Montreal",
                        "postcode": "H3W 3E1",
                        "region": "QC"
                  },
                  "name": "Luzzatto"
            },
            {
                  "distance": 518,
                  "location": {
                        "address": "4735 Van Horne Ave",
                        "country": "CA",
                        "formatted_address": "4735 Van Horne Ave, Montreal QC H3W 1H8",
                        "locality": "Montreal",
                        "postcode": "H3W 1H8",
                        "region": "QC"
                  },
                  "name": "Restaurant Kawali"
            },
            {
                  "distance": 630,
                  "location": {
                        "address": "5473 Victoria Ave",
                        "country": "CA",
                        "formatted_address": "5473 Victoria Ave, Montreal QC H3W 2P7",
                        "locality": "Montreal",
                        "postcode": "H3W 2P7",
                        "region": "QC"
                  },
                  "name": "Restaurant Pho Bac"
            },
            {
                  "distance": 809,
                  "location": {
                        "address": "6456 MacDonald Ave",
                        "country": "CA",
                        "formatted_address": "6456 MacDonald Ave, Hampstead QC H3X 2X2",
                        "locality": "Hampstead",
                        "postcode": "H3X 2X2",
                        "region": "QC"
                  },
                  "name": "May's Gf"
            },
            {
                  "distance": 830,
                  "location": {
                        "address": "5220 Decarie Blvd",
                        "country": "CA",
                        "formatted_address": "5220 Decarie Blvd, Montreal QC H3X 2H9",
                        "locality": "Montreal",
                        "postcode": "H3X 2H9",
                        "region": "QC"
                  },
                  "name": "Ristorante Riventino Decarie"
            },
            {
                  "distance": 876,
                  "location": {
                        "address": "5320 MacDonald Ave",
                        "country": "CA",
                        "formatted_address": "5320 MacDonald Ave, Cote Saint-Luc QC H3X 2W2",
                        "locality": "Cote Saint-Luc",
                        "postcode": "H3X 2W2",
                        "region": "QC"
                  },
                  "name": "Sam Queen"
            }
      ],
      "context": {
            "geo_bounds": {
                  "circle": {
                        "center": {
                              "latitude": 45.49049442,
                              "longitude": -73.63852233
                        },
                        "radius": 1000
                  }
            }
      }
}