{
      "results": [
            {
                  "distance": 398,
                  "location": {
                        "address": "124 Saint- Viateur Rue O",
                        "country": "CA",
                        "cross_street": "coin Waverly",
                        "formatted_address": "124 Saint- Viateur Rue O (coin Waverly), Montr\u00e9al QC H2T 2L1",
                        "locality": "Montreal",
                        "postcode": "H2T 2L1",
                        "region": "QC"
                  },
                  "name": "Caf\u00e9 Olimpico",
                  "popularity": 0.9736468584405753,
                  "price": 1,
                  "rating": 9.2
            },
            {
                  "distance": 497,
                  "location": {
                        "address": "9 Fairmount Ave E",
                        "country": "CA",
                        "cross_street": "coin Fairmount",
                        "formatted_address": "9 Fairmount Ave E (coin Fairmount), Montr\u00e9al QC H2T 1C7",
                        "locality": "Montreal",
                        "postcode": "H2T 1C7",
                        "region": "QC"
                  },
                  "name": "Larry's",
                  "popularity": 0.9267955147615443,
                  "price": 2,
                  "rating": 9.2
            },
            {
                  "distance": 599,
                  "location": {
                        "address": "263 Saint- Viateur Rue O",
                        "country": "CA",
                        "cross_street": "entre Jeanne-Mance & du Parc",
                        "formatted_address": "263 Saint- Viateur Rue O (entre Jeanne-Mance & du Parc), Montr\u00e9al QC H2V 1Y1",
                        "locality": "Montreal",
                        "postcode": "H2V 1Y1",
                        "region": "QC"
                  },
                  "name": "St-Viateur Bagel",
                  "popularity": 0.9821986184708554,
                  "price": 1,
                  "rating": 9.1
            },
            {
                  "distance": 678,
                  "location": {
                        "address": "5357 Ave du Parc",
                        "country": "CA",
                        "cross_street": "entre St-Viateur & Fairmount",
                        "formatted_address": "5357 Ave du Parc (entre St-Viateur & Fairmount), Montr\u00e9al QC H2V 4G9",
                        "locality": "Montreal",
                        "postcode": "H2V 4G9",
                        "region": "QC"
                  },
                  "name": "Milos Restaurant",
                  "popularity": 0.9470098410295231,
                  "price": 4,
                  "rating": 9.1
            },
            {
                  "distance": 880,
                  "location": {
                        "address": "809 Laurier Ave E",
                        "country": "CA",
                        "formatted_address": "809 Laurier Ave E, Montr\u00e9al QC H2J 1G2",
                        "locality": "Montreal",
                        "postcode": "H2J 1G2",
                        "region": "QC"
                  },
                  "name": "Fous Desserts",
                  "popularity": 0.9535389856169568,
                  "rating": 9.0
            },
            {
                  "distance": 919,
                  "location": {
                        "address": "500 Beaubien Rue E",
                        "country": "CA",
                        "cross_street": "",
                        "formatted_address": "500 Beaubien Rue E, Montr\u00e9al QC H2S 1S5",
                        "locality": "Montreal",
                        "postcode": "H2S 1S5",
                        "region": "QC"
                  },
                  "name": "Caf\u00e9 Pista",
                  "popularity": 0.9594294095382286,
                  "price": 1,
                  "rating": 8.9
            },
            {
                  "distance": 217,
                  "location": {
                        "address": "5761 Saint-Laurent Blvd",
                        "country": "CA",
                        "cross_street": "coin Bernard",
                        "formatted_address": "5761 Saint-Laurent Blvd (coin Bernard), Montr\u00e9al QC H2T 1S9",
                        "locality": "Montreal",
                        "postcode": "H2T 1S9",
                        "region": "QC"
                  },
                  "name": "Pastel Rita",
                  "popularity": 0.9478141559424679,
                  "price": 1,
                  "rating": 8.9
            },
            {
                  "distance": 829,
                  "location": {
                        "address": "6230 Saint-Hubert Rue",
                        "country": "CA",
                        "cross_street": "",
                        "formatted_address": "6230 Saint-Hubert Rue, Montr\u00e9al QC H2S 2M2",
                        "locality": "Montreal",
                        "postcode": "H2S 2M2",
                        "region": "QC"
                  },
                  "name": "Montreal Plaza",
                  "popularity": 0.9133350681302044,
                  "price": 2,
                  "rating": 8.8
            },
            {
                  "distance": 763,
                  "location": {
                        "address": "6389 Saint-Laurent Blvd",
                        "country": "CA",
                        "formatted_address": "6389 Saint-Laurent Blvd, Montr\u00e9al QC H2S 3C3",
                        "locality": "Montreal",
                        "postcode": "H2S 3C3",
                        "region": "QC"
                  },
                  "name": "Pastaga",
                  "popularity": 0.9347085541256623,
                  "price": 2,
                  "rating": 8.8
            },
            {
                  "distance": 88,
                  "location": {
                        "address": "5605 Ave de Gasp\u00e9",
                        "country": "CA",
                        "cross_street": "coin St-Viateur Est",
                        "formatted_address": "5605 Ave de Gasp\u00e9 (coin St-Viateur Est), Montr\u00e9al QC H2T 2A4",
                        "locality": "Montreal",
                        "postcode": "H2T 2A4",
                        "region": "QC"
                  },
                  "name": "Caf\u00e9 Falco",
                  "popularity": 0.942952781983346,
                  "price": 2,
                  "rating": 8.7
            },
            {
                  "distance": 323,
                  "location": {
                        "address": "5836 Saint-Laurent Blvd",
                        "country": "CA",
                        "cross_street": "",
                        "formatted_address": "5836 Saint-Laurent Blvd, Montr\u00e9al QC H2T 1T3",
                        "locality": "Montreal",
                        "postcode": "H2T 1T3",
                        "region": "QC"
                  },
                  "name": "Le Butterblume",
                  "popularity": 0.9501443035579107,
                  "price": 1,
                  "rating": 8.6
            },
            {
                  "distance": 279,
                  "location": {
                        "address": "54 Saint-Viateur Rue O",
                        "country": "CA",
                        "cross_street": "",
                        "formatted_address": "54 Saint-Viateur Rue O, Montr\u00e9al QC H2T 2K8",
                        "locality": "Montreal",
                        "postcode": "H2T 2K8",
                        "region": "QC"
                  },
                  "name": "Falafel Yoni",
                  "popularity": 0.9097038228614686,
                  "price": 1,
                  "rating": 8.6
            },
            {
                  "distance": 267,
                  "location": {
                        "address": "52 Saint-Viateur Rue O",
                        "country": "CA",
                        "cross_street": "",
                        "formatted_address": "52 Saint-Viateur Rue O, Montr\u00e9al QC H2T 2K8",
                        "locality": "Montreal",
                        "postcode": "H2T 2K8",
                        "region": "QC"
                  },
                  "name": "Bishop & Bagg",
                  "popularity": 0.9365064345193036,
                  "price": 2,
                  "rating": 8.6
            },
            {
                  "distance": 899,
                  "location": {
                        "address": "5200 Hutchison Rue",
                        "country": "CA",
                        "cross_street": "coin Fairmount",
                        "formatted_address": "5200 Hutchison Rue (coin Fairmount), Montr\u00e9al QC H2V 4B3",
                        "locality": "Montreal",
                        "postcode": "H2V 4B3",
                        "region": "QC"
                  },
                  "name": "La Croissanterie Figaro",
                  "popularity": 0.9416398561695685,
                  "price": 1,
                  "rating": 8.6
            },
            {
                  "distance": 759,
                  "location": {
                        "address": "5240 Ave du Parc",
                        "country": "CA",
                        "cross_street": "Fairmount",
                        "formatted_address": "5240 Ave du Parc (Fairmount), Montr\u00e9al QC H2V 4G7",
                        "locality": "Montreal",
                        "postcode": "H2V 4G7",
                        "region": "QC"
                  },
                  "name": "Th\u00e9\u00e2tre Fairmount",
                  "popularity": 0.9877696820590461,
                  "rating": 8.6
            },
            {
                  "distance": 436,
                  "location": {
                        "address": "176 Saint Viateur Rue O",
                        "address_extended": "# 174",
                        "country": "CA",
                        "cross_street": "",
                        "formatted_address": "176 Saint Viateur Rue O, Montr\u00e9al QC H2T 2L3",
                        "locality": "Montreal",
                        "postcode": "H2T 2L3",
                        "region": "QC"
                  },
                  "name": "\u00cele Flottante",
                  "popularity": 0.891583080999243,
                  "price": 3,
                  "rating": 8.5
            },
            {
                  "distance": 838,
                  "location": {
                        "address": "6414 Saint-Denis Rue",
                        "country": "CA",
                        "cross_street": "Rue Beaubien",
                        "formatted_address": "6414 Saint-Denis Rue (Rue Beaubien), Montr\u00e9al QC H2S 2R7",
                        "locality": "Montreal",
                        "postcode": "H2S 2R7",
                        "region": "QC"
                  },
                  "name": "Restaurant Pho Tay Ho",
                  "popularity": 0.944525927327782,
                  "price": 1,
                  "rating": 8.5
            },
            {
                  "distance": 272,
                  "location": {
                        "address": "5788 Saint-Laurent Blvd",
                        "country": "CA",
                        "cross_street": "Bernard",
                        "formatted_address": "5788 Saint-Laurent Blvd (Bernard), Montr\u00e9al QC H2T 1S8",
                        "locality": "Montreal",
                        "postcode": "H2T 1S8",
                        "region": "QC"
                  },
                  "name": "Ping Pong Club",
                  "popularity": 0.9317869984859954,
                  "price": 2,
                  "rating": 8.4
            },
            {
                  "distance": 495,
                  "location": {
                        "address": "5207 Saint-Laurent Blvd",
                        "country": "CA",
                        "cross_street": "",
                        "formatted_address": "5207 Saint-Laurent Blvd, Montr\u00e9al QC H2T 1S4",
                        "locality": "Montreal",
                        "postcode": "H2T 1S4",
                        "region": "QC"
                  },
                  "name": "Tsukuyomi Ramen",
                  "popularity": 0.9078113171839516,
                  "rating": 8.3
            },
            {
                  "distance": 683,
                  "location": {
                        "address": "351 Laurier Ave E",
                        "country": "CA",
                        "cross_street": "coin Drolet",
                        "formatted_address": "351 Laurier Ave E (coin Drolet), Montr\u00e9al QC H2T 1G7",
                        "locality": "Montreal",
                        "postcode": "H2T 1G7",
                        "region": "QC"
                  },
                  "name": "Restaurant Chez Claudette",
                  "popularity": 0.9536454390613172,
                  "price": 1,
                  "rating": 8.3
            },
            {
                  "distance": 595,
                  "location": {
                        "address": "5150 St-Laurent Blvd",
                        "country": "CA",
                        "cross_street": "",
                        "formatted_address": "5150 St-Laurent Blvd, Montr\u00e9al QC H2T 1R8",
                        "locality": "Montreal",
                        "postcode": "H2T 1R8",
                        "region": "QC"
                  },
                  "name": "Cin\u00e9ma Moderne",
                  "popularity": 0.9271267032551098,
                  "price": 1,
                  "rating": 8.3
            },
            {
                  "distance": 871,
                  "location": {
                        "address": "1057 Bernard Ave",
                        "country": "CA",
                        "cross_street": "entre Durocher & Querbes",
                        "formatted_address": "1057 Bernard Ave (entre Durocher & Querbes), Outremont QC H2V 1V1",
                        "locality": "Outremont",
                        "postcode": "H2V 1V1",
                        "region": "QC"
                  },
                  "name": "Lester's Aaa Delicatessen",
                  "popularity": 0.9608606169568509,
                  "price": 2,
                  "rating": 8.3
            },
            {
                  "distance": 937,
                  "location": {
                        "address": "520 Beaubien Rue E",
                        "country": "CA",
                        "cross_street": "De Chateaubriand",
                        "formatted_address": "520 Beaubien Rue E (De Chateaubriand), Montr\u00e9al QC H2S 1S5",
                        "locality": "Montreal",
                        "postcode": "H2S 1S5",
                        "region": "QC"
                  },
                  "name": "Restaurant El Chalateco",
                  "popularity": 0.9479679220287661,
                  "rating": 8.2
            },
            {
                  "distance": 476,
                  "location": {
                        "address": "180 Saint- Viateur Rue O",
                        "country": "CA",
                        "cross_street": "angle Esplanade",
                        "formatted_address": "180 Saint- Viateur Rue O (angle Esplanade), Montr\u00e9al QC H2T 2L3",
                        "locality": "Montreal",
                        "postcode": "H2T 2L3",
                        "region": "QC"
                  },
                  "name": "Club Social",
                  "popularity": 0.9385408781226343,
                  "price": 1,
                  "rating": 8.2
            },
            {
                  "distance": 554,
                  "location": {
                        "address": "34 Fairmount Ave O",
                        "country": "CA",
                        "cross_street": "coin Clark",
                        "formatted_address": "34 Fairmount Ave O (coin Clark), Montr\u00e9al QC H2T 2M1",
                        "locality": "Montreal",
                        "postcode": "H2T 2M1",
                        "region": "QC"
                  },
                  "name": "Wilensky's Light Lunch",
                  "popularity": 0.9229631907645723,
                  "price": 1,
                  "rating": 8.1
            },
            {
                  "distance": 641,
                  "location": {
                        "address": "5611 Ave du Parc",
                        "country": "CA",
                        "cross_street": "St-Viateur",
                        "formatted_address": "5611 Ave du Parc (St-Viateur), Montr\u00e9al QC H2V 4H2",
                        "locality": "Montreal",
                        "postcode": "H2V 4H2",
                        "region": "QC"
                  },
                  "name": "Ta Chido",
                  "popularity": 0.9069360333080999,
                  "price": 1,
                  "rating": 8.1
            },
            {
                  "distance": 749,
                  "location": {
                        "address": "115 Laurier Ave O",
                        "country": "CA",
                        "cross_street": "entre St-Urbain & De l'Esplanade",
                        "formatted_address": "115 Laurier Ave O (entre St-Urbain & De l'Esplanade), Montr\u00e9al QC H2T 2N6",
                        "locality": "Montreal",
                        "postcode": "H2T 2N6",
                        "region": "QC"
                  },
                  "name": "Bar Henrietta",
                  "popularity": 0.9364591218773657,
                  "price": 2,
                  "rating": 8.1
            },
            {
                  "distance": 806,
                  "location": {
                        "address": "35 Beaubien Rue E",
                        "country": "CA",
                        "cross_street": "",
                        "formatted_address": "35 Beaubien Rue E, Montr\u00e9al QC H2S 1P7",
                        "locality": "Montreal",
                        "postcode": "H2S 1P7",
                        "region": "QC"
                  },
                  "name": "Moustache Caf\u00e9",
                  "popularity": 0.9216857494322483,
                  "price": 1,
                  "rating": 8.1
            },
            {
                  "distance": 635,
                  "location": {
                        "address": "142 Fairmount Ave O",
                        "country": "CA",
                        "cross_street": "",
                        "formatted_address": "142 Fairmount Ave O, Montr\u00e9al QC H2T 2M5",
                        "locality": "Montreal",
                        "postcode": "H2T 2M5",
                        "region": "QC"
                  },
                  "name": "La Khaima",
                  "popularity": 0.9312310749432249,
                  "price": 2,
                  "rating": 8.0
            },
            {
                  "distance": 853,
                  "location": {
                        "address": "4873 Saint-Laurent Blvd",
                        "country": "CA",
                        "cross_street": "entre Villeneuve & St-Joseph",
                        "formatted_address": "4873 Saint-Laurent Blvd (entre Villeneuve & St-Joseph), Montr\u00e9al QC H2T 1R6",
                        "locality": "Montreal",
                        "postcode": "H2T 1R6",
                        "region": "QC"
                  },
                  "name": "Casa del Popolo",
                  "popularity": 0.9028789742619228,
                  "price": 2,
                  "rating": 8.0
            },
            {
                  "distance": 746,
                  "location": {
                        "address": "104 Laurier Ave O",
                        "country": "CA",
                        "formatted_address": "104 Laurier Ave O, Montr\u00e9al QC H2T 2N7",
                        "locality": "Montreal",
                        "postcode": "H2T 2N7",
                        "region": "QC"
                  },
                  "name": "Restaurant la Chronique",
                  "popularity": 0.9418764193792581,
                  "price": 3,
                  "rating": 8.0
            },
            {
                  "distance": 878,
                  "location": {
                        "address": "6527 St Laurent Blvd",
                        "country": "CA",
                        "cross_street": "Beaubien",
                        "formatted_address": "6527 St Laurent Blvd (Beaubien), Montr\u00e9al QC H2S 3C3",
                        "locality": "Montreal",
                        "postcode": "H2S 3C3",
                        "region": "QC"
                  },
                  "name": "Plougastel",
                  "popularity": 0.8961487509462528,
                  "price": 1,
                  "rating": 8.0
            },
            {
                  "distance": 709,
                  "location": {
                        "address": "5938 Saint-Hubert Rue",
                        "country": "CA",
                        "cross_street": "",
                        "formatted_address": "5938 Saint-Hubert Rue, Montr\u00e9al QC H2S 2L7",
                        "locality": "Montreal",
                        "postcode": "H2S 2L7",
                        "region": "QC"
                  },
                  "name": "Restaurant Casa Alentejo",
                  "popularity": 0.9143522899318698,
                  "price": 2,
                  "rating": 7.9
            },
            {
                  "distance": 575,
                  "location": {
                        "address": "351 Rue de Bellechasse",
                        "country": "CA",
                        "cross_street": "btwn Drolet & St-Denis",
                        "formatted_address": "351 Rue de Bellechasse (btwn Drolet & St-Denis), Montr\u00e9al QC H2S 1X1",
                        "locality": "Montreal",
                        "postcode": "H2S 1X1",
                        "region": "QC"
                  },
                  "name": "Elio Pizzeria",
                  "popularity": 0.9754683951551855,
                  "price": 1,
                  "rating": 7.9
            },
            {
                  "distance": 938,
                  "location": {
                        "address": "365 Laurier Ave O",
                        "country": "CA",
                        "cross_street": "Parc",
                        "formatted_address": "365 Laurier Ave O (Parc), Montr\u00e9al QC H2V 2K5",
                        "locality": "Montreal",
                        "postcode": "H2V 2K5",
                        "region": "QC"
                  },
                  "name": "Il Pagliaccio",
                  "popularity": 0.9195566805450416,
                  "price": 2,
                  "rating": 7.9
            }
      ],
      "context": {
            "geo_bounds": {
                  "circle": {
                        "center": {
                              "latitude": 45.52751293,
                              "longitude": -73.59879076
                        },
                        "radius": 1000
                  }
            }
      }
}