{
      "results": [
            {
                  "distance": 814,
                  "location": {
                        "address": "3721 Notre-Dame Rue O",
                        "country": "CA",
                        "cross_street": "entre Bourget & Turgeon",
                        "formatted_address": "3721 Notre-Dame Rue O (entre Bourget & Turgeon), Montr\u00e9al QC H4C 1P8",
                        "locality": "Montreal",
                        "postcode": "H4C 1P8",
                        "region": "QC"
                  },
                  "name": "Satay Brothers",
                  "popularity": 0.9822577592732779,
                  "price": 2,
                  "rating": 8.9
            },
            {
                  "distance": 835,
                  "location": {
                        "address": "4006 Sainte-Catherine Rue O",
                        "country": "CA",
                        "cross_street": "coin Atwater",
                        "formatted_address": "4006 Sainte-Catherine Rue O (coin Atwater), Westmount QC H3Z 1P2",
                        "locality": "Westmount",
                        "postcode": "H3Z 1P2",
                        "region": "QC"
                  },
                  "name": "Imadake",
                  "popularity": 0.9621822690638562,
                  "price": 2,
                  "rating": 8.7
            },
            {
                  "distance": 1010,
                  "location": {
                        "address": "512 Atwater Ave",
                        "country": "CA",
                        "cross_street": "Notre-Dame",
                        "formatted_address": "512 Atwater Ave (Notre-Dame), Montr\u00e9al QC H4C 2G5",
                        "locality": "Montreal",
                        "postcode": "H4C 2G5",
                        "region": "QC"
                  },
                  "name": "Atwater Cocktail Club",
                  "popularity": 0.969412376987131,
                  "price": 3,
                  "rating": 8.7
            },
            {
                  "distance": 850,
                  "location": {
                        "address": "3618 Notre-Dame Rue O",
                        "country": "CA",
                        "cross_street": "",
                        "formatted_address": "3618 Notre-Dame Rue O, Montr\u00e9al QC H4C 1P5",
                        "locality": "Montreal",
                        "postcode": "H4C 1P5",
                        "region": "QC"
                  },
                  "name": "Sumac",
                  "popularity": 0.9393806775170326,
                  "price": 2,
                  "rating": 8.5
            },
            {
                  "distance": 911,
                  "location": {
                        "address": "3502 Notre-Dame Rue O",
                        "country": "CA",
                        "cross_street": "",
                        "formatted_address": "3502 Notre-Dame Rue O, Montr\u00e9al QC H4C 1P4",
                        "locality": "Montreal",
                        "postcode": "H4C 1P4",
                        "region": "QC"
                  },
                  "name": "Eko Sushi",
                  "popularity": 0.925316994700984,
                  "price": 2,
                  "rating": 8.5
            },
            {
                  "distance": 1012,
                  "location": {
                        "address": "3001 Notre-Dame Rue O",
                        "country": "CA",
                        "cross_street": "coin Atwater",
                        "formatted_address": "3001 Notre-Dame Rue O (coin Atwater), Montr\u00e9al QC H4C 1N9",
                        "locality": "Montreal",
                        "postcode": "H4C 1N9",
                        "region": "QC"
                  },
                  "name": "Foiegwa",
                  "popularity": 0.9437807532172596,
                  "price": 3,
                  "rating": 8.2
            },
            {
                  "distance": 768,
                  "location": {
                        "address": "4024B Sainte Catherine Rue O",
                        "country": "CA",
                        "cross_street": "",
                        "formatted_address": "4024B Sainte Catherine Rue O, Westmount QC H3Z 1P2",
                        "locality": "Westmount",
                        "postcode": "H3Z 1P2",
                        "region": "QC"
                  },
                  "name": "Sparta Rotisserie&Grill",
                  "popularity": 0.9783013019218847,
                  "price": 2,
                  "rating": 8.1
            },
            {
                  "distance": 764,
                  "location": {
                        "address": "3068 Saint-Antoine Rue O",
                        "country": "CA",
                        "cross_street": "Avenue Marin",
                        "formatted_address": "3068 Saint-Antoine Rue O (Avenue Marin), Montr\u00e9al QC H4C 1A5",
                        "locality": "Montreal",
                        "postcode": "H4C 1A5",
                        "region": "QC"
                  },
                  "name": "Cafe Joe",
                  "popularity": 0.8828302422407267,
                  "price": 1,
                  "rating": 7.8
            },
            {
                  "distance": 955,
                  "location": {
                        "address": "3041 Notre-Dame Rue O",
                        "country": "CA",
                        "cross_street": "coin Greene",
                        "formatted_address": "3041 Notre-Dame Rue O (coin Greene), Montr\u00e9al QC H4C 1N9",
                        "locality": "Montreal",
                        "postcode": "H4C 1N9",
                        "region": "QC"
                  },
                  "name": "Green Spot",
                  "popularity": 0.9889998107494322,
                  "price": 1,
                  "rating": 7.6
            },
            {
                  "distance": 877,
                  "location": {
                        "address": "3568 Notre-Dame Rue O",
                        "country": "CA",
                        "cross_street": "coin Rose de Lima",
                        "formatted_address": "3568 Notre-Dame Rue O (coin Rose de Lima), Montr\u00e9al QC H4C 1P4",
                        "locality": "Montreal",
                        "postcode": "H4C 1P4",
                        "region": "QC"
                  },
                  "name": "Restaurant Nozy",
                  "popularity": 0.9039435087055261,
                  "price": 2,
                  "rating": 7.2
            },
            {
                  "distance": 1709,
                  "location": {
                        "address": "1500 Atwater Ave",
                        "address_extended": "S-04",
                        "country": "CA",
                        "cross_street": "in Station Guy-Concordia",
                        "formatted_address": "1500 Atwater Ave (in Station Guy-Concordia), Montr\u00e9al QC H3Z 1X5",
                        "locality": "Montreal",
                        "postcode": "H3Z 1X5",
                        "region": "QC"
                  },
                  "name": "P\u00e2tisserie Cocobun Atwater",
                  "popularity": 0.8690740915972748,
                  "price": 1,
                  "rating": 6.7
            },
            {
                  "distance": 127,
                  "location": {
                        "address": "4435 Sainte-Catherine Rue O",
                        "country": "CA",
                        "cross_street": "",
                        "formatted_address": "4435 Sainte-Catherine Rue O, Westmount QC H3Z 1R5",
                        "locality": "Westmount",
                        "postcode": "H3Z 1R5",
                        "region": "QC"
                  },
                  "name": "Nagoya Sushi",
                  "popularity": 0.9423434593924365,
                  "price": 2,
                  "rating": 6.7
            },
            {
                  "distance": 898,
                  "location": {
                        "address": "2313 Sainte-Catherine Rue O",
                        "country": "CA",
                        "cross_street": "",
                        "formatted_address": "2313 Sainte-Catherine Rue O, Montr\u00e9al QC H3H 1N2",
                        "locality": "Montreal",
                        "postcode": "H3H 1N2",
                        "region": "QC"
                  },
                  "name": "A&W Restaurant",
                  "popularity": 0.9711629447388342,
                  "price": 1,
                  "rating": 6.7,
                  "store_id": "5587"
            },
            {
                  "distance": 463,
                  "location": {
                        "address": "1232 Greene Ave",
                        "country": "CA",
                        "cross_street": "Ste-Catherine",
                        "formatted_address": "1232 Greene Ave (Ste-Catherine), Montr\u00e9al QC H3Z 2A3",
                        "locality": "Montreal",
                        "postcode": "H3Z 2A3",
                        "region": "QC"
                  },
                  "name": "Restaurant Kashima",
                  "popularity": 0.14135151890886546,
                  "price": 2,
                  "rating": 6.6
            },
            {
                  "distance": 992,
                  "location": {
                        "address": "357 Victoria Ave",
                        "country": "CA",
                        "cross_street": "Sommerville",
                        "formatted_address": "357 Victoria Ave (Sommerville), Westmount QC H3Z 2N1",
                        "locality": "Westmount",
                        "postcode": "H3Z 2N1",
                        "region": "QC"
                  },
                  "name": "Importations Cafe Creme",
                  "popularity": 0.8642281463112214,
                  "price": 1,
                  "rating": 6.0
            },
            {
                  "distance": 980,
                  "location": {
                        "address": "3009 Notre Dame Rue O",
                        "country": "CA",
                        "cross_street": "Atwater",
                        "formatted_address": "3009 Notre Dame Rue O (Atwater), Montr\u00e9al QC H4C 1N9",
                        "locality": "Montreal",
                        "postcode": "H4C 1N9",
                        "region": "QC"
                  },
                  "name": "Thai Express",
                  "popularity": 0.9009391559424679,
                  "price": 2,
                  "rating": 6.0,
                  "store_id": "68"
            },
            {
                  "distance": 938,
                  "location": {
                        "address": "4401 Notre-Dame Rue O",
                        "country": "CA",
                        "cross_street": "Beaudoin",
                        "formatted_address": "4401 Notre-Dame Rue O (Beaudoin), Montr\u00e9al QC H4C 1S2",
                        "locality": "Montreal",
                        "postcode": "H4C 1S2",
                        "region": "QC"
                  },
                  "name": "Le T\u00e9quila Bar",
                  "popularity": 0.929515991672975,
                  "price": 1,
                  "rating": 5.7
            },
            {
                  "distance": 852,
                  "location": {
                        "address": "1500 Atwater Ave",
                        "address_extended": "# 8810",
                        "country": "CA",
                        "formatted_address": "1500 Atwater Ave, Montr\u00e9al QC H3Z 1X5",
                        "locality": "Montreal",
                        "postcode": "H3Z 1X5",
                        "region": "QC"
                  },
                  "name": "McDonald's",
                  "popularity": 0.9969001859888407,
                  "price": 1,
                  "rating": 5.7
            },
            {
                  "distance": 922,
                  "location": {
                        "address": "2313 Sainte-Catherine Rue O",
                        "country": "CA",
                        "cross_street": "Atwater",
                        "formatted_address": "2313 Sainte-Catherine Rue O (Atwater), Montr\u00e9al QC H3H 1N2",
                        "locality": "Montreal",
                        "postcode": "H3H 1N2",
                        "region": "QC"
                  },
                  "name": "Forum de Montr\u00e9al",
                  "popularity": 0.9844341408024224,
                  "rating": 5.6
            },
            {
                  "distance": 851,
                  "location": {
                        "address": "700 Atwater Ave",
                        "country": "CA",
                        "cross_street": "coin St-Jacques",
                        "formatted_address": "700 Atwater Ave (coin St-Jacques), Montr\u00e9al QC H4C 2G9",
                        "locality": "Montreal",
                        "postcode": "H4C 2G9",
                        "region": "QC"
                  },
                  "name": "Tim Hortons",
                  "popularity": 0.9925955715367146,
                  "price": 1,
                  "rating": 5.6
            },
            {
                  "distance": 983,
                  "location": {
                        "address": "3026 Notre-Dame Rue O",
                        "country": "CA",
                        "cross_street": "Greene",
                        "formatted_address": "3026 Notre-Dame Rue O (Greene), Montr\u00e9al QC H4C 1P1",
                        "locality": "Montreal",
                        "postcode": "H4C 1P1",
                        "region": "QC"
                  },
                  "name": "McDonald's",
                  "popularity": 0.9893073429220288,
                  "price": 1,
                  "rating": 4.8,
                  "store_id": "26035"
            },
            {
                  "distance": 153,
                  "location": {
                        "address": "4419 Sainte-Catherine Rue O",
                        "country": "CA",
                        "cross_street": "Kensington",
                        "formatted_address": "4419 Sainte-Catherine Rue O (Kensington), Westmount QC H3Z 1R5",
                        "locality": "Westmount",
                        "postcode": "H3Z 1R5",
                        "region": "QC"
                  },
                  "name": "Copparoma Cafe",
                  "popularity": 0.8667079975201488,
                  "price": 1
            },
            {
                  "distance": 587,
                  "location": {
                        "address": "4114 Sainte Catherine Rue O",
                        "country": "CA",
                        "cross_street": "",
                        "formatted_address": "4114 Sainte Catherine Rue O, Westmount QC H3Z 1P2",
                        "locality": "Westmount",
                        "postcode": "H3Z 1P2",
                        "region": "QC"
                  },
                  "name": "Balos",
                  "popularity": 0.949163050216987,
                  "price": 2
            },
            {
                  "distance": 600,
                  "location": {
                        "address": "4090 Sainte-Catherine St O",
                        "country": "CA",
                        "cross_street": "",
                        "formatted_address": "4090 Sainte-Catherine St O, Westmount QC H3Z 1P2",
                        "locality": "Westmount",
                        "postcode": "H3Z 1P2",
                        "region": "QC"
                  },
                  "name": "Kinton",
                  "popularity": 0.9504029758214507
            },
            {
                  "distance": 647,
                  "location": {
                        "address": "1025 Lenoir Rue",
                        "country": "CA",
                        "cross_street": "",
                        "formatted_address": "1025 Lenoir Rue, Montr\u00e9al QC H4C 2Z6",
                        "locality": "Montreal",
                        "postcode": "H4C 2Z6",
                        "region": "QC"
                  },
                  "name": "Gia vin & grill",
                  "popularity": 0.9663961960635882,
                  "price": 2
            },
            {
                  "distance": 662,
                  "location": {
                        "address": "4050 Ste",
                        "country": "CA",
                        "cross_street": "Wood",
                        "formatted_address": "4050 Ste (Wood), Westmount QC",
                        "locality": "Westmount",
                        "region": "QC"
                  },
                  "name": "Chine Toque",
                  "popularity": 0.9256044637321761,
                  "price": 1
            },
            {
                  "distance": 739,
                  "location": {
                        "address": "3981 Notre-Dame Rue O",
                        "country": "CA",
                        "cross_street": "",
                        "formatted_address": "3981 Notre-Dame Rue O, Montr\u00e9al QC H4C 1R2",
                        "locality": "Montreal",
                        "postcode": "H4C 1R2",
                        "region": "QC"
                  },
                  "name": "Bucky Rooster's",
                  "popularity": 0.9383752838758517,
                  "price": 1
            },
            {
                  "distance": 791,
                  "location": {
                        "address": "1500 Atwater Ave",
                        "country": "CA",
                        "cross_street": "Atwater",
                        "formatted_address": "1500 Atwater Ave (Atwater), Montreal QC H3Z 1X5",
                        "locality": "Westmount",
                        "postcode": "H3Z 1X5",
                        "region": "QC"
                  },
                  "name": "Shawarma Plus",
                  "popularity": 0.9851208927464352,
                  "price": 2
            },
            {
                  "distance": 846,
                  "location": {
                        "address": "768 Atwater Ave",
                        "country": "CA",
                        "cross_street": "saint jacques",
                        "formatted_address": "768 Atwater Ave (saint jacques), Montr\u00e9al QC H4C 2G9",
                        "locality": "Montreal",
                        "postcode": "H4C 2G9",
                        "region": "QC"
                  },
                  "name": "Restaurant Frida",
                  "popularity": 0.9075984102952309,
                  "price": 1
            },
            {
                  "distance": 872,
                  "location": {
                        "address": "4293 Notre-Dame Rue O",
                        "country": "CA",
                        "cross_street": "",
                        "formatted_address": "4293 Notre-Dame Rue O, Montr\u00e9al QC H4C 1R7",
                        "locality": "Montreal",
                        "postcode": "H4C 1R7",
                        "region": "QC"
                  },
                  "name": "Pikeos",
                  "popularity": 0.8117311695685087,
                  "price": 2
            },
            {
                  "distance": 931,
                  "location": {
                        "address": "2313 Sainte Catherine Rue O",
                        "address_extended": "Av Atwater",
                        "country": "CA",
                        "cross_street": "Av Atwater",
                        "formatted_address": "2313 Sainte Catherine Rue O (Av Atwater), Montr\u00e9al QC H3H 1N2",
                        "locality": "Montreal",
                        "postcode": "H3H 1N2",
                        "region": "QC"
                  },
                  "name": "Restaurant Boustan",
                  "popularity": 0.9541185654806964,
                  "price": 2
            },
            {
                  "distance": 943,
                  "location": {
                        "address": "3401 Notre-Dame Rue O",
                        "country": "CA",
                        "cross_street": "Greene",
                        "formatted_address": "3401 Notre-Dame Rue O (Greene), Montr\u00e9al QC H4C 1P3",
                        "locality": "Montreal",
                        "postcode": "H4C 1P3",
                        "region": "QC"
                  },
                  "name": "SudWest Gyros & Co",
                  "popularity": 0.8349616767600303,
                  "price": 2
            },
            {
                  "distance": 956,
                  "location": {
                        "address": "3401 Notre-Dame Rue O",
                        "country": "CA",
                        "cross_street": "",
                        "formatted_address": "3401 Notre-Dame Rue O, Montr\u00e9al QC H4C 1P3",
                        "locality": "Montreal",
                        "postcode": "H4C 1P3",
                        "region": "QC"
                  },
                  "name": "9 Tail Fox",
                  "popularity": 0.8886023845571537,
                  "price": 2
            },
            {
                  "distance": 430,
                  "location": {
                        "address": "1232 Greene Ave",
                        "country": "CA",
                        "formatted_address": "1232 Greene Ave, Westmount QC H3Z 2A3",
                        "locality": "Westmount",
                        "postcode": "H3Z 2A3",
                        "region": "QC"
                  },
                  "name": "Restaurant Kasima Sushi Topia Ltee"
            },
            {
                  "distance": 600,
                  "location": {
                        "address": "2 Alexis Nihon Pl",
                        "country": "CA",
                        "formatted_address": "2 Alexis Nihon Pl, Westmount QC H3Z 3C1",
                        "locality": "Westmount",
                        "postcode": "H3Z 3C1",
                        "region": "QC"
                  },
                  "name": "Croissant Plus"
            }
      ],
      "context": {
            "geo_bounds": {
                  "circle": {
                        "center": {
                              "latitude": 45.48282603,
                              "longitude": -73.59084338
                        },
                        "radius": 1000
                  }
            }
      }
}