{
      "results": [
            {
                  "distance": 99,
                  "location": {
                        "address": "114 Fleury Rue O",
                        "country": "CA",
                        "cross_street": "",
                        "formatted_address": "114 Fleury Rue O, Montr\u00e9al QC H3L 1T4",
                        "locality": "Montreal",
                        "postcode": "H3L 1T4",
                        "region": "QC"
                  },
                  "name": "La B\u00eate \u00e0 Pain",
                  "popularity": 0.9146953065859198,
                  "price": 1,
                  "rating": 8.1
            },
            {
                  "distance": 488,
                  "location": {
                        "address": "343 Fleury Rue O",
                        "country": "CA",
                        "cross_street": "Jeanne-Mance",
                        "formatted_address": "343 Fleury Rue O (Jeanne-Mance), Montr\u00e9al QC H3L 1V5",
                        "locality": "Montreal",
                        "postcode": "H3L 1V5",
                        "region": "QC"
                  },
                  "name": "Le Br\u00fbloir",
                  "popularity": 0.9796673921271764,
                  "price": 1,
                  "rating": 8.0
            },
            {
                  "distance": 628,
                  "location": {
                        "address": "545 Fleury Rue E",
                        "country": "CA",
                        "cross_street": "Lajeunesse",
                        "formatted_address": "545 Fleury Rue E (Lajeunesse), Montr\u00e9al QC H3L 1G6",
                        "locality": "Montreal",
                        "postcode": "H3L 1G6",
                        "region": "QC"
                  },
                  "name": "Caf\u00e9 de Da d'Ahuntsic",
                  "popularity": 0.9510550719152158,
                  "price": 1,
                  "rating": 7.8
            },
            {
                  "distance": 69,
                  "location": {
                        "address": "96 Fleury Rue O",
                        "country": "CA",
                        "cross_street": "St-Urbain",
                        "formatted_address": "96 Fleury Rue O (St-Urbain), Montr\u00e9al QC H3L 1T2",
                        "locality": "Montreal",
                        "postcode": "H3L 1T2",
                        "region": "QC"
                  },
                  "name": "Restaurant le St-Urbain",
                  "popularity": 0.8887679788039364,
                  "price": 3,
                  "rating": 7.8
            },
            {
                  "distance": 742,
                  "location": {
                        "address": "10520 Lajeunesse Rue",
                        "country": "CA",
                        "cross_street": "",
                        "formatted_address": "10520 Lajeunesse Rue, Montr\u00e9al QC H3L 2E6",
                        "locality": "Montreal",
                        "postcode": "H3L 2E6",
                        "region": "QC"
                  },
                  "name": "R\u00f4tisserie St-Hubert",
                  "popularity": 0.9716360711582135,
                  "price": 2,
                  "rating": 6.8,
                  "store_id": "100121"
            },
            {
                  "distance": 591,
                  "location": {
                        "address": "9720 St Laurent Blvd",
                        "country": "CA",
                        "cross_street": "Port-Royal",
                        "formatted_address": "9720 St Laurent Blvd (Port-Royal), Montr\u00e9al QC H3L 2N3",
                        "locality": "Montreal",
                        "postcode": "H3L 2N3",
                        "region": "QC"
                  },
                  "name": "Subway",
                  "popularity": 0.9250212906888721,
                  "price": 1,
                  "rating": 6.6,
                  "store_id": "Restaurant #29723"
            },
            {
                  "distance": 859,
                  "location": {
                        "address": "545 Henri-Bourassa Blvd E",
                        "country": "CA",
                        "cross_street": "",
                        "formatted_address": "545 Henri-Bourassa Blvd E, Montr\u00e9al QC H3L 1C7",
                        "locality": "Montreal",
                        "postcode": "H3L 1C7",
                        "region": "QC"
                  },
                  "name": "A&W Restaurant",
                  "popularity": 0.958187452687358,
                  "price": 1,
                  "rating": 6.5,
                  "store_id": "5514"
            },
            {
                  "distance": 815,
                  "location": {
                        "address": "500 Henri-Bourassa Blvd E",
                        "country": "CA",
                        "cross_street": "",
                        "formatted_address": "500 Henri-Bourassa Blvd E, Montr\u00e9al QC H3L 1C6",
                        "locality": "Montreal",
                        "postcode": "H3L 1C6",
                        "region": "QC"
                  },
                  "name": "Pizza Pizza",
                  "popularity": 0.935264477668433,
                  "price": 1,
                  "rating": 6.3,
                  "store_id": "312"
            },
            {
                  "distance": 720,
                  "location": {
                        "address": "10420 Lajeunesse Rue",
                        "country": "CA",
                        "formatted_address": "10420 Lajeunesse Rue, Montr\u00e9al QC H3L 2E5",
                        "locality": "Montreal",
                        "postcode": "H3L 2E5",
                        "region": "QC"
                  },
                  "name": "Restaurant les Brides",
                  "popularity": 0.8677729939439819,
                  "price": 2,
                  "rating": 6.2
            },
            {
                  "distance": 118,
                  "location": {
                        "address": "128 Fleury Rue O",
                        "country": "CA",
                        "cross_street": "",
                        "formatted_address": "128 Fleury Rue O, Montr\u00e9al QC H3L 1T4",
                        "locality": "Montreal",
                        "postcode": "H3L 1T4",
                        "region": "QC"
                  },
                  "name": "Frite Alors",
                  "popularity": 0.8639761544284633,
                  "price": 2,
                  "rating": 6.1
            },
            {
                  "distance": 934,
                  "location": {
                        "address": "9485 St Laurent Blvd",
                        "country": "CA",
                        "cross_street": "Chabanel West",
                        "formatted_address": "9485 St Laurent Blvd (Chabanel West), Montr\u00e9al QC H2N 1P6",
                        "locality": "Montreal",
                        "postcode": "H2N 1P6",
                        "region": "QC"
                  },
                  "name": "Tim Hortons",
                  "popularity": 0.9955880961392884,
                  "price": 1,
                  "rating": 5.7
            },
            {
                  "distance": 35,
                  "location": {
                        "address": "69 Fleury Rue O",
                        "country": "CA",
                        "cross_street": "",
                        "formatted_address": "69 Fleury Rue O, Montreal QC H3L 1T1",
                        "locality": "Montreal",
                        "postcode": "H3L 1T1",
                        "region": "QC"
                  },
                  "name": "Chocolaterie Bonneau",
                  "popularity": 0.36265140045420136,
                  "price": 1
            },
            {
                  "distance": 37,
                  "location": {
                        "address": "426 Fleury Rue O",
                        "country": "CA",
                        "cross_street": "St-Laurent",
                        "formatted_address": "426 Fleury Rue O (St-Laurent), Montr\u00e9al QC H3L 1V7",
                        "locality": "Montreal",
                        "postcode": "H3L 1V7",
                        "region": "QC"
                  },
                  "name": "Sushi 426",
                  "popularity": 0.5590106926570779,
                  "price": 2
            },
            {
                  "distance": 100,
                  "location": {
                        "address": "124 Fleury Rue O",
                        "country": "CA",
                        "formatted_address": "124 Fleury Rue O, Montr\u00e9al QC H3L 1T4",
                        "locality": "Montreal",
                        "postcode": "H3L 1T4",
                        "region": "QC"
                  },
                  "name": "Madre Sur Fleury",
                  "popularity": 0.8650998296744891,
                  "price": 4
            },
            {
                  "distance": 127,
                  "location": {
                        "address": "138 Fleury Rue O",
                        "country": "CA",
                        "cross_street": "",
                        "formatted_address": "138 Fleury Rue O, Montr\u00e9al QC H3L 1T4",
                        "locality": "Montreal",
                        "postcode": "H3L 1T4",
                        "region": "QC"
                  },
                  "name": "Poissonnerie Fou des \u00celes",
                  "popularity": 0.007617335352006056
            },
            {
                  "distance": 154,
                  "location": {
                        "address": "10 215 Blvd Saint Laurent",
                        "country": "CA",
                        "cross_street": "entre Sauriol & Fleury",
                        "formatted_address": "10 215 Blvd Saint Laurent (entre Sauriol & Fleury), Montr\u00e9al QC H3L 2N5",
                        "locality": "Montreal",
                        "postcode": "H3L 2N5",
                        "region": "QC"
                  },
                  "name": "Boulevard Cafe Bistro Lounge",
                  "popularity": 0.9051499810749433,
                  "price": 2
            },
            {
                  "distance": 186,
                  "location": {
                        "address": "160 Fleury Rue O",
                        "country": "CA",
                        "cross_street": "rue Waverly",
                        "formatted_address": "160 Fleury Rue O (rue Waverly), Montr\u00e9al QC H3L 1T5",
                        "locality": "Montreal",
                        "postcode": "H3L 1T5",
                        "region": "QC"
                  },
                  "name": "Le Romarin",
                  "popularity": 0.9091124148372445,
                  "price": 1
            },
            {
                  "distance": 212,
                  "location": {
                        "address": "10118 Saint-Laurent Blvd",
                        "country": "CA",
                        "cross_street": "",
                        "formatted_address": "10118 Saint-Laurent Blvd, Montr\u00e9al QC H3L 2N7",
                        "locality": "Montreal",
                        "postcode": "H3L 2N7",
                        "region": "QC"
                  },
                  "name": "Les Importations Edika",
                  "popularity": 0.48027062831188494
            },
            {
                  "distance": 308,
                  "location": {
                        "address": "234 Fleury Rue O",
                        "country": "CA",
                        "cross_street": "",
                        "formatted_address": "234 Fleury Rue O, Montr\u00e9al QC H3L 1T7",
                        "locality": "Montreal",
                        "postcode": "H3L 1T7",
                        "region": "QC"
                  },
                  "name": "Cerise Caf\u00e9-Buvette",
                  "popularity": 0.935560181680545
            },
            {
                  "distance": 517,
                  "location": {
                        "address": "9920 Saint Laurent Blvd",
                        "country": "CA",
                        "cross_street": "Sauv\u00e9 O.",
                        "formatted_address": "9920 Saint Laurent Blvd (Sauv\u00e9 O.), Montr\u00e9al QC H3L 2N7",
                        "locality": "Montreal",
                        "postcode": "H3L 2N7",
                        "region": "QC"
                  },
                  "name": "Caraibec",
                  "popularity": 0.8549985806207419,
                  "price": 2
            },
            {
                  "distance": 559,
                  "location": {
                        "address": "10710 Saint-Laurent Blvd",
                        "country": "CA",
                        "cross_street": "Henri-Bourassa",
                        "formatted_address": "10710 Saint-Laurent Blvd (Henri-Bourassa), Montr\u00e9al QC H3L 2P7",
                        "locality": "Montreal",
                        "postcode": "H3L 2P7",
                        "region": "QC"
                  },
                  "name": "Bar Ahuntsic",
                  "popularity": 0.9887632475397427,
                  "price": 2
            },
            {
                  "distance": 564,
                  "location": {
                        "address": "196 Henri-Bourassa Blvd O",
                        "country": "CA",
                        "cross_street": "",
                        "formatted_address": "196 Henri-Bourassa Blvd O, Montr\u00e9al QC H3L 1N3",
                        "locality": "Montreal",
                        "postcode": "H3L 1N3",
                        "region": "QC"
                  },
                  "name": "Pizza Roni",
                  "popularity": 0.9674370741862226,
                  "price": 1
            },
            {
                  "distance": 632,
                  "location": {
                        "address": "9705 Saint-Laurent Blvd",
                        "country": "CA",
                        "cross_street": "Boulevard Saint-Laurent",
                        "formatted_address": "9705 Saint-Laurent Blvd (Boulevard Saint-Laurent), Montr\u00e9al QC H3L 2N4",
                        "locality": "Montreal",
                        "postcode": "H3L 2N4",
                        "region": "QC"
                  },
                  "name": "Domino's Pizza",
                  "popularity": 0.9154759651778955,
                  "price": 1
            },
            {
                  "distance": 778,
                  "location": {
                        "address": "290 Port Royal W",
                        "country": "CA",
                        "cross_street": "",
                        "formatted_address": "290 Port Royal W, Montr\u00e9al QC",
                        "locality": "Montreal",
                        "region": "QC"
                  },
                  "name": "Terra Cafe",
                  "popularity": 0.9568745268735807,
                  "price": 1
            },
            {
                  "distance": 926,
                  "location": {
                        "address": "589 Henri-Bourassa Blvd E",
                        "country": "CA",
                        "cross_street": "",
                        "formatted_address": "589 Henri-Bourassa Blvd E, Montr\u00e9al QC H2C 1E2",
                        "locality": "Montreal",
                        "postcode": "H2C 1E2",
                        "region": "QC"
                  },
                  "name": "Bar Lajeunesse",
                  "popularity": 0.21678652535957607,
                  "price": 2
            },
            {
                  "distance": 67,
                  "location": {
                        "address": "31 Fleury Rue O",
                        "country": "CA",
                        "formatted_address": "31 Fleury Rue O, Montreal QC H3L 1S7",
                        "locality": "Montreal",
                        "postcode": "H3L 1S7",
                        "region": "QC"
                  },
                  "name": "Maison de Sushi"
            },
            {
                  "distance": 299,
                  "location": {
                        "address": "234 Fleury Rue O",
                        "country": "CA",
                        "formatted_address": "234 Fleury Rue O, Montreal QC",
                        "locality": "Montreal",
                        "region": "QC"
                  },
                  "name": "Le Lucie"
            },
            {
                  "distance": 303,
                  "location": {
                        "address": "10514 Saint-Laurent Blvd",
                        "country": "CA",
                        "formatted_address": "10514 Saint-Laurent Blvd, Montreal QC H3L 2P4",
                        "locality": "Montreal",
                        "postcode": "H3L 2P4",
                        "region": "QC"
                  },
                  "name": "Au Pain Quotidien"
            },
            {
                  "distance": 337,
                  "location": {
                        "address": "9920 Saint-Laurent Blvd",
                        "country": "CA",
                        "formatted_address": "9920 Saint-Laurent Blvd, Montreal QC H3L 2N7",
                        "locality": "Montreal",
                        "postcode": "H3L 2N7",
                        "region": "QC"
                  },
                  "name": "Restaurant Chez Van"
            },
            {
                  "distance": 359,
                  "location": {
                        "address": "20 Leslie-Gault Rue",
                        "country": "CA",
                        "formatted_address": "20 Leslie-Gault Rue, Montreal QC H3L 1P7",
                        "locality": "Montreal",
                        "postcode": "H3L 1P7",
                        "region": "QC"
                  },
                  "name": "Ben Othmane"
            },
            {
                  "distance": 476,
                  "location": {
                        "address": "318 Fleury Rue O",
                        "country": "CA",
                        "formatted_address": "318 Fleury Rue O, Montreal QC H3L 1V3",
                        "locality": "Montreal",
                        "postcode": "H3L 1V3",
                        "region": "QC"
                  },
                  "name": "Le Bruloir"
            },
            {
                  "distance": 489,
                  "location": {
                        "address": "335 Fleury Rue O",
                        "country": "CA",
                        "formatted_address": "335 Fleury Rue O, Montreal QC H3L 1V5",
                        "locality": "Montreal",
                        "postcode": "H3L 1V5",
                        "region": "QC"
                  },
                  "name": "Bar Cafe EVA"
            },
            {
                  "distance": 512,
                  "location": {
                        "address": "120 Henri-Bourassa Blvd O",
                        "country": "CA",
                        "formatted_address": "120 Henri-Bourassa Blvd O, Montreal QC H3L 1N1",
                        "locality": "Montreal",
                        "postcode": "H3L 1N1",
                        "region": "QC"
                  },
                  "name": "La Cr\u00e8merie Henri-Bourassa"
            },
            {
                  "distance": 580,
                  "location": {
                        "address": "485 Fleury Rue E",
                        "country": "CA",
                        "formatted_address": "485 Fleury Rue E, Montreal QC H3L 1G4",
                        "locality": "Montreal",
                        "postcode": "H3L 1G4",
                        "region": "QC"
                  },
                  "name": "Jalani Ghulami"
            },
            {
                  "distance": 608,
                  "location": {
                        "address": "414 Fleury Rue O",
                        "country": "CA",
                        "formatted_address": "414 Fleury Rue O, Montreal QC H3L 1V7",
                        "locality": "Montreal",
                        "postcode": "H3L 1V7",
                        "region": "QC"
                  },
                  "name": "A.J. Gourmet du Monde"
            }
      ],
      "context": {
            "geo_bounds": {
                  "circle": {
                        "center": {
                              "latitude": 45.54758206,
                              "longitude": -73.66522908
                        },
                        "radius": 1000
                  }
            }
      }
}