{
      "results": [
            {
                  "distance": 855,
                  "location": {
                        "address": "114 Fleury Rue O",
                        "country": "CA",
                        "cross_street": "",
                        "formatted_address": "114 Fleury Rue O, Montr\u00e9al QC H3L 1T4",
                        "locality": "Montreal",
                        "postcode": "H3L 1T4",
                        "region": "QC"
                  },
                  "name": "La B\u00eate \u00e0 Pain",
                  "popularity": 0.9146953065859198,
                  "price": 1,
                  "rating": 8.1
            },
            {
                  "distance": 896,
                  "location": {
                        "address": "1145 Fleury Rue E",
                        "country": "CA",
                        "cross_street": "entre Georges-Baril & De La Roche",
                        "formatted_address": "1145 Fleury Rue E (entre Georges-Baril & De La Roche), Montr\u00e9al QC H2C 1P9",
                        "locality": "Montreal",
                        "postcode": "H2C 1P9",
                        "region": "QC"
                  },
                  "name": "Cafe le Petit Flore Inc",
                  "popularity": 0.940078538985617,
                  "price": 1,
                  "rating": 7.9
            },
            {
                  "distance": 520,
                  "location": {
                        "address": "545 Fleury Rue E",
                        "country": "CA",
                        "cross_street": "Lajeunesse",
                        "formatted_address": "545 Fleury Rue E (Lajeunesse), Montr\u00e9al QC H3L 1G6",
                        "locality": "Montreal",
                        "postcode": "H3L 1G6",
                        "region": "QC"
                  },
                  "name": "Caf\u00e9 de Da d'Ahuntsic",
                  "popularity": 0.9510550719152158,
                  "price": 1,
                  "rating": 7.8
            },
            {
                  "distance": 835,
                  "location": {
                        "address": "1014 Fleury Rue E",
                        "country": "CA",
                        "formatted_address": "1014 Fleury Rue E, Montr\u00e9al QC H2C 1P7",
                        "locality": "Montreal",
                        "postcode": "H2C 1P7",
                        "region": "QC"
                  },
                  "name": "Restaurant la Molisana",
                  "popularity": 0.9392742240726722,
                  "price": 3,
                  "rating": 7.0
            },
            {
                  "distance": 799,
                  "location": {
                        "address": "10520 Lajeunesse Rue",
                        "country": "CA",
                        "cross_street": "",
                        "formatted_address": "10520 Lajeunesse Rue, Montr\u00e9al QC H3L 2E6",
                        "locality": "Montreal",
                        "postcode": "H3L 2E6",
                        "region": "QC"
                  },
                  "name": "R\u00f4tisserie St-Hubert",
                  "popularity": 0.9716360711582135,
                  "price": 2,
                  "rating": 6.8,
                  "store_id": "100121"
            },
            {
                  "distance": 527,
                  "location": {
                        "address": "9720 St Laurent Blvd",
                        "country": "CA",
                        "cross_street": "Port-Royal",
                        "formatted_address": "9720 St Laurent Blvd (Port-Royal), Montr\u00e9al QC H3L 2N3",
                        "locality": "Montreal",
                        "postcode": "H3L 2N3",
                        "region": "QC"
                  },
                  "name": "Subway",
                  "popularity": 0.9250212906888721,
                  "price": 1,
                  "rating": 6.6,
                  "store_id": "Restaurant #29723"
            },
            {
                  "distance": 854,
                  "location": {
                        "address": "1021 Fleury Rue E",
                        "country": "CA",
                        "cross_street": "",
                        "formatted_address": "1021 Fleury Rue E, Montr\u00e9al QC H2C 1P8",
                        "locality": "Montreal",
                        "postcode": "H2C 1P8",
                        "region": "QC"
                  },
                  "name": "Pizzeria No. 900",
                  "popularity": 0.8666256623769871,
                  "price": 1,
                  "rating": 6.3
            },
            {
                  "distance": 733,
                  "location": {
                        "address": "10420 Lajeunesse Rue",
                        "country": "CA",
                        "formatted_address": "10420 Lajeunesse Rue, Montr\u00e9al QC H3L 2E5",
                        "locality": "Montreal",
                        "postcode": "H3L 2E5",
                        "region": "QC"
                  },
                  "name": "Restaurant les Brides",
                  "popularity": 0.8677729939439819,
                  "price": 2,
                  "rating": 6.2
            },
            {
                  "distance": 869,
                  "location": {
                        "address": "128 Fleury Rue O",
                        "country": "CA",
                        "cross_street": "",
                        "formatted_address": "128 Fleury Rue O, Montr\u00e9al QC H3L 1T4",
                        "locality": "Montreal",
                        "postcode": "H3L 1T4",
                        "region": "QC"
                  },
                  "name": "Frite Alors",
                  "popularity": 0.8639761544284633,
                  "price": 2,
                  "rating": 6.1
            },
            {
                  "distance": 607,
                  "location": {
                        "address": "9485 St Laurent Blvd",
                        "country": "CA",
                        "cross_street": "Chabanel West",
                        "formatted_address": "9485 St Laurent Blvd (Chabanel West), Montr\u00e9al QC H2N 1P6",
                        "locality": "Montreal",
                        "postcode": "H2N 1P6",
                        "region": "QC"
                  },
                  "name": "Tim Hortons",
                  "popularity": 0.9955880961392884,
                  "price": 1,
                  "rating": 5.7
            },
            {
                  "distance": 453,
                  "location": {
                        "address": "9920 Saint Laurent Blvd",
                        "country": "CA",
                        "cross_street": "Sauv\u00e9 O.",
                        "formatted_address": "9920 Saint Laurent Blvd (Sauv\u00e9 O.), Montr\u00e9al QC H3L 2N7",
                        "locality": "Montreal",
                        "postcode": "H3L 2N7",
                        "region": "QC"
                  },
                  "name": "Caraibec",
                  "popularity": 0.8549985806207419,
                  "price": 2
            },
            {
                  "distance": 606,
                  "location": {
                        "address": "10118 Saint-Laurent Blvd",
                        "country": "CA",
                        "cross_street": "",
                        "formatted_address": "10118 Saint-Laurent Blvd, Montr\u00e9al QC H3L 2N7",
                        "locality": "Montreal",
                        "postcode": "H3L 2N7",
                        "region": "QC"
                  },
                  "name": "Les Importations Edika",
                  "popularity": 0.48027062831188494
            },
            {
                  "distance": 617,
                  "location": {
                        "address": "10 215 Blvd Saint Laurent",
                        "country": "CA",
                        "cross_street": "entre Sauriol & Fleury",
                        "formatted_address": "10 215 Blvd Saint Laurent (entre Sauriol & Fleury), Montr\u00e9al QC H3L 2N5",
                        "locality": "Montreal",
                        "postcode": "H3L 2N5",
                        "region": "QC"
                  },
                  "name": "Boulevard Cafe Bistro Lounge",
                  "popularity": 0.9051499810749433,
                  "price": 2
            },
            {
                  "distance": 648,
                  "location": {
                        "address": "1001 Sauve Rue E",
                        "country": "CA",
                        "cross_street": "Saint-Hubert",
                        "formatted_address": "1001 Sauve Rue E (Saint-Hubert), Montr\u00e9al QC",
                        "locality": "Montreal",
                        "region": "QC"
                  },
                  "name": "Casse-Croute March\u00e9 d'Or",
                  "popularity": 0.09350160862982589,
                  "price": 1
            },
            {
                  "distance": 760,
                  "location": {
                        "address": "426 Fleury Rue O",
                        "country": "CA",
                        "cross_street": "St-Laurent",
                        "formatted_address": "426 Fleury Rue O (St-Laurent), Montr\u00e9al QC H3L 1V7",
                        "locality": "Montreal",
                        "postcode": "H3L 1V7",
                        "region": "QC"
                  },
                  "name": "Sushi 426",
                  "popularity": 0.5590106926570779,
                  "price": 2
            },
            {
                  "distance": 798,
                  "location": {
                        "address": "945 Fleury Rue E",
                        "country": "CA",
                        "cross_street": "",
                        "formatted_address": "945 Fleury Rue E, Montr\u00e9al QC H2C 1P6",
                        "locality": "Montreal",
                        "postcode": "H2C 1P6",
                        "region": "QC"
                  },
                  "name": "Sushi Sama Fusion 1",
                  "popularity": 0.6359647047691143,
                  "price": 2
            },
            {
                  "distance": 805,
                  "location": {
                        "address": "69 Fleury Rue O",
                        "country": "CA",
                        "cross_street": "",
                        "formatted_address": "69 Fleury Rue O, Montreal QC H3L 1T1",
                        "locality": "Montreal",
                        "postcode": "H3L 1T1",
                        "region": "QC"
                  },
                  "name": "Chocolaterie Bonneau",
                  "popularity": 0.36265140045420136,
                  "price": 1
            },
            {
                  "distance": 857,
                  "location": {
                        "address": "124 Fleury Rue O",
                        "country": "CA",
                        "formatted_address": "124 Fleury Rue O, Montr\u00e9al QC H3L 1T4",
                        "locality": "Montreal",
                        "postcode": "H3L 1T4",
                        "region": "QC"
                  },
                  "name": "Madre Sur Fleury",
                  "popularity": 0.8650998296744891,
                  "price": 4
            },
            {
                  "distance": 870,
                  "location": {
                        "address": "138 Fleury Rue O",
                        "country": "CA",
                        "cross_street": "",
                        "formatted_address": "138 Fleury Rue O, Montr\u00e9al QC H3L 1T4",
                        "locality": "Montreal",
                        "postcode": "H3L 1T4",
                        "region": "QC"
                  },
                  "name": "Poissonnerie Fou des \u00celes",
                  "popularity": 0.007617335352006056
            },
            {
                  "distance": 927,
                  "location": {
                        "address": "160 Fleury Rue O",
                        "country": "CA",
                        "cross_street": "rue Waverly",
                        "formatted_address": "160 Fleury Rue O (rue Waverly), Montr\u00e9al QC H3L 1T5",
                        "locality": "Montreal",
                        "postcode": "H3L 1T5",
                        "region": "QC"
                  },
                  "name": "Le Romarin",
                  "popularity": 0.9091124148372445,
                  "price": 1
            },
            {
                  "distance": 928,
                  "location": {
                        "address": "1185 Fleury Rue E",
                        "country": "CA",
                        "cross_street": "Georges- baril",
                        "formatted_address": "1185 Fleury Rue E (Georges- baril), Montr\u00e9al QC H2C 1P9",
                        "locality": "Montreal",
                        "postcode": "H2C 1P9",
                        "region": "QC"
                  },
                  "name": "Sushi Wawa",
                  "popularity": 0.8912282361847086,
                  "price": 2
            },
            {
                  "distance": 991,
                  "location": {
                        "address": "795 Legendre Rue E",
                        "country": "CA",
                        "cross_street": "",
                        "formatted_address": "795 Legendre Rue E, Montr\u00e9al QC H2M 1H1",
                        "locality": "Montreal",
                        "postcode": "H2M 1H1",
                        "region": "QC"
                  },
                  "name": "Boulangerie P\u00e2tisserie C Chaud",
                  "popularity": 0.1991625662376987,
                  "price": 2
            },
            {
                  "distance": 530,
                  "location": {
                        "address": "9920 Saint-Laurent Blvd",
                        "country": "CA",
                        "formatted_address": "9920 Saint-Laurent Blvd, Montreal QC H3L 2N7",
                        "locality": "Montreal",
                        "postcode": "H3L 2N7",
                        "region": "QC"
                  },
                  "name": "Restaurant Chez Van"
            },
            {
                  "distance": 532,
                  "location": {
                        "address": "9700 Saint-Laurent Blvd",
                        "country": "CA",
                        "formatted_address": "9700 Saint-Laurent Blvd, Montreal QC H3L 2N3",
                        "locality": "Montreal",
                        "postcode": "H3L 2N3",
                        "region": "QC"
                  },
                  "name": "Chez Noura"
            },
            {
                  "distance": 533,
                  "location": {
                        "address": "485 Fleury Rue E",
                        "country": "CA",
                        "formatted_address": "485 Fleury Rue E, Montreal QC H3L 1G4",
                        "locality": "Montreal",
                        "postcode": "H3L 1G4",
                        "region": "QC"
                  },
                  "name": "Jalani Ghulami"
            },
            {
                  "distance": 546,
                  "location": {
                        "address": "11 rue de Port-Royal Ouest",
                        "country": "CA",
                        "formatted_address": "11 rue de Port-Royal Ouest, Montreal QC H3L 2A5",
                        "locality": "Montreal",
                        "postcode": "H3L 2A5",
                        "region": "QC"
                  },
                  "name": "Domino's Pizza"
            },
            {
                  "distance": 661,
                  "location": {
                        "address": "410 Chabanel Rue O",
                        "country": "CA",
                        "formatted_address": "410 Chabanel Rue O, Montreal QC H2N 1G7",
                        "locality": "Montreal",
                        "postcode": "H2N 1G7",
                        "region": "QC"
                  },
                  "name": "Fashion Bistro"
            },
            {
                  "distance": 744,
                  "location": {
                        "address": "31 Fleury Rue O",
                        "country": "CA",
                        "formatted_address": "31 Fleury Rue O, Montreal QC H3L 1S7",
                        "locality": "Montreal",
                        "postcode": "H3L 1S7",
                        "region": "QC"
                  },
                  "name": "Maison de Sushi"
            },
            {
                  "distance": 877,
                  "location": {
                        "address": "1031 Fleury Rue E",
                        "country": "CA",
                        "formatted_address": "1031 Fleury Rue E, Montreal QC",
                        "locality": "Montreal",
                        "region": "QC"
                  },
                  "name": "Lanny Izakaya"
            },
            {
                  "distance": 936,
                  "location": {
                        "address": "10514 Saint-Laurent Blvd",
                        "country": "CA",
                        "formatted_address": "10514 Saint-Laurent Blvd, Montreal QC H3L 2P4",
                        "locality": "Montreal",
                        "postcode": "H3L 2P4",
                        "region": "QC"
                  },
                  "name": "Au Pain Quotidien"
            },
            {
                  "distance": 950,
                  "location": {
                        "address": "1216 Fleury Rue E",
                        "country": "CA",
                        "formatted_address": "1216 Fleury Rue E, Montreal QC H2C 1R1",
                        "locality": "Montreal",
                        "postcode": "H2C 1R1",
                        "region": "QC"
                  },
                  "name": "Le Pok\u00e9 Station"
            },
            {
                  "distance": 985,
                  "location": {
                        "address": "20 Leslie-Gault Rue",
                        "country": "CA",
                        "formatted_address": "20 Leslie-Gault Rue, Montreal QC H3L 1P7",
                        "locality": "Montreal",
                        "postcode": "H3L 1P7",
                        "region": "QC"
                  },
                  "name": "Ben Othmane"
            }
      ],
      "context": {
            "geo_bounds": {
                  "circle": {
                        "center": {
                              "latitude": 45.55069207,
                              "longitude": -73.65636706
                        },
                        "radius": 1000
                  }
            }
      }
}