{
      "results": [
            {
                  "distance": 764,
                  "location": {
                        "address": "1201 Van Horne Ave",
                        "country": "CA",
                        "cross_street": "",
                        "formatted_address": "1201 Van Horne Ave, Montr\u00e9al QC H2V 1K4",
                        "locality": "Montreal",
                        "postcode": "H2V 1K4",
                        "region": "QC"
                  },
                  "name": "Damas",
                  "popularity": 0.9677446063588191,
                  "price": 4,
                  "rating": 9.4
            },
            {
                  "distance": 596,
                  "location": {
                        "address": "45 Mozart Ave O",
                        "country": "CA",
                        "cross_street": "",
                        "formatted_address": "45 Mozart Ave O, Montr\u00e9al QC H2S 1C1",
                        "locality": "Montreal",
                        "postcode": "H2S 1C1",
                        "region": "QC"
                  },
                  "name": "Marconi",
                  "popularity": 0.9417699659348978,
                  "price": 2,
                  "rating": 9.2
            },
            {
                  "distance": 667,
                  "location": {
                        "address": "6840 Saint-Laurent Blvd",
                        "country": "CA",
                        "formatted_address": "6840 Saint-Laurent Blvd, Montr\u00e9al QC H2S 3C7",
                        "locality": "Montreal",
                        "postcode": "H2S 3C7",
                        "region": "QC"
                  },
                  "name": "Cafe Italia",
                  "popularity": 0.9526163890991673,
                  "price": 1,
                  "rating": 9.1
            },
            {
                  "distance": 450,
                  "location": {
                        "address": "7032 Waverly Rue",
                        "country": "CA",
                        "cross_street": "",
                        "formatted_address": "7032 Waverly Rue, Montr\u00e9al QC H2S 3J2",
                        "locality": "Montreal",
                        "postcode": "H2S 3J2",
                        "region": "QC"
                  },
                  "name": "D\u00e9panneur le Pick Up",
                  "popularity": 0.9210233724451173,
                  "price": 1,
                  "rating": 9.0
            },
            {
                  "distance": 632,
                  "location": {
                        "address": "95 Jean-Talon Rue O",
                        "country": "CA",
                        "cross_street": "Saint-Urbain",
                        "formatted_address": "95 Jean-Talon Rue O (Saint-Urbain), Montr\u00e9al QC H2R 2W8",
                        "locality": "Montreal",
                        "postcode": "H2R 2W8",
                        "region": "QC"
                  },
                  "name": "Brasserie Harricana",
                  "popularity": 0.95985522331567,
                  "rating": 8.8
            },
            {
                  "distance": 994,
                  "location": {
                        "address": "277 Dante Rue",
                        "country": "CA",
                        "cross_street": "",
                        "formatted_address": "277 Dante Rue, Montr\u00e9al QC H2S 1K3",
                        "locality": "Montreal",
                        "postcode": "H2S 1K3",
                        "region": "QC"
                  },
                  "name": "Pasticceria Alati-Caserta",
                  "popularity": 0.9710328349735049,
                  "price": 1,
                  "rating": 8.8
            },
            {
                  "distance": 905,
                  "location": {
                        "address": "6389 Saint-Laurent Blvd",
                        "country": "CA",
                        "formatted_address": "6389 Saint-Laurent Blvd, Montr\u00e9al QC H2S 3C3",
                        "locality": "Montreal",
                        "postcode": "H2S 3C3",
                        "region": "QC"
                  },
                  "name": "Pastaga",
                  "popularity": 0.9347085541256623,
                  "price": 2,
                  "rating": 8.8
            },
            {
                  "distance": 969,
                  "location": {
                        "address": "260 Pl du March\u00e9 du Nord",
                        "country": "CA",
                        "cross_street": "",
                        "formatted_address": "260 Pl du March\u00e9 du Nord, Montr\u00e9al QC H2S 1A1",
                        "locality": "Montreal",
                        "postcode": "H2S 1A1",
                        "region": "QC"
                  },
                  "name": "Caf\u00e9 Saint-Henri MJT",
                  "popularity": 0.9128146290688872,
                  "price": 1,
                  "rating": 8.7
            },
            {
                  "distance": 611,
                  "location": {
                        "address": "6704 Clark Rue",
                        "country": "CA",
                        "cross_street": "coin St-Zotique",
                        "formatted_address": "6704 Clark Rue (coin St-Zotique), Montr\u00e9al QC H2S 3E9",
                        "locality": "Montreal",
                        "postcode": "H2S 3E9",
                        "region": "QC"
                  },
                  "name": "Dinette Triple Crown",
                  "popularity": 0.9051618092354277,
                  "price": 2,
                  "rating": 8.7
            },
            {
                  "distance": 715,
                  "location": {
                        "address": "7129 Saint-Laurent Blvd",
                        "address_extended": "Coin avenue Shamrock",
                        "country": "CA",
                        "cross_street": "Coin avenue Shamrock",
                        "formatted_address": "7129 Saint-Laurent Blvd (Coin avenue Shamrock), Montr\u00e9al QC H2S 0B2",
                        "locality": "Montreal",
                        "postcode": "H2S 0B2",
                        "region": "QC"
                  },
                  "name": "Birra",
                  "popularity": 0.9695779712339136,
                  "price": 2,
                  "rating": 8.6
            },
            {
                  "distance": 632,
                  "location": {
                        "address": "1001 Jean-Talon Rue O",
                        "country": "CA",
                        "cross_street": "at Birnam",
                        "formatted_address": "1001 Jean-Talon Rue O (at Birnam), Montr\u00e9al QC H3N 1T2",
                        "locality": "Montreal",
                        "postcode": "H3N 1T2",
                        "region": "QC"
                  },
                  "name": "Restaurant Bombay Mahal",
                  "popularity": 0.9612864307342922,
                  "price": 2,
                  "rating": 8.6
            },
            {
                  "distance": 818,
                  "location": {
                        "address": "83 Saint-Zotique Rue E",
                        "country": "CA",
                        "cross_street": "",
                        "formatted_address": "83 Saint-Zotique Rue E, Montr\u00e9al QC H2S 1K7",
                        "locality": "Montreal",
                        "postcode": "H2S 1K7",
                        "region": "QC"
                  },
                  "name": "\u00c9picerie Pumpui",
                  "popularity": 0.9057650454201362,
                  "price": 2,
                  "rating": 8.6
            },
            {
                  "distance": 966,
                  "location": {
                        "address": "232 Jean-Talon Rue E",
                        "country": "CA",
                        "cross_street": "coin Casgrain",
                        "formatted_address": "232 Jean-Talon Rue E (coin Casgrain), Montr\u00e9al QC H2R 1S7",
                        "locality": "Montreal",
                        "postcode": "H2R 1S7",
                        "region": "QC"
                  },
                  "name": "Le Roi du Taco",
                  "popularity": 0.9488195495836488,
                  "price": 1,
                  "rating": 8.6
            },
            {
                  "distance": 760,
                  "location": {
                        "address": "6631 Saint-Laurent Blvd",
                        "country": "CA",
                        "cross_street": "sud de St-Zotique",
                        "formatted_address": "6631 Saint-Laurent Blvd (sud de St-Zotique), Montr\u00e9al QC H2S 3C5",
                        "locality": "Montreal",
                        "postcode": "H2S 3C5",
                        "region": "QC"
                  },
                  "name": "Vices & Versa Bistro du Terroir Inc",
                  "popularity": 0.9497303179409539,
                  "price": 2,
                  "rating": 8.5
            },
            {
                  "distance": 814,
                  "location": {
                        "address": "69 Saint-Zotique Rue E",
                        "country": "CA",
                        "cross_street": "",
                        "formatted_address": "69 Saint-Zotique Rue E, Montr\u00e9al QC H2S 1K7",
                        "locality": "Montreal",
                        "postcode": "H2S 1K7",
                        "region": "QC"
                  },
                  "name": "San Gennaro",
                  "popularity": 0.9213309046177138,
                  "price": 1,
                  "rating": 8.3
            },
            {
                  "distance": 378,
                  "location": {
                        "address": "654 Jean-Talon Rue O",
                        "country": "CA",
                        "cross_street": "",
                        "formatted_address": "654 Jean-Talon Rue O, Montr\u00e9al QC H3N 1R7",
                        "locality": "Montreal",
                        "postcode": "H3N 1R7",
                        "region": "QC"
                  },
                  "name": "Restaurant Village Grecque Inc",
                  "popularity": 0.9827663701741105,
                  "price": 2,
                  "rating": 8.1
            },
            {
                  "distance": 611,
                  "location": {
                        "address": "996 Jean-Talon Rue O",
                        "country": "CA",
                        "cross_street": "Brinam",
                        "formatted_address": "996 Jean-Talon Rue O (Brinam), Montr\u00e9al QC H3N 1S8",
                        "locality": "Montreal",
                        "postcode": "H3N 1S8",
                        "region": "QC"
                  },
                  "name": "Indian Curry House",
                  "popularity": 0.9859244890234671,
                  "price": 1,
                  "rating": 8.1
            },
            {
                  "distance": 916,
                  "location": {
                        "address": "35 Beaubien Rue E",
                        "country": "CA",
                        "cross_street": "",
                        "formatted_address": "35 Beaubien Rue E, Montr\u00e9al QC H2S 1P7",
                        "locality": "Montreal",
                        "postcode": "H2S 1P7",
                        "region": "QC"
                  },
                  "name": "Moustache Caf\u00e9",
                  "popularity": 0.9216857494322483,
                  "price": 1,
                  "rating": 8.1
            },
            {
                  "distance": 826,
                  "location": {
                        "address": "6527 St Laurent Blvd",
                        "country": "CA",
                        "cross_street": "Beaubien",
                        "formatted_address": "6527 St Laurent Blvd (Beaubien), Montr\u00e9al QC H2S 3C3",
                        "locality": "Montreal",
                        "postcode": "H2S 3C3",
                        "region": "QC"
                  },
                  "name": "Plougastel",
                  "popularity": 0.8961487509462528,
                  "price": 1,
                  "rating": 8.0
            },
            {
                  "distance": 990,
                  "location": {
                        "address": "1464 Van Horne Ave",
                        "country": "CA",
                        "cross_street": "entre Stuart & Dollard",
                        "formatted_address": "1464 Van Horne Ave (entre Stuart & Dollard), Outremont QC H2V 1L2",
                        "locality": "Outremont",
                        "postcode": "H2V 1L2",
                        "region": "QC"
                  },
                  "name": "Paltoquet",
                  "popularity": 0.9282503785011355,
                  "price": 1,
                  "rating": 8.0
            },
            {
                  "distance": 958,
                  "location": {
                        "address": "67 Beaubien Rue E",
                        "country": "CA",
                        "cross_street": "Saint Dominique",
                        "formatted_address": "67 Beaubien Rue E (Saint Dominique), Montr\u00e9al QC H2S 1R1",
                        "locality": "Montreal",
                        "postcode": "H2S 1R1",
                        "region": "QC"
                  },
                  "name": "Caifan Tacos Bar",
                  "popularity": 0.8441639856169568,
                  "price": 1,
                  "rating": 8.0
            },
            {
                  "distance": 748,
                  "location": {
                        "address": "6827 St-Dominique Rue",
                        "country": "CA",
                        "cross_street": "Dante",
                        "formatted_address": "6827 St-Dominique Rue (Dante), Montr\u00e9al QC H2S 3B1",
                        "locality": "Montreal",
                        "postcode": "H2S 3B1",
                        "region": "QC"
                  },
                  "name": "Pizzeria Gema",
                  "popularity": 0.9067586109008327,
                  "price": 2,
                  "rating": 7.9
            },
            {
                  "distance": 873,
                  "location": {
                        "address": "189 Dante Rue",
                        "country": "CA",
                        "cross_street": "coin De Gasp\u00e9",
                        "formatted_address": "189 Dante Rue (coin De Gasp\u00e9), Montr\u00e9al QC H2S 1K1",
                        "locality": "Montreal",
                        "postcode": "H2S 1K1",
                        "region": "QC"
                  },
                  "name": "Pizzeria Napoletana",
                  "popularity": 0.9475775927327782,
                  "price": 1,
                  "rating": 7.9
            },
            {
                  "distance": 92,
                  "location": {
                        "address": "386 Beaumont Ave",
                        "country": "CA",
                        "cross_street": "",
                        "formatted_address": "386 Beaumont Ave, Montr\u00e9al QC H3N 1T4",
                        "locality": "Montreal",
                        "postcode": "H3N 1T4",
                        "region": "QC"
                  },
                  "name": "Denise",
                  "popularity": 0.9686553747161242,
                  "price": 2,
                  "rating": 7.9
            },
            {
                  "distance": 673,
                  "location": {
                        "address": "6700 Saint-Laurent Blvd",
                        "country": "CA",
                        "cross_street": "St-Zotique",
                        "formatted_address": "6700 Saint-Laurent Blvd (St-Zotique), Montr\u00e9al QC H2S 3C7",
                        "locality": "Montreal",
                        "postcode": "H2S 3C7",
                        "region": "QC"
                  },
                  "name": "Saint-Houblon Petite-Italie",
                  "popularity": 0.9672951362604087,
                  "price": 3,
                  "rating": 7.9
            },
            {
                  "distance": 739,
                  "location": {
                        "address": "48 Dante Rue",
                        "country": "CA",
                        "cross_street": "St-Dominique",
                        "formatted_address": "48 Dante Rue (St-Dominique), Montr\u00e9al QC H2S 1J5",
                        "locality": "Montreal",
                        "postcode": "H2S 1J5",
                        "region": "QC"
                  },
                  "name": "Impasto",
                  "popularity": 0.8786075889477668,
                  "price": 2,
                  "rating": 7.8
            },
            {
                  "distance": 744,
                  "location": {
                        "address": "6584 Saint-Laurent Blvd",
                        "country": "CA",
                        "cross_street": "",
                        "formatted_address": "6584 Saint-Laurent Blvd, Montr\u00e9al QC H2S 3C6",
                        "locality": "Montreal",
                        "postcode": "H2S 3C6",
                        "region": "QC"
                  },
                  "name": "Taverne Cobra",
                  "popularity": 0.920254542013626,
                  "price": 1,
                  "rating": 7.7
            },
            {
                  "distance": 561,
                  "location": {
                        "address": "7335 Rue du Mile-End",
                        "country": "CA",
                        "cross_street": "Rue de Castelnau",
                        "formatted_address": "7335 Rue du Mile-End (Rue de Castelnau), Montr\u00e9al QC H2R 2Z7",
                        "locality": "Montreal",
                        "postcode": "H2R 2Z7",
                        "region": "QC"
                  },
                  "name": "Caf\u00e9 St-Henri HQ",
                  "popularity": 0.9647993943981832,
                  "price": 1,
                  "rating": 7.7
            },
            {
                  "distance": 901,
                  "location": {
                        "address": "150 Saint-Zotique Rue E",
                        "country": "CA",
                        "cross_street": "",
                        "formatted_address": "150 Saint-Zotique Rue E, Montr\u00e9al QC H2S 1K8",
                        "locality": "Montreal",
                        "postcode": "H2S 1K8",
                        "region": "QC"
                  },
                  "name": "Mon Lapin",
                  "popularity": 0.9240158970476912,
                  "price": 2,
                  "rating": 7.5
            },
            {
                  "distance": 837,
                  "location": {
                        "address": "679 Saint-Roch Rue",
                        "country": "CA",
                        "cross_street": "Bloomfield",
                        "formatted_address": "679 Saint-Roch Rue (Bloomfield), Montr\u00e9al QC H3N 1L2",
                        "locality": "Montreal",
                        "postcode": "H3N 1L2",
                        "region": "QC"
                  },
                  "name": "Tripoli Restaurant",
                  "popularity": 0.860676097653293,
                  "price": 2,
                  "rating": 7.2
            },
            {
                  "distance": 320,
                  "location": {
                        "address": "414 Jean-Talon Rue O",
                        "country": "CA",
                        "cross_street": "",
                        "formatted_address": "414 Jean-Talon Rue O, Montr\u00e9al QC H3N 1R2",
                        "locality": "Montreal",
                        "postcode": "H3N 1R2",
                        "region": "QC"
                  },
                  "name": "Pizza Pizza",
                  "popularity": 0.8882120552611658,
                  "price": 1,
                  "rating": 7.0,
                  "store_id": "310"
            },
            {
                  "distance": 719,
                  "location": {
                        "address": "1041 Van Horne Ave",
                        "country": "CA",
                        "cross_street": "Durocher",
                        "formatted_address": "1041 Van Horne Ave (Durocher), Montr\u00e9al QC H2V 1J4",
                        "locality": "Montreal",
                        "postcode": "H2V 1J4",
                        "region": "QC"
                  },
                  "name": "Boxermans",
                  "popularity": 0.9236728803936411,
                  "price": 2,
                  "rating": 6.9
            },
            {
                  "distance": 655,
                  "location": {
                        "address": "129 Beaubien Rue O",
                        "country": "CA",
                        "cross_street": "",
                        "formatted_address": "129 Beaubien Rue O, Montr\u00e9al QC H2V 1C3",
                        "locality": "Montreal",
                        "postcode": "H2V 1C3",
                        "region": "QC"
                  },
                  "name": "Le Diplomate",
                  "popularity": 0.9195211960635882,
                  "price": 3,
                  "rating": 6.9
            },
            {
                  "distance": 326,
                  "location": {
                        "address": "431 Jean-Talon Rue O",
                        "country": "CA",
                        "cross_street": "entre Hutchison & Durocher",
                        "formatted_address": "431 Jean-Talon Rue O (entre Hutchison & Durocher), Montr\u00e9al QC H3N 1P9",
                        "locality": "Montreal",
                        "postcode": "H3N 1P9",
                        "region": "QC"
                  },
                  "name": "Restaurant Lyla",
                  "popularity": 0.9708908970476912,
                  "price": 2,
                  "rating": 6.8
            },
            {
                  "distance": 870,
                  "location": {
                        "address": "184 Dante Rue",
                        "country": "CA",
                        "cross_street": "btwn Ave. du Gasp\u00e9 & Ave. Casgrain",
                        "formatted_address": "184 Dante Rue (btwn Ave. du Gasp\u00e9 & Ave. Casgrain), Montr\u00e9al QC H2S 1J9",
                        "locality": "Montreal",
                        "postcode": "H2S 1J9",
                        "region": "QC"
                  },
                  "name": "Cafe Concad-Oro",
                  "popularity": 0.9124242997728993,
                  "price": 1,
                  "rating": 6.7
            }
      ],
      "context": {
            "geo_bounds": {
                  "circle": {
                        "center": {
                              "latitude": 45.52799772,
                              "longitude": -73.61919969
                        },
                        "radius": 1000
                  }
            }
      }
}