{
      "results": [
            {
                  "distance": 608,
                  "location": {
                        "address": "7100 Sherbrooke Rue E",
                        "country": "CA",
                        "cross_street": "",
                        "formatted_address": "7100 Sherbrooke Rue E, Montr\u00e9al QC H1N 1E7",
                        "locality": "Montreal",
                        "postcode": "H1N 1E7",
                        "region": "QC"
                  },
                  "name": "Harvey's",
                  "popularity": 0.9709382096896291,
                  "price": 2,
                  "rating": 7.8,
                  "store_id": "2211"
            },
            {
                  "distance": 520,
                  "location": {
                        "address": "7066A Sherbrooke Rue E",
                        "country": "CA",
                        "cross_street": "entre \u00c9milie Legrand & Beauclerk",
                        "formatted_address": "7066A Sherbrooke Rue E (entre \u00c9milie Legrand & Beauclerk), Montr\u00e9al QC H1N 1E6",
                        "locality": "Montreal",
                        "postcode": "H1N 1E6",
                        "region": "QC"
                  },
                  "name": "La Dinette Montreal-Est",
                  "popularity": 0.8278529523088569,
                  "price": 1,
                  "rating": 7.2
            },
            {
                  "distance": 835,
                  "location": {
                        "address": "7275 Sherbrooke Rue E",
                        "address_extended": "Floor 2",
                        "country": "CA",
                        "formatted_address": "7275 Sherbrooke Rue E, Montr\u00e9al QC H1N 1E9",
                        "locality": "Montreal",
                        "postcode": "H1N 1E9",
                        "region": "QC"
                  },
                  "name": "La Cage",
                  "popularity": 0.9927375094625284,
                  "price": 2,
                  "rating": 7.2,
                  "store_id": "LC_35"
            },
            {
                  "distance": 329,
                  "location": {
                        "address": "6860 Sherbrooke Rue E",
                        "country": "CA",
                        "cross_street": "",
                        "formatted_address": "6860 Sherbrooke Rue E, Montr\u00e9al QC H1N 1E2",
                        "locality": "Montreal",
                        "postcode": "H1N 1E2",
                        "region": "QC"
                  },
                  "name": "Tim Hortons",
                  "popularity": 0.8569029144587433,
                  "price": 1,
                  "rating": 6.7
            },
            {
                  "distance": 924,
                  "location": {
                        "address": "7275 Sherbrooke St E",
                        "address_extended": "Suite 193",
                        "country": "CA",
                        "cross_street": "",
                        "formatted_address": "7275 Sherbrooke St E, Montr\u00e9al QC H1N 1E9",
                        "locality": "Montreal",
                        "postcode": "H1N 1E9",
                        "region": "QC"
                  },
                  "name": "Second Cup CAF\u00c9 & Cie avec Pinkberry yogourt glac\u00e9",
                  "popularity": 0.9631552800908403,
                  "price": 1,
                  "rating": 6.7
            },
            {
                  "distance": 107,
                  "location": {
                        "address": "6583 Sherbrooke Rue E",
                        "country": "CA",
                        "formatted_address": "6583 Sherbrooke Rue E, Montr\u00e9al QC H1N 1C5",
                        "locality": "Montreal",
                        "postcode": "H1N 1C5",
                        "region": "QC"
                  },
                  "name": "Restaurant Pacini",
                  "popularity": 0.9377365632096897,
                  "price": 2,
                  "rating": 6.4
            },
            {
                  "distance": 346,
                  "location": {
                        "address": "6361 Sherbrooke Rue E",
                        "country": "CA",
                        "cross_street": "",
                        "formatted_address": "6361 Sherbrooke Rue E, Montr\u00e9al QC H1N 1C4",
                        "locality": "Montreal",
                        "postcode": "H1N 1C4",
                        "region": "QC"
                  },
                  "name": "Restaurant le Gout de Thailand",
                  "popularity": 0.8454414269492808,
                  "price": 2,
                  "rating": 6.3
            },
            {
                  "distance": 484,
                  "location": {
                        "address": "6225 Sherbrooke Rue E",
                        "country": "CA",
                        "cross_street": "",
                        "formatted_address": "6225 Sherbrooke Rue E, Montr\u00e9al QC H1N 1C3",
                        "locality": "Montreal",
                        "postcode": "H1N 1C3",
                        "region": "QC"
                  },
                  "name": "R\u00f4tisserie St-Hubert",
                  "popularity": 0.9696371120363361,
                  "price": 2,
                  "rating": 6.2,
                  "store_id": "100090"
            },
            {
                  "distance": 354,
                  "location": {
                        "address": "6355 Sherbrooke St E",
                        "country": "CA",
                        "cross_street": "coin Carignan",
                        "formatted_address": "6355 Sherbrooke St E (coin Carignan), Montr\u00e9al QC H1N 1C4",
                        "locality": "Montreal",
                        "postcode": "H1N 1C4",
                        "region": "QC"
                  },
                  "name": "Subway",
                  "popularity": 0.9711984292202877,
                  "price": 1,
                  "rating": 6.2,
                  "store_id": "16551"
            },
            {
                  "distance": 860,
                  "location": {
                        "address": "6765 Hochelaga Rue",
                        "country": "CA",
                        "cross_street": "Langelier",
                        "formatted_address": "6765 Hochelaga Rue (Langelier), Montr\u00e9al QC H1N 1Y2",
                        "locality": "Montreal",
                        "postcode": "H1N 1Y2",
                        "region": "QC"
                  },
                  "name": "Tim Hortons",
                  "popularity": 0.9929859008327026,
                  "price": 1,
                  "rating": 6.1
            },
            {
                  "distance": 120,
                  "location": {
                        "address": "3065 Ave de Granby",
                        "country": "CA",
                        "cross_street": "",
                        "formatted_address": "3065 Ave de Granby, Montr\u00e9al QC H1N 2Z7",
                        "locality": "Montreal",
                        "postcode": "H1N 2Z7",
                        "region": "QC"
                  },
                  "name": "Tim Hortons",
                  "popularity": 0.9168835162755489,
                  "price": 1,
                  "rating": 5.9
            },
            {
                  "distance": 830,
                  "location": {
                        "address": "5900 Sherbrooke Rue E",
                        "country": "CA",
                        "cross_street": "coin Bossuet",
                        "formatted_address": "5900 Sherbrooke Rue E (coin Bossuet), Montr\u00e9al QC H1N 1B5",
                        "locality": "Montreal",
                        "postcode": "H1N 1B5",
                        "region": "QC"
                  },
                  "name": "Tim Hortons",
                  "popularity": 0.9798329863739591,
                  "price": 1,
                  "rating": 5.9
            },
            {
                  "distance": 274,
                  "location": {
                        "address": "6415 Sherbrooke Rue E",
                        "country": "CA",
                        "cross_street": "coin De Granby",
                        "formatted_address": "6415 Sherbrooke Rue E (coin De Granby), Montr\u00e9al QC H1N 1C5",
                        "locality": "Montreal",
                        "postcode": "H1N 1C5",
                        "region": "QC"
                  },
                  "name": "McDonald's",
                  "popularity": 0.991672975018925,
                  "price": 1,
                  "rating": 5.4,
                  "store_id": "2253"
            },
            {
                  "distance": 942,
                  "location": {
                        "address": "7275 Sherbrooke Rue E",
                        "address_extended": "Floor 1",
                        "country": "CA",
                        "cross_street": "coin Du Trianon",
                        "formatted_address": "7275 Sherbrooke Rue E (coin Du Trianon), Montr\u00e9al QC H1N 1E9",
                        "locality": "Montreal",
                        "postcode": "H1N 1E9",
                        "region": "QC"
                  },
                  "name": "Nickels",
                  "popularity": 0.9797265329295988,
                  "price": 2,
                  "rating": 5.1
            },
            {
                  "distance": 150,
                  "location": {
                        "address": "3175 Ave de Granby",
                        "address_extended": "Bureau 14",
                        "country": "CA",
                        "cross_street": "Btw rue de Marseille & Faribault",
                        "formatted_address": "3175 Ave de Granby (Btw rue de Marseille & Faribault), Montr\u00e9al QC H1N 2Z7",
                        "locality": "Montreal",
                        "postcode": "H1N 2Z7",
                        "region": "QC"
                  },
                  "name": "Aurora Brasserie",
                  "popularity": 0.9075747539742619,
                  "price": 3
            },
            {
                  "distance": 173,
                  "location": {
                        "address": "3365 Ave de Granby",
                        "country": "CA",
                        "cross_street": "Sherbrooke",
                        "formatted_address": "3365 Ave de Granby (Sherbrooke), Montr\u00e9al QC H1N 2Z7",
                        "locality": "Montreal",
                        "postcode": "H1N 2Z7",
                        "region": "QC"
                  },
                  "name": "Paulos",
                  "popularity": 0.9388602384557153,
                  "price": 2
            },
            {
                  "distance": 249,
                  "location": {
                        "address": "6365 Sherbrooke Rue E",
                        "country": "CA",
                        "cross_street": "",
                        "formatted_address": "6365 Sherbrooke Rue E, Montr\u00e9al QC H1N 1C4",
                        "locality": "Montreal",
                        "postcode": "H1N 1C4",
                        "region": "QC"
                  },
                  "name": "Sake Sushi Express",
                  "popularity": 0.8375638720666162,
                  "price": 2
            },
            {
                  "distance": 302,
                  "location": {
                        "address": "6395 Sherbrooke Rue E",
                        "country": "CA",
                        "cross_street": "",
                        "formatted_address": "6395 Sherbrooke Rue E, Montr\u00e9al QC H1N 1C4",
                        "locality": "Montreal",
                        "postcode": "H1N 1C4",
                        "region": "QC"
                  },
                  "name": "La Belle Province",
                  "popularity": 0.9417463096139288,
                  "price": 1
            },
            {
                  "distance": 325,
                  "location": {
                        "address": "6737 Rue de Marseille",
                        "country": "CA",
                        "formatted_address": "6737 Rue de Marseille, Montr\u00e9al QC H1N 1M4",
                        "locality": "Montreal",
                        "postcode": "H1N 1M4",
                        "region": "QC"
                  },
                  "name": "Cremerie Mix",
                  "popularity": 0.8993896669190008,
                  "price": 1
            },
            {
                  "distance": 383,
                  "location": {
                        "address": "6343 Sherbrooke Rue E",
                        "country": "CA",
                        "cross_street": "",
                        "formatted_address": "6343 Sherbrooke Rue E, Montr\u00e9al QC H1N 1C3",
                        "locality": "Montreal",
                        "postcode": "H1N 1C3",
                        "region": "QC"
                  },
                  "name": "Ronde 1 Sushi",
                  "popularity": 0.868293433005299,
                  "price": 2
            },
            {
                  "distance": 391,
                  "location": {
                        "address": "6325 Sherbrooke Rue E",
                        "country": "CA",
                        "formatted_address": "6325 Sherbrooke Rue E, Montr\u00e9al QC H1N 1C3",
                        "locality": "Montreal",
                        "postcode": "H1N 1C3",
                        "region": "QC"
                  },
                  "name": "Bar El Cid",
                  "popularity": 0.9127909727479182
            },
            {
                  "distance": 425,
                  "location": {
                        "address": "6666 Rue de Marseille",
                        "country": "CA",
                        "cross_street": "langelier",
                        "formatted_address": "6666 Rue de Marseille (langelier), Montr\u00e9al QC H1N 1M3",
                        "locality": "Montreal",
                        "postcode": "H1N 1M3",
                        "region": "QC"
                  },
                  "name": "New Milano",
                  "popularity": 0.9698618470855412,
                  "price": 2
            },
            {
                  "distance": 539,
                  "location": {
                        "address": "7060 Sherbrooke Rue O",
                        "country": "CA",
                        "formatted_address": "7060 Sherbrooke Rue O, Montr\u00e9al QC H4B 1R2",
                        "locality": "Montreal",
                        "postcode": "H4B 1R2",
                        "region": "QC"
                  },
                  "name": "Ronda Sushi",
                  "popularity": 0.8326906699470098,
                  "price": 2
            },
            {
                  "distance": 559,
                  "location": {
                        "address": "7060 Sherbrooke Rue E",
                        "country": "CA",
                        "cross_street": "",
                        "formatted_address": "7060 Sherbrooke Rue E, Montr\u00e9al QC H1N 1E6",
                        "locality": "Montreal",
                        "postcode": "H1N 1E6",
                        "region": "QC"
                  },
                  "name": "O Asie",
                  "popularity": 0.9533497350492052,
                  "price": 2
            },
            {
                  "distance": 592,
                  "location": {
                        "address": "7070 Sherbrooke Rue E",
                        "country": "CA",
                        "cross_street": "",
                        "formatted_address": "7070 Sherbrooke Rue E, Montr\u00e9al QC H1N 1E6",
                        "locality": "Montreal",
                        "postcode": "H1N 1E6",
                        "region": "QC"
                  },
                  "name": "R\u00f4tisseries Au Coq",
                  "popularity": 0.8896196063588191,
                  "price": 2
            },
            {
                  "distance": 701,
                  "location": {
                        "address": "6060 Sherbrooke Rue E",
                        "country": "CA",
                        "cross_street": "Duquesne",
                        "formatted_address": "6060 Sherbrooke Rue E (Duquesne), Montr\u00e9al QC H1N 1C1",
                        "locality": "Montreal",
                        "postcode": "H1N 1C1",
                        "region": "QC"
                  },
                  "name": "Globe Caf\u00e9 Bistro",
                  "popularity": 0.8291185654806964,
                  "price": 2
            },
            {
                  "distance": 790,
                  "location": {
                        "address": "6001 rue de Jumonville",
                        "country": "CA",
                        "cross_street": "",
                        "formatted_address": "6001 rue de Jumonville, Montr\u00e9al QC H1M 1R5",
                        "locality": "Montreal",
                        "postcode": "H1M 1R5",
                        "region": "QC"
                  },
                  "name": "Restaurant le Saint-Jacques",
                  "popularity": 0.8955573429220288,
                  "price": 2
            },
            {
                  "distance": 798,
                  "location": {
                        "address": "7275 Sherbrooke Rue E",
                        "address_extended": "# 3",
                        "country": "CA",
                        "cross_street": "Place Versailles",
                        "formatted_address": "7275 Sherbrooke Rue E (Place Versailles), Montr\u00e9al QC H1N 1E9",
                        "locality": "Montreal",
                        "postcode": "H1N 1E9",
                        "region": "QC"
                  },
                  "name": "Dunkin'",
                  "popularity": 0.9015305639666918,
                  "price": 1,
                  "store_id": "308285"
            },
            {
                  "distance": 818,
                  "location": {
                        "address": "7275 Sherbrooke Rue E",
                        "address_extended": "Place Versailles",
                        "country": "CA",
                        "cross_street": "",
                        "formatted_address": "7275 Sherbrooke Rue E, Montr\u00e9al QC H1N 1E9",
                        "locality": "Montreal",
                        "postcode": "H1N 1E9",
                        "region": "QC"
                  },
                  "name": "Sushi Shop",
                  "popularity": 0.9367903103709311,
                  "price": 2
            },
            {
                  "distance": 818,
                  "location": {
                        "address": "7275 Sherbrooke Rue E",
                        "address_extended": "Place Versailles",
                        "country": "CA",
                        "cross_street": "du Trianon",
                        "formatted_address": "7275 Sherbrooke Rue E (du Trianon), Montr\u00e9al QC H1N 1E9",
                        "locality": "Montreal",
                        "postcode": "H1N 1E9",
                        "region": "QC"
                  },
                  "name": "Villa Madina",
                  "popularity": 0.9271148750946253,
                  "price": 2
            },
            {
                  "distance": 890,
                  "location": {
                        "address": "7275 Sherbrooke Rue E",
                        "country": "CA",
                        "cross_street": "",
                        "formatted_address": "7275 Sherbrooke Rue E, Montreal QC H1N 1E9",
                        "locality": "Montreal",
                        "postcode": "H1N 1E9",
                        "region": "QC"
                  },
                  "name": "Bistro l'Escale Gourmande",
                  "popularity": 0.3021030469341408,
                  "price": 3
            },
            {
                  "distance": 923,
                  "location": {
                        "address": "5849 Sherbrooke Rue E",
                        "country": "CA",
                        "cross_street": "",
                        "formatted_address": "5849 Sherbrooke Rue E, Montr\u00e9al QC H1N 1B6",
                        "locality": "Montreal",
                        "postcode": "H1N 1B6",
                        "region": "QC"
                  },
                  "name": "Restaurant Chez O",
                  "popularity": 0.9108866389099167,
                  "price": 2
            },
            {
                  "distance": 933,
                  "location": {
                        "address": "5843 Sherbrooke Rue E",
                        "country": "CA",
                        "cross_street": "",
                        "formatted_address": "5843 Sherbrooke Rue E, Montreal QC H1N 1B3",
                        "locality": "Montreal",
                        "postcode": "H1N 1B3",
                        "region": "QC"
                  },
                  "name": "Sushi Chef",
                  "popularity": 0.9343891937925813,
                  "price": 2
            },
            {
                  "distance": 957,
                  "location": {
                        "address": "7275 Sherbrooke Rue E",
                        "address_extended": "# 61",
                        "country": "CA",
                        "cross_street": "",
                        "formatted_address": "7275 Sherbrooke Rue E, Montr\u00e9al QC H1N 1E9",
                        "locality": "Montreal",
                        "postcode": "H1N 1E9",
                        "region": "QC"
                  },
                  "name": "Caf\u00e9 \u00c0 Rome",
                  "popularity": 0.8820377554882665,
                  "price": 1
            },
            {
                  "distance": 128,
                  "location": {
                        "address": "6720 Sherbrooke Rue E",
                        "country": "CA",
                        "formatted_address": "6720 Sherbrooke Rue E, Montreal QC H1N 0E3",
                        "locality": "Montreal",
                        "postcode": "H1N 0E3",
                        "region": "QC"
                  },
                  "name": "Restaurant Kob\u00e9 Lt\u00e9e"
            }
      ],
      "context": {
            "geo_bounds": {
                  "circle": {
                        "center": {
                              "latitude": 45.58284663,
                              "longitude": -73.54247645
                        },
                        "radius": 1000
                  }
            }
      }
}