{
      "results": [
            {
                  "distance": 417,
                  "location": {
                        "address": "4006 Sainte-Catherine Rue O",
                        "country": "CA",
                        "cross_street": "coin Atwater",
                        "formatted_address": "4006 Sainte-Catherine Rue O (coin Atwater), Westmount QC H3Z 1P2",
                        "locality": "Westmount",
                        "postcode": "H3Z 1P2",
                        "region": "QC"
                  },
                  "name": "Imadake",
                  "popularity": 0.9621822690638562,
                  "price": 2,
                  "rating": 8.7
            },
            {
                  "distance": 350,
                  "location": {
                        "address": "4024B Sainte Catherine Rue O",
                        "country": "CA",
                        "cross_street": "",
                        "formatted_address": "4024B Sainte Catherine Rue O, Westmount QC H3Z 1P2",
                        "locality": "Westmount",
                        "postcode": "H3Z 1P2",
                        "region": "QC"
                  },
                  "name": "Sparta Rotisserie&Grill",
                  "popularity": 0.9783013019218847,
                  "price": 2,
                  "rating": 8.1
            },
            {
                  "distance": 925,
                  "location": {
                        "address": "1909 Sainte-Catherine Rue O",
                        "country": "CA",
                        "cross_street": "St-Marc Street",
                        "formatted_address": "1909 Sainte-Catherine Rue O (St-Marc Street), Montr\u00e9al QC H3H 1M3",
                        "locality": "Montreal",
                        "postcode": "H3H 1M3",
                        "region": "QC"
                  },
                  "name": "Sammi & Soupe Dumpling",
                  "popularity": 0.9820921650264951,
                  "price": 1,
                  "rating": 8.0
            },
            {
                  "distance": 561,
                  "location": {
                        "address": "1455 Lambert-Closse Rue",
                        "country": "CA",
                        "cross_street": "De Maisonneuve",
                        "formatted_address": "1455 Lambert-Closse Rue (De Maisonneuve), Montr\u00e9al QC H3H 1Z5",
                        "locality": "Montreal",
                        "postcode": "H3H 1Z5",
                        "region": "QC"
                  },
                  "name": "Shaughnessy Caf\u00e9",
                  "popularity": 0.9712575700227101,
                  "price": 1,
                  "rating": 7.7
            },
            {
                  "distance": 465,
                  "location": {
                        "address": "2313 Sainte-Catherine Rue O",
                        "country": "CA",
                        "cross_street": "",
                        "formatted_address": "2313 Sainte-Catherine Rue O, Montr\u00e9al QC H3H 1N2",
                        "locality": "Montreal",
                        "postcode": "H3H 1N2",
                        "region": "QC"
                  },
                  "name": "A&W Restaurant",
                  "popularity": 0.9711629447388342,
                  "price": 1,
                  "rating": 6.7,
                  "store_id": "5587"
            },
            {
                  "distance": 69,
                  "location": {
                        "address": "1232 Greene Ave",
                        "country": "CA",
                        "cross_street": "Ste-Catherine",
                        "formatted_address": "1232 Greene Ave (Ste-Catherine), Montr\u00e9al QC H3Z 2A3",
                        "locality": "Montreal",
                        "postcode": "H3Z 2A3",
                        "region": "QC"
                  },
                  "name": "Restaurant Kashima",
                  "popularity": 0.14135151890886546,
                  "price": 2,
                  "rating": 6.6
            },
            {
                  "distance": 982,
                  "location": {
                        "address": "1846 Sainte-Catherine Rue O",
                        "country": "CA",
                        "formatted_address": "1846 Sainte-Catherine Rue O, Montr\u00e9al QC H3H 1M1",
                        "locality": "Montreal",
                        "postcode": "H3H 1M1",
                        "region": "QC"
                  },
                  "name": "Pizza Pizza",
                  "popularity": 0.9547336298258895,
                  "price": 1,
                  "rating": 6.3,
                  "store_id": "305"
            },
            {
                  "distance": 708,
                  "location": {
                        "address": "2127 Sainte-Catherine Rue O",
                        "country": "CA",
                        "cross_street": "",
                        "formatted_address": "2127 Sainte-Catherine Rue O, Montr\u00e9al QC H3H 1M6",
                        "locality": "Montreal",
                        "postcode": "H3H 1M6",
                        "region": "QC"
                  },
                  "name": "La Maison du Bulgogi",
                  "popularity": 0.9061317183951552,
                  "price": 2,
                  "rating": 5.7
            },
            {
                  "distance": 420,
                  "location": {
                        "address": "1500 Atwater Ave",
                        "address_extended": "# 8810",
                        "country": "CA",
                        "formatted_address": "1500 Atwater Ave, Montr\u00e9al QC H3Z 1X5",
                        "locality": "Montreal",
                        "postcode": "H3Z 1X5",
                        "region": "QC"
                  },
                  "name": "McDonald's",
                  "popularity": 0.9969001859888407,
                  "price": 1,
                  "rating": 5.7
            },
            {
                  "distance": 485,
                  "location": {
                        "address": "2313 Sainte-Catherine Rue O",
                        "country": "CA",
                        "cross_street": "Atwater",
                        "formatted_address": "2313 Sainte-Catherine Rue O (Atwater), Montr\u00e9al QC H3H 1N2",
                        "locality": "Montreal",
                        "postcode": "H3H 1N2",
                        "region": "QC"
                  },
                  "name": "Forum de Montr\u00e9al",
                  "popularity": 0.9844341408024224,
                  "rating": 5.6
            },
            {
                  "distance": 784,
                  "location": {
                        "address": "700 Atwater Ave",
                        "country": "CA",
                        "cross_street": "coin St-Jacques",
                        "formatted_address": "700 Atwater Ave (coin St-Jacques), Montr\u00e9al QC H4C 2G9",
                        "locality": "Montreal",
                        "postcode": "H4C 2G9",
                        "region": "QC"
                  },
                  "name": "Tim Hortons",
                  "popularity": 0.9925955715367146,
                  "price": 1,
                  "rating": 5.6
            },
            {
                  "distance": 195,
                  "location": {
                        "address": "4090 Sainte-Catherine St O",
                        "country": "CA",
                        "cross_street": "",
                        "formatted_address": "4090 Sainte-Catherine St O, Westmount QC H3Z 1P2",
                        "locality": "Westmount",
                        "postcode": "H3Z 1P2",
                        "region": "QC"
                  },
                  "name": "Kinton",
                  "popularity": 0.9504029758214507
            },
            {
                  "distance": 201,
                  "location": {
                        "address": "4114 Sainte Catherine Rue O",
                        "country": "CA",
                        "cross_street": "",
                        "formatted_address": "4114 Sainte Catherine Rue O, Westmount QC H3Z 1P2",
                        "locality": "Westmount",
                        "postcode": "H3Z 1P2",
                        "region": "QC"
                  },
                  "name": "Balos",
                  "popularity": 0.949163050216987,
                  "price": 2
            },
            {
                  "distance": 255,
                  "location": {
                        "address": "4050 Ste",
                        "country": "CA",
                        "cross_street": "Wood",
                        "formatted_address": "4050 Ste (Wood), Westmount QC",
                        "locality": "Westmount",
                        "region": "QC"
                  },
                  "name": "Chine Toque",
                  "popularity": 0.9256044637321761,
                  "price": 1
            },
            {
                  "distance": 344,
                  "location": {
                        "address": "1500 Atwater Ave",
                        "country": "CA",
                        "cross_street": "Atwater",
                        "formatted_address": "1500 Atwater Ave (Atwater), Montreal QC H3Z 1X5",
                        "locality": "Westmount",
                        "postcode": "H3Z 1X5",
                        "region": "QC"
                  },
                  "name": "Shawarma Plus",
                  "popularity": 0.9851208927464352,
                  "price": 2
            },
            {
                  "distance": 494,
                  "location": {
                        "address": "2313 Sainte Catherine Rue O",
                        "address_extended": "Av Atwater",
                        "country": "CA",
                        "cross_street": "Av Atwater",
                        "formatted_address": "2313 Sainte Catherine Rue O (Av Atwater), Montr\u00e9al QC H3H 1N2",
                        "locality": "Montreal",
                        "postcode": "H3H 1N2",
                        "region": "QC"
                  },
                  "name": "Restaurant Boustan",
                  "popularity": 0.9541185654806964,
                  "price": 2
            },
            {
                  "distance": 558,
                  "location": {
                        "address": "1443 Lambert-Closse Rue",
                        "country": "CA",
                        "cross_street": "",
                        "formatted_address": "1443 Lambert-Closse Rue, Montreal QC H3H 1Z5",
                        "locality": "Montreal",
                        "postcode": "H3H 1Z5",
                        "region": "QC"
                  },
                  "name": "Caf\u00e9 Dayzzz's",
                  "popularity": 0.9348741483724451,
                  "price": 1
            },
            {
                  "distance": 740,
                  "location": {
                        "address": "768 Atwater Ave",
                        "country": "CA",
                        "cross_street": "saint jacques",
                        "formatted_address": "768 Atwater Ave (saint jacques), Montr\u00e9al QC H4C 2G9",
                        "locality": "Montreal",
                        "postcode": "H4C 2G9",
                        "region": "QC"
                  },
                  "name": "Restaurant Frida",
                  "popularity": 0.9075984102952309,
                  "price": 1
            },
            {
                  "distance": 932,
                  "location": {
                        "address": "1906 Sainte-Catherine St W",
                        "country": "CA",
                        "cross_street": "Saint-Marc",
                        "formatted_address": "1906 Sainte-Catherine St W (Saint-Marc), Montr\u00e9al QC H3H 1M4",
                        "locality": "Montreal",
                        "postcode": "H3H 1M4",
                        "region": "QC"
                  },
                  "name": "Cafe Lounge",
                  "popularity": 0.5727195306585919,
                  "price": 1
            },
            {
                  "distance": 967,
                  "location": {
                        "address": "1862 Blvd de Maisonneuve O",
                        "country": "CA",
                        "cross_street": "St-Marc",
                        "formatted_address": "1862 Blvd de Maisonneuve O (St-Marc), Montr\u00e9al QC H3H 1J8",
                        "locality": "Montreal",
                        "postcode": "H3H 1J8",
                        "region": "QC"
                  },
                  "name": "Jako",
                  "popularity": 0.9310654806964421,
                  "price": 2
            },
            {
                  "distance": 992,
                  "location": {
                        "address": "1858 Sainte-Catherine Rue O",
                        "country": "CA",
                        "cross_street": "",
                        "formatted_address": "1858 Sainte-Catherine Rue O, Montr\u00e9al QC H3H 1M1",
                        "locality": "Montreal",
                        "postcode": "H3H 1M1",
                        "region": "QC"
                  },
                  "name": "D\u00e9lice Oriental",
                  "popularity": 0.1377625851627555,
                  "price": 2
            },
            {
                  "distance": 215,
                  "location": {
                        "address": "2 Alexis Nihon Pl",
                        "country": "CA",
                        "formatted_address": "2 Alexis Nihon Pl, Westmount QC H3Z 3C1",
                        "locality": "Westmount",
                        "postcode": "H3Z 3C1",
                        "region": "QC"
                  },
                  "name": "Croissant Plus"
            },
            {
                  "distance": 424,
                  "location": {
                        "address": "1500 Atwater Ave",
                        "address_extended": "F4",
                        "country": "CA",
                        "formatted_address": "1500 Atwater Ave, Montreal QC H3Z 1X5",
                        "locality": "Montreal",
                        "postcode": "H3Z 1X5",
                        "region": "QC"
                  },
                  "name": "Salades Arc En Ciel"
            },
            {
                  "distance": 428,
                  "location": {
                        "address": "1500 Atwater Ave",
                        "country": "CA",
                        "formatted_address": "1500 Atwater Ave, Montreal QC H3Z 1X5",
                        "locality": "Montreal",
                        "postcode": "H3Z 1X5",
                        "region": "QC"
                  },
                  "name": "Cremiere-Quebec de Castor-Mooz"
            }
      ],
      "context": {
            "geo_bounds": {
                  "circle": {
                        "center": {
                              "latitude": 45.48697062,
                              "longitude": -73.58929306
                        },
                        "radius": 1000
                  }
            }
      }
}