{
      "results": [
            {
                  "distance": 281,
                  "location": {
                        "address": "2543A Ontario Rue E",
                        "country": "CA",
                        "cross_street": "coin Frontenac",
                        "formatted_address": "2543A Ontario Rue E (coin Frontenac), Montr\u00e9al QC H2K 1W5",
                        "locality": "Montreal",
                        "postcode": "H2K 1W5",
                        "region": "QC"
                  },
                  "name": "Patisserie Polonaise Wawel",
                  "popularity": 0.9432248296744891,
                  "price": 1,
                  "rating": 8.6
            },
            {
                  "distance": 691,
                  "location": {
                        "address": "2263 Lariviere Rue",
                        "country": "CA",
                        "cross_street": "Harmony",
                        "formatted_address": "2263 Lariviere Rue (Harmony), Montr\u00e9al QC H2K 1P6",
                        "locality": "Montreal",
                        "postcode": "H2K 1P6",
                        "region": "QC"
                  },
                  "name": "Bistro sur la Rivi\u00e8re",
                  "popularity": 0.8753903292959879,
                  "price": 3,
                  "rating": 7.7
            },
            {
                  "distance": 586,
                  "location": {
                        "address": "2308 Ontario Rue E",
                        "country": "CA",
                        "cross_street": "",
                        "formatted_address": "2308 Ontario Rue E, Montr\u00e9al QC H2K 1W1",
                        "locality": "Montreal",
                        "postcode": "H2K 1W1",
                        "region": "QC"
                  },
                  "name": "Cr\u00e8merie Confiserie le Gourmandin",
                  "popularity": 0.8898679977289932,
                  "price": 1,
                  "rating": 7.4
            },
            {
                  "distance": 796,
                  "location": {
                        "address": "3121 Hochelaga Rue",
                        "country": "CA",
                        "cross_street": "",
                        "formatted_address": "3121 Hochelaga Rue, Montr\u00e9al QC H1W 1G3",
                        "locality": "Montreal",
                        "postcode": "H1W 1G3",
                        "region": "QC"
                  },
                  "name": "Maneki Comptoir Asiat'",
                  "popularity": 0.8695235616956851,
                  "price": 2,
                  "rating": 7.2
            },
            {
                  "distance": 860,
                  "location": {
                        "address": "2120 Ontario Rue E",
                        "country": "CA",
                        "cross_street": "De Lormier",
                        "formatted_address": "2120 Ontario Rue E (De Lormier), Montr\u00e9al QC H2K 1V5",
                        "locality": "Montreal",
                        "postcode": "H2K 1V5",
                        "region": "QC"
                  },
                  "name": "Lafleur Restaurants",
                  "popularity": 0.9637348599545799,
                  "price": 1,
                  "rating": 6.9
            },
            {
                  "distance": 921,
                  "location": {
                        "address": "3090 Sherbrooke Rue E",
                        "country": "CA",
                        "cross_street": "coin Moreau",
                        "formatted_address": "3090 Sherbrooke Rue E (coin Moreau), Montr\u00e9al QC H1W 1B5",
                        "locality": "Montreal",
                        "postcode": "H1W 1B5",
                        "region": "QC"
                  },
                  "name": "Deli Miami",
                  "popularity": 0.9861492240726722,
                  "price": 1,
                  "rating": 6.9
            },
            {
                  "distance": 548,
                  "location": {
                        "address": "2345 Ontario Rue E",
                        "country": "CA",
                        "cross_street": "Fullum",
                        "formatted_address": "2345 Ontario Rue E (Fullum), Montr\u00e9al QC H2K 1W2",
                        "locality": "Montreal",
                        "postcode": "H2K 1W2",
                        "region": "QC"
                  },
                  "name": "La Guadalupe Mexicaine",
                  "popularity": 0.9581164837244511,
                  "price": 1,
                  "rating": 6.8
            },
            {
                  "distance": 293,
                  "location": {
                        "address": "2544 Ontario Rue E",
                        "country": "CA",
                        "cross_street": "coin Frontenac",
                        "formatted_address": "2544 Ontario Rue E (coin Frontenac), Montr\u00e9al QC H2K 1W4",
                        "locality": "Montreal",
                        "postcode": "H2K 1W4",
                        "region": "QC"
                  },
                  "name": "Subway",
                  "popularity": 0.8541824375473126,
                  "price": 1,
                  "rating": 6.4,
                  "store_id": "38095"
            },
            {
                  "distance": 836,
                  "location": {
                        "address": "2765 Sherbrooke Rue E",
                        "country": "CA",
                        "cross_street": "Montgomery",
                        "formatted_address": "2765 Sherbrooke Rue E (Montgomery), Montr\u00e9al QC H2K 1G9",
                        "locality": "Montreal",
                        "postcode": "H2K 1G9",
                        "region": "QC"
                  },
                  "name": "Subway",
                  "popularity": 0.8906368281604845,
                  "price": 1,
                  "rating": 6.3,
                  "store_id": "27680"
            },
            {
                  "distance": 878,
                  "location": {
                        "address": "2800 Rachel St E",
                        "country": "CA",
                        "cross_street": "",
                        "formatted_address": "2800 Rachel St E, Montr\u00e9al QC H2H 1S8",
                        "locality": "Montreal",
                        "postcode": "H2H 1S8",
                        "region": "QC"
                  },
                  "name": "Pizza Hut",
                  "popularity": 0.9308289174867524,
                  "price": 1,
                  "rating": 6.1
            },
            {
                  "distance": 92,
                  "location": {
                        "address": "2700 Ontario Rue E",
                        "country": "CA",
                        "cross_street": "Bercy",
                        "formatted_address": "2700 Ontario Rue E (Bercy), Montr\u00e9al QC H2K 1W9",
                        "locality": "Montreal",
                        "postcode": "H2K 1W9",
                        "region": "QC"
                  },
                  "name": "Tim Hortons",
                  "popularity": 0.967791919000757,
                  "price": 1,
                  "rating": 5.6
            },
            {
                  "distance": 872,
                  "location": {
                        "address": "2901 Sherbrooke St E",
                        "country": "CA",
                        "cross_street": "",
                        "formatted_address": "2901 Sherbrooke St E, Montr\u00e9al QC H1W 1B2",
                        "locality": "Montreal",
                        "postcode": "H1W 1B2",
                        "region": "QC"
                  },
                  "name": "McDonald's",
                  "popularity": 0.9885621688115064,
                  "price": 1,
                  "rating": 5.3,
                  "store_id": "40472"
            },
            {
                  "distance": 716,
                  "location": {
                        "address": "3090 Hochelaga Rue",
                        "country": "CA",
                        "cross_street": "",
                        "formatted_address": "3090 Hochelaga Rue, Montr\u00e9al QC H1W 1G2",
                        "locality": "Montreal",
                        "postcode": "H1W 1G2",
                        "region": "QC"
                  },
                  "name": "KFC",
                  "popularity": 0.9641961582134746,
                  "price": 1,
                  "rating": 4.9,
                  "store_id": "1256"
            },
            {
                  "distance": 212,
                  "location": {
                        "address": "2600 Ontario Rue E",
                        "country": "CA",
                        "cross_street": "coin Du Havre",
                        "formatted_address": "2600 Ontario Rue E (coin Du Havre), Montr\u00e9al QC H2K 4K4",
                        "locality": "Montreal",
                        "postcode": "H2K 4K4",
                        "region": "QC"
                  },
                  "name": "McDonald's",
                  "popularity": 0.9883729182437547,
                  "price": 1,
                  "rating": 4.6,
                  "store_id": "10089"
            },
            {
                  "distance": 85,
                  "location": {
                        "address": "2683 Ontario Rue E",
                        "country": "CA",
                        "cross_street": "",
                        "formatted_address": "2683 Ontario Rue E, Montr\u00e9al QC H2K 1X1",
                        "locality": "Montreal",
                        "postcode": "H2K 1X1",
                        "region": "QC"
                  },
                  "name": "Bar Sexe Mania",
                  "popularity": 0.9735995457986374,
                  "price": 3
            },
            {
                  "distance": 174,
                  "location": {
                        "address": "2600 Ontario Rue E",
                        "address_extended": "# 10",
                        "country": "CA",
                        "cross_street": "Du Havre",
                        "formatted_address": "2600 Ontario Rue E (Du Havre), Montr\u00e9al QC H2K 4K4",
                        "locality": "Montreal",
                        "postcode": "H2K 4K4",
                        "region": "QC"
                  },
                  "name": "Restaurant Bercy",
                  "popularity": 0.8457844436033308,
                  "price": 2
            },
            {
                  "distance": 529,
                  "location": {
                        "address": "1717 rue du Havre",
                        "country": "CA",
                        "cross_street": "",
                        "formatted_address": "1717 rue du Havre, Montr\u00e9al QC H2K 2X3",
                        "locality": "Montreal",
                        "postcode": "H2K 2X3",
                        "region": "QC"
                  },
                  "name": "Gaz M\u00e9tro - Caf\u00e9teria",
                  "popularity": 0.3455951930355791
            },
            {
                  "distance": 558,
                  "location": {
                        "address": "2100 Moreau Rue",
                        "country": "CA",
                        "cross_street": "",
                        "formatted_address": "2100 Moreau Rue, Montr\u00e9al QC H1W 2M3",
                        "locality": "Montreal",
                        "postcode": "H1W 2M3",
                        "region": "QC"
                  },
                  "name": "La Compagnie Montreal Chop Suey Lt\u00e9e",
                  "popularity": 0.6426239591218774
            },
            {
                  "distance": 622,
                  "location": {
                        "address": "2054 Fullum Rue",
                        "country": "CA",
                        "cross_street": "Ontario",
                        "formatted_address": "2054 Fullum Rue (Ontario), Montr\u00e9al QC H2K 3N7",
                        "locality": "Montreal",
                        "postcode": "H2K 3N7",
                        "region": "QC"
                  },
                  "name": "Ikaros Pizzeria Enr",
                  "popularity": 0.8425908402725208,
                  "price": 1
            },
            {
                  "distance": 656,
                  "location": {
                        "address": "3179 Ontario Rue E",
                        "country": "CA",
                        "cross_street": "D\u00e9zery",
                        "formatted_address": "3179 Ontario Rue E (D\u00e9zery), Montr\u00e9al QC H1W 1P1",
                        "locality": "Montreal",
                        "postcode": "H1W 1P1",
                        "region": "QC"
                  },
                  "name": "Chez Sandrine",
                  "popularity": 0.6639856169568509,
                  "price": 1
            },
            {
                  "distance": 713,
                  "location": {
                        "address": "3213 Ontario Rue E",
                        "country": "CA",
                        "cross_street": "",
                        "formatted_address": "3213 Ontario Rue E, Montr\u00e9al QC H1W 1P3",
                        "locality": "Montreal",
                        "postcode": "H1W 1P3",
                        "region": "QC"
                  },
                  "name": "Coop\u00e9rative Rond-Point, caf\u00e9 autog\u00e9r\u00e9",
                  "popularity": 0.7255275359576079,
                  "price": 1
            },
            {
                  "distance": 728,
                  "location": {
                        "address": "3213 Ontario Rue E",
                        "country": "CA",
                        "cross_street": "D\u00e9z\u00e9ry",
                        "formatted_address": "3213 Ontario Rue E (D\u00e9z\u00e9ry), Montr\u00e9al QC H1W 1P3",
                        "locality": "Montreal",
                        "postcode": "H1W 1P3",
                        "region": "QC"
                  },
                  "name": "Le Rond-Point",
                  "popularity": 0.9561766654049962,
                  "price": 1
            },
            {
                  "distance": 749,
                  "location": {
                        "address": "2043 Parthenais Rue",
                        "country": "CA",
                        "cross_street": "Larivi\u00e8re",
                        "formatted_address": "2043 Parthenais Rue (Larivi\u00e8re), Montr\u00e9al QC H2K 3T1",
                        "locality": "Montreal",
                        "postcode": "H2K 3T1",
                        "region": "QC"
                  },
                  "name": "Cafeteria Nonnini",
                  "popularity": 0.9463238077214232,
                  "price": 1
            },
            {
                  "distance": 754,
                  "location": {
                        "address": "3227 Ontario Rue E",
                        "country": "CA",
                        "cross_street": "",
                        "formatted_address": "3227 Ontario Rue E, Montr\u00e9al QC H1W 1P3",
                        "locality": "Montreal",
                        "postcode": "H1W 1P3",
                        "region": "QC"
                  },
                  "name": "3 Patapoufs",
                  "popularity": 0.961132664647994
            },
            {
                  "distance": 871,
                  "location": {
                        "address": "3328 Ontario Rue E",
                        "country": "CA",
                        "cross_street": "",
                        "formatted_address": "3328 Ontario Rue E, Montr\u00e9al QC H1W 1P7",
                        "locality": "Montreal",
                        "postcode": "H1W 1P7",
                        "region": "QC"
                  },
                  "name": "Blockhaus",
                  "popularity": 0.9533142505677517,
                  "price": 3
            },
            {
                  "distance": 903,
                  "location": {
                        "address": "3350 Ontario Rue E",
                        "country": "CA",
                        "cross_street": "Davidson",
                        "formatted_address": "3350 Ontario Rue E (Davidson), Montr\u00e9al QC H1W 1P7",
                        "locality": "Montreal",
                        "postcode": "H1W 1P7",
                        "region": "QC"
                  },
                  "name": "El Jumelgi",
                  "popularity": 0.6334216502649508
            },
            {
                  "distance": 910,
                  "location": {
                        "address": "3353 Ontario Rue E",
                        "country": "CA",
                        "cross_street": "",
                        "formatted_address": "3353 Ontario Rue E, Montr\u00e9al QC H1W 1P8",
                        "locality": "Montreal",
                        "postcode": "H1W 1P8",
                        "region": "QC"
                  },
                  "name": "Bistro 360",
                  "popularity": 0.1549134178652536,
                  "price": 1
            },
            {
                  "distance": 968,
                  "location": {
                        "address": "3417 Ontario Rue E",
                        "country": "CA",
                        "cross_street": "",
                        "formatted_address": "3417 Ontario Rue E, Montr\u00e9al QC H1W 1R1",
                        "locality": "Montreal",
                        "postcode": "H1W 1R1",
                        "region": "QC"
                  },
                  "name": "Boustan",
                  "popularity": 0.9085683194549584,
                  "price": 2
            },
            {
                  "distance": 27,
                  "location": {
                        "address": "2727 Ontario Rue E",
                        "country": "CA",
                        "formatted_address": "2727 Ontario Rue E, Montreal QC H2K 1X2",
                        "locality": "Montreal",
                        "postcode": "H2K 1X2",
                        "region": "QC"
                  },
                  "name": "Shandmas"
            },
            {
                  "distance": 534,
                  "location": {
                        "address": "2361 Ontario Rue E",
                        "country": "CA",
                        "formatted_address": "2361 Ontario Rue E, Montreal QC H2K 1W2",
                        "locality": "Montreal",
                        "postcode": "H2K 1W2",
                        "region": "QC"
                  },
                  "name": "Cooperative de Travail Touski"
            },
            {
                  "distance": 534,
                  "location": {
                        "address": "2150 Moreau Rue",
                        "country": "CA",
                        "formatted_address": "2150 Moreau Rue, Montreal QC",
                        "locality": "Montreal",
                        "region": "QC"
                  },
                  "name": "Les Touriers"
            },
            {
                  "distance": 551,
                  "location": {
                        "address": "2150 Moreau Rue",
                        "country": "CA",
                        "formatted_address": "2150 Moreau Rue, Montreal QC H1W 2M3",
                        "locality": "Montreal",
                        "postcode": "H1W 2M3",
                        "region": "QC"
                  },
                  "name": "Fous de l'\u00cele Kombucha Inc"
            },
            {
                  "distance": 646,
                  "location": {
                        "address": "2349 rue de Rouen",
                        "country": "CA",
                        "formatted_address": "2349 rue de Rouen, Montreal QC H2K 1L8",
                        "locality": "Montreal",
                        "postcode": "H2K 1L8",
                        "region": "QC"
                  },
                  "name": "Fruixi"
            },
            {
                  "distance": 660,
                  "location": {
                        "address": "3060 Hochelaga Rue",
                        "country": "CA",
                        "formatted_address": "3060 Hochelaga Rue, Montreal QC H1W 1G2",
                        "locality": "Montreal",
                        "postcode": "H1W 1G2",
                        "region": "QC"
                  },
                  "name": "R\u00f4tisseries au Coq Lt\u00e9e, les"
            },
            {
                  "distance": 695,
                  "location": {
                        "address": "2160 Harmony Rue",
                        "country": "CA",
                        "formatted_address": "2160 Harmony Rue, Montreal QC H2K 3P9",
                        "locality": "Montreal",
                        "postcode": "H2K 3P9",
                        "region": "QC"
                  },
                  "name": "Pro Max Pub"
            }
      ],
      "context": {
            "geo_bounds": {
                  "circle": {
                        "center": {
                              "latitude": 45.53529548,
                              "longitude": -73.5511601
                        },
                        "radius": 1000
                  }
            }
      }
}