{
      "results": [
            {
                  "distance": 618,
                  "location": {
                        "address": "2471 Notre-Dame Rue O",
                        "country": "CA",
                        "cross_street": "entre Vinet & Charlevoix",
                        "formatted_address": "2471 Notre-Dame Rue O (entre Vinet & Charlevoix), Montr\u00e9al QC H3J 1N6",
                        "locality": "Montreal",
                        "postcode": "H3J 1N6",
                        "region": "QC"
                  },
                  "name": "September Surf Caf\u00e9",
                  "popularity": 0.9357139477668432,
                  "price": 1,
                  "rating": 9.0
            },
            {
                  "distance": 982,
                  "location": {
                        "address": "1940 rue du Ctr",
                        "country": "CA",
                        "cross_street": "rue Jardin",
                        "formatted_address": "1940 rue du Ctr (rue Jardin), Montr\u00e9al QC H3K 1J2",
                        "locality": "Montreal",
                        "postcode": "H3K 1J2",
                        "region": "QC"
                  },
                  "name": "Le Caf\u00e9 Bloom",
                  "popularity": 0.9499195685087055,
                  "price": 2,
                  "rating": 9.0
            },
            {
                  "distance": 539,
                  "location": {
                        "address": "2713 Notre-Dame Rue O",
                        "country": "CA",
                        "cross_street": "Atwater",
                        "formatted_address": "2713 Notre-Dame Rue O (Atwater), Montr\u00e9al QC H3J 1N9",
                        "locality": "Montreal",
                        "postcode": "H3J 1N9",
                        "region": "QC"
                  },
                  "name": "Lili & Oli",
                  "popularity": 0.9507711960635882,
                  "price": 1,
                  "rating": 8.9
            },
            {
                  "distance": 598,
                  "location": {
                        "address": "2501 Notre-Dame Rue O",
                        "country": "CA",
                        "cross_street": "btwn Charlevoix & Vinet",
                        "formatted_address": "2501 Notre-Dame Rue O (btwn Charlevoix & Vinet), Montr\u00e9al QC H3J 1N6",
                        "locality": "Montreal",
                        "postcode": "H3J 1N6",
                        "region": "QC"
                  },
                  "name": "Liverpool House",
                  "popularity": 0.9156888720666162,
                  "price": 3,
                  "rating": 8.9
            },
            {
                  "distance": 588,
                  "location": {
                        "address": "2519 Notre-Dame Rue O",
                        "country": "CA",
                        "cross_street": "",
                        "formatted_address": "2519 Notre-Dame Rue O, Montr\u00e9al QC H3J 1N6",
                        "locality": "Montreal",
                        "postcode": "H3J 1N6",
                        "region": "QC"
                  },
                  "name": "Le Vin Papillon",
                  "popularity": 0.9172383610900833,
                  "price": 3,
                  "rating": 8.9
            },
            {
                  "distance": 644,
                  "location": {
                        "address": "3721 Notre-Dame Rue O",
                        "country": "CA",
                        "cross_street": "entre Bourget & Turgeon",
                        "formatted_address": "3721 Notre-Dame Rue O (entre Bourget & Turgeon), Montr\u00e9al QC H4C 1P8",
                        "locality": "Montreal",
                        "postcode": "H4C 1P8",
                        "region": "QC"
                  },
                  "name": "Satay Brothers",
                  "popularity": 0.9822577592732779,
                  "price": 2,
                  "rating": 8.9
            },
            {
                  "distance": 589,
                  "location": {
                        "address": "2490 Notre-Dame Rue O",
                        "country": "CA",
                        "formatted_address": "2490 Notre-Dame Rue O, Montreal QC H3J 1N5",
                        "locality": "Montreal",
                        "postcode": "H3J 1N5",
                        "region": "QC"
                  },
                  "name": "Th\u00e9\u00e2tre Corona",
                  "popularity": 0.9053274034822104,
                  "rating": 8.8
            },
            {
                  "distance": 593,
                  "location": {
                        "address": "2496 Notre-Dame Rue O",
                        "country": "CA",
                        "cross_street": "entre Charlevoix & Vinet",
                        "formatted_address": "2496 Notre-Dame Rue O (entre Charlevoix & Vinet), Montr\u00e9al QC H3J 1N5",
                        "locality": "Montreal",
                        "postcode": "H3J 1N5",
                        "region": "QC"
                  },
                  "name": "Burgundy Lion",
                  "popularity": 0.956637963663891,
                  "price": 2,
                  "rating": 8.8
            },
            {
                  "distance": 526,
                  "location": {
                        "address": "512 Atwater Ave",
                        "country": "CA",
                        "cross_street": "Notre-Dame",
                        "formatted_address": "512 Atwater Ave (Notre-Dame), Montr\u00e9al QC H4C 2G5",
                        "locality": "Montreal",
                        "postcode": "H4C 2G5",
                        "region": "QC"
                  },
                  "name": "Atwater Cocktail Club",
                  "popularity": 0.969412376987131,
                  "price": 3,
                  "rating": 8.7
            },
            {
                  "distance": 601,
                  "location": {
                        "address": "3618 Notre-Dame Rue O",
                        "country": "CA",
                        "cross_street": "",
                        "formatted_address": "3618 Notre-Dame Rue O, Montr\u00e9al QC H4C 1P5",
                        "locality": "Montreal",
                        "postcode": "H4C 1P5",
                        "region": "QC"
                  },
                  "name": "Sumac",
                  "popularity": 0.9393806775170326,
                  "price": 2,
                  "rating": 8.5
            },
            {
                  "distance": 558,
                  "location": {
                        "address": "3502 Notre-Dame Rue O",
                        "country": "CA",
                        "cross_street": "",
                        "formatted_address": "3502 Notre-Dame Rue O, Montr\u00e9al QC H4C 1P4",
                        "locality": "Montreal",
                        "postcode": "H4C 1P4",
                        "region": "QC"
                  },
                  "name": "Eko Sushi",
                  "popularity": 0.925316994700984,
                  "price": 2,
                  "rating": 8.5
            },
            {
                  "distance": 392,
                  "location": {
                        "address": "138 Atwater Ave",
                        "country": "CA",
                        "formatted_address": "138 Atwater Ave, Montr\u00e9al QC H4C 2G3",
                        "locality": "Montreal",
                        "postcode": "H4C 2G3",
                        "region": "QC"
                  },
                  "name": "Satay Brothers",
                  "popularity": 0.882025927327782,
                  "price": 2,
                  "rating": 8.4
            },
            {
                  "distance": 796,
                  "location": {
                        "address": "760 Charlevoix Rue",
                        "country": "CA",
                        "cross_street": "at Rue de Coleraine",
                        "formatted_address": "760 Charlevoix Rue (at Rue de Coleraine), Montr\u00e9al QC H3K 2Y2",
                        "locality": "Montreal",
                        "postcode": "H3K 2Y2",
                        "region": "QC"
                  },
                  "name": "Paul Patates Frites",
                  "popularity": 0.9733866389099167,
                  "price": 1,
                  "rating": 8.3
            },
            {
                  "distance": 336,
                  "location": {
                        "country": "CA",
                        "cross_street": "",
                        "formatted_address": "Montr\u00e9al QC H4C 2G3",
                        "locality": "Montreal",
                        "postcode": "H4C 2G3",
                        "region": "QC"
                  },
                  "name": "Pizza Mia",
                  "popularity": 0.8745268735806208,
                  "price": 1,
                  "rating": 8.2
            },
            {
                  "distance": 521,
                  "location": {
                        "address": "3001 Notre-Dame Rue O",
                        "country": "CA",
                        "cross_street": "coin Atwater",
                        "formatted_address": "3001 Notre-Dame Rue O (coin Atwater), Montr\u00e9al QC H4C 1N9",
                        "locality": "Montreal",
                        "postcode": "H4C 1N9",
                        "region": "QC"
                  },
                  "name": "Foiegwa",
                  "popularity": 0.9437807532172596,
                  "price": 3,
                  "rating": 8.2
            },
            {
                  "distance": 219,
                  "location": {
                        "address": "138 Atwater Ave",
                        "country": "CA",
                        "formatted_address": "138 Atwater Ave, Montr\u00e9al QC H4C 2G3",
                        "locality": "Montreal",
                        "postcode": "H4C 2G3",
                        "region": "QC"
                  },
                  "name": "Havre-aux-Glaces",
                  "popularity": 0.9121049394398183,
                  "price": 1,
                  "rating": 7.9
            },
            {
                  "distance": 1006,
                  "location": {
                        "address": "3068 Saint-Antoine Rue O",
                        "country": "CA",
                        "cross_street": "Avenue Marin",
                        "formatted_address": "3068 Saint-Antoine Rue O (Avenue Marin), Montr\u00e9al QC H4C 1A5",
                        "locality": "Montreal",
                        "postcode": "H4C 1A5",
                        "region": "QC"
                  },
                  "name": "Cafe Joe",
                  "popularity": 0.8828302422407267,
                  "price": 1,
                  "rating": 7.8
            },
            {
                  "distance": 553,
                  "location": {
                        "address": "2661 Notre-Dame Rue O",
                        "country": "CA",
                        "cross_street": "Petite-Bourgogne",
                        "formatted_address": "2661 Notre-Dame Rue O (Petite-Bourgogne), Montr\u00e9al QC H3J 1N9",
                        "locality": "Montreal",
                        "postcode": "H3J 1N9",
                        "region": "QC"
                  },
                  "name": "Drinkerie Ste-Cun\u00e9gonde",
                  "popularity": 0.9424678274034822,
                  "price": 2,
                  "rating": 7.8
            },
            {
                  "distance": 468,
                  "location": {
                        "address": "2483 rue du Ctr",
                        "country": "CA",
                        "cross_street": "",
                        "formatted_address": "2483 rue du Ctr, Montr\u00e9al QC H3K 1J9",
                        "locality": "Montreal",
                        "postcode": "H3K 1J9",
                        "region": "QC"
                  },
                  "name": "Clarke Caf\u00e9",
                  "popularity": 0.9593111279333838,
                  "price": 1,
                  "rating": 7.6
            },
            {
                  "distance": 540,
                  "location": {
                        "address": "3041 Notre-Dame Rue O",
                        "country": "CA",
                        "cross_street": "coin Greene",
                        "formatted_address": "3041 Notre-Dame Rue O (coin Greene), Montr\u00e9al QC H4C 1N9",
                        "locality": "Montreal",
                        "postcode": "H4C 1N9",
                        "region": "QC"
                  },
                  "name": "Green Spot",
                  "popularity": 0.9889998107494322,
                  "price": 1,
                  "rating": 7.6
            },
            {
                  "distance": 635,
                  "location": {
                        "address": "3714 Notre-Dame Rue O",
                        "country": "CA",
                        "cross_street": "Bourget",
                        "formatted_address": "3714 Notre-Dame Rue O (Bourget), Montr\u00e9al QC H4C 1P7",
                        "locality": "Montreal",
                        "postcode": "H4C 1P7",
                        "region": "QC"
                  },
                  "name": "L'Oeufrier",
                  "popularity": 0.9444313020439061,
                  "price": 1,
                  "rating": 7.5
            },
            {
                  "distance": 532,
                  "location": {
                        "address": "2745 Notre-Dame Rue O",
                        "country": "CA",
                        "cross_street": "avenue Atwater",
                        "formatted_address": "2745 Notre-Dame Rue O (avenue Atwater), Montr\u00e9al QC H3J 1N9",
                        "locality": "Montreal",
                        "postcode": "H3J 1N9",
                        "region": "QC"
                  },
                  "name": "Resto Cafe Quoi de N'Oeuf",
                  "popularity": 0.9520959500378501,
                  "price": 2,
                  "rating": 7.4
            },
            {
                  "distance": 575,
                  "location": {
                        "address": "3568 Notre-Dame Rue O",
                        "country": "CA",
                        "cross_street": "coin Rose de Lima",
                        "formatted_address": "3568 Notre-Dame Rue O (coin Rose de Lima), Montr\u00e9al QC H4C 1P4",
                        "locality": "Montreal",
                        "postcode": "H4C 1P4",
                        "region": "QC"
                  },
                  "name": "Restaurant Nozy",
                  "popularity": 0.9039435087055261,
                  "price": 2,
                  "rating": 7.2
            },
            {
                  "distance": 579,
                  "location": {
                        "address": "2518 Notre-Dame Rue O",
                        "country": "CA",
                        "cross_street": "",
                        "formatted_address": "2518 Notre-Dame Rue O, Montr\u00e9al QC H3J 1N5",
                        "locality": "Montreal",
                        "postcode": "H3J 1N5",
                        "region": "QC"
                  },
                  "name": "El Gordo",
                  "popularity": 0.9153695117335352,
                  "price": 2,
                  "rating": 7.1
            },
            {
                  "distance": 599,
                  "location": {
                        "address": "4020 Saint-Ambroise Rue",
                        "address_extended": "# 140",
                        "country": "CA",
                        "formatted_address": "4020 Saint-Ambroise Rue, Montr\u00e9al QC H4C 2C7",
                        "locality": "Montreal",
                        "postcode": "H4C 2C7",
                        "region": "QC"
                  },
                  "name": "Restaurant l'Ambroisie",
                  "popularity": 0.9416871688115064,
                  "price": 2,
                  "rating": 6.3
            },
            {
                  "distance": 546,
                  "location": {
                        "address": "3009 Notre Dame Rue O",
                        "country": "CA",
                        "cross_street": "Atwater",
                        "formatted_address": "3009 Notre Dame Rue O (Atwater), Montr\u00e9al QC H4C 1N9",
                        "locality": "Montreal",
                        "postcode": "H4C 1N9",
                        "region": "QC"
                  },
                  "name": "Thai Express",
                  "popularity": 0.9009391559424679,
                  "price": 2,
                  "rating": 6.0,
                  "store_id": "68"
            },
            {
                  "distance": 533,
                  "location": {
                        "address": "3419 Notre-Dame Rue O",
                        "country": "CA",
                        "cross_street": "",
                        "formatted_address": "3419 Notre-Dame Rue O, Montr\u00e9al QC H4C 1P3",
                        "locality": "Montreal",
                        "postcode": "H4C 1P3",
                        "region": "QC"
                  },
                  "name": "New System Restaurant",
                  "popularity": 0.9502152725208176,
                  "price": 1,
                  "rating": 5.8
            },
            {
                  "distance": 876,
                  "location": {
                        "address": "700 Atwater Ave",
                        "country": "CA",
                        "cross_street": "coin St-Jacques",
                        "formatted_address": "700 Atwater Ave (coin St-Jacques), Montr\u00e9al QC H4C 2G9",
                        "locality": "Montreal",
                        "postcode": "H4C 2G9",
                        "region": "QC"
                  },
                  "name": "Tim Hortons",
                  "popularity": 0.9925955715367146,
                  "price": 1,
                  "rating": 5.6
            },
            {
                  "distance": 578,
                  "location": {
                        "address": "3600 Notre-Dame Rue O",
                        "country": "CA",
                        "cross_street": "Rose-de-Lima",
                        "formatted_address": "3600 Notre-Dame Rue O (Rose-de-Lima), Montr\u00e9al QC H4C 1P5",
                        "locality": "Montreal",
                        "postcode": "H4C 1P5",
                        "region": "QC"
                  },
                  "name": "Tim Hortons",
                  "popularity": 0.8952734670704012,
                  "price": 1,
                  "rating": 5.6
            },
            {
                  "distance": 516,
                  "location": {
                        "address": "3026 Notre-Dame Rue O",
                        "country": "CA",
                        "cross_street": "Greene",
                        "formatted_address": "3026 Notre-Dame Rue O (Greene), Montr\u00e9al QC H4C 1P1",
                        "locality": "Montreal",
                        "postcode": "H4C 1P1",
                        "region": "QC"
                  },
                  "name": "McDonald's",
                  "popularity": 0.9893073429220288,
                  "price": 1,
                  "rating": 4.8,
                  "store_id": "26035"
            },
            {
                  "distance": 251,
                  "location": {
                        "address": "2604 Saint-Patrick Rue",
                        "country": "CA",
                        "cross_street": "",
                        "formatted_address": "2604 Saint-Patrick Rue, Montr\u00e9al QC H3K 1B8",
                        "locality": "Montreal",
                        "postcode": "H3K 1B8",
                        "region": "QC"
                  },
                  "name": "Caf\u00e9 Redwood",
                  "popularity": 0.9289127554882665,
                  "price": 1
            },
            {
                  "distance": 253,
                  "location": {
                        "address": "2606 Saint-Patrick Rue",
                        "country": "CA",
                        "cross_street": "",
                        "formatted_address": "2606 Saint-Patrick Rue, Montr\u00e9al QC H3K 1B8",
                        "locality": "Montreal",
                        "postcode": "H3K 1B8",
                        "region": "QC"
                  },
                  "name": "Restaurant Krood",
                  "popularity": 0.8481973883421651
            },
            {
                  "distance": 336,
                  "location": {
                        "address": "155 Greene Ave",
                        "address_extended": "# 2",
                        "country": "CA",
                        "cross_street": "",
                        "formatted_address": "155 Greene Ave, Montr\u00e9al QC H4C 2H6",
                        "locality": "Montreal",
                        "postcode": "H4C 2H6",
                        "region": "QC"
                  },
                  "name": "Ave Green",
                  "popularity": 0.5881671082513248,
                  "price": 1
            },
            {
                  "distance": 345,
                  "location": {
                        "address": "2601 Rue Ctr",
                        "country": "CA",
                        "cross_street": "",
                        "formatted_address": "2601 Rue Ctr, Montr\u00e9al QC H3K 1K2",
                        "locality": "Montreal",
                        "postcode": "H3K 1K2",
                        "region": "QC"
                  },
                  "name": "Sep Lai",
                  "popularity": 0.945484008327025,
                  "price": 2
            },
            {
                  "distance": 359,
                  "location": {
                        "address": "2567 Centre St",
                        "country": "CA",
                        "cross_street": "",
                        "formatted_address": "2567 Centre St, Montr\u00e9al QC H3K 1J9",
                        "locality": "Montreal",
                        "postcode": "H3K 1J9",
                        "region": "QC"
                  },
                  "name": "LaChicR\u00e9gal",
                  "popularity": 0.8318272142316427,
                  "price": 2
            }
      ],
      "context": {
            "geo_bounds": {
                  "circle": {
                        "center": {
                              "latitude": 45.477605,
                              "longitude": -73.573775
                        },
                        "radius": 1000
                  }
            }
      }
}