{
      "results": [
            {
                  "distance": 413,
                  "location": {
                        "address": "1625 Marcel-Laurin Blvd",
                        "country": "CA",
                        "cross_street": "",
                        "formatted_address": "1625 Marcel-Laurin Blvd, Saint-Laurent QC H4R 0B7",
                        "locality": "Saint-Laurent",
                        "postcode": "H4R 0B7",
                        "region": "QC"
                  },
                  "name": "Lylac",
                  "popularity": 0.9968182248296745,
                  "price": 1,
                  "rating": 8.5
            },
            {
                  "distance": 775,
                  "location": {
                        "address": "953 Decarie Blvd",
                        "country": "CA",
                        "cross_street": "cote-vertu",
                        "formatted_address": "953 Decarie Blvd (cote-vertu), Montr\u00e9al QC H4L 3M3",
                        "locality": "Montreal",
                        "postcode": "H4L 3M3",
                        "region": "QC"
                  },
                  "name": "Decarie Hot Dog",
                  "popularity": 0.9809921461014383,
                  "price": 1,
                  "rating": 7.7
            },
            {
                  "distance": 674,
                  "location": {
                        "address": "1494 Blvd de la Cote-Vertu",
                        "country": "CA",
                        "cross_street": "",
                        "formatted_address": "1494 Blvd de la Cote-Vertu, Montr\u00e9al QC H4L 1Z8",
                        "locality": "Montreal",
                        "postcode": "H4L 1Z8",
                        "region": "QC"
                  },
                  "name": "A&W Restaurant",
                  "popularity": 0.9899815480696442,
                  "price": 1,
                  "rating": 7.5,
                  "store_id": "5555"
            },
            {
                  "distance": 324,
                  "location": {
                        "address": "1928 Thimens Blvd",
                        "country": "CA",
                        "cross_street": "Marcel-Laurin",
                        "formatted_address": "1928 Thimens Blvd (Marcel-Laurin), Montr\u00e9al QC H4R 1K2",
                        "locality": "Montreal",
                        "postcode": "H4R 1K2",
                        "region": "QC"
                  },
                  "name": "Ben & Florentine",
                  "popularity": 0.9675908402725208,
                  "price": 1,
                  "rating": 7.3,
                  "store_id": "004"
            },
            {
                  "distance": 416,
                  "location": {
                        "address": "1555 Marcel-Laurin Blvd",
                        "country": "CA",
                        "formatted_address": "1555 Marcel-Laurin Blvd, Saint-Laurent QC H4R 0B7",
                        "locality": "Saint-Laurent",
                        "postcode": "H4R 0B7",
                        "region": "QC"
                  },
                  "name": "Second Cup CAF\u00c9 & Cie",
                  "popularity": 0.9503690386071159,
                  "price": 1,
                  "rating": 7.2
            },
            {
                  "distance": 605,
                  "location": {
                        "address": "1800 Blvd de la cote-Vertu",
                        "country": "CA",
                        "cross_street": "",
                        "formatted_address": "1800 Blvd de la cote-Vertu, Montr\u00e9al QC H4L 2A6",
                        "locality": "Montreal",
                        "postcode": "H4L 2A6",
                        "region": "QC"
                  },
                  "name": "Bistro Sawadika",
                  "popularity": 0.9861728803936411,
                  "price": 2,
                  "rating": 7.1
            },
            {
                  "distance": 541,
                  "location": {
                        "address": "1191 Decarie Rue",
                        "country": "CA",
                        "cross_street": "Rochon",
                        "formatted_address": "1191 Decarie Rue (Rochon), Saint-Laurent QC H4L 3M8",
                        "locality": "Saint-Laurent",
                        "postcode": "H4L 3M8",
                        "region": "QC"
                  },
                  "name": "Tim Hortons",
                  "popularity": 0.9984741672975019,
                  "price": 1,
                  "rating": 6.6
            },
            {
                  "distance": 270,
                  "location": {
                        "address": "1300 Marcel-Laurin Blvd",
                        "country": "CA",
                        "cross_street": "",
                        "formatted_address": "1300 Marcel-Laurin Blvd, Saint-Laurent QC H4R 1J9",
                        "locality": "Saint-Laurent",
                        "postcode": "H4R 1J9",
                        "region": "QC"
                  },
                  "name": "St-Hubert Express",
                  "popularity": 0.9805899886449659,
                  "price": 2,
                  "rating": 6.5,
                  "store_id": "100288"
            },
            {
                  "distance": 676,
                  "location": {
                        "address": "993 Blvd D\u00e9carie",
                        "country": "CA",
                        "cross_street": "",
                        "formatted_address": "993 Blvd D\u00e9carie, Montr\u00e9al QC H4L 3M7",
                        "locality": "Montreal",
                        "postcode": "H4L 3M7",
                        "region": "QC"
                  },
                  "name": "Subway",
                  "popularity": 0.8939723694171082,
                  "price": 1,
                  "rating": 6.4,
                  "store_id": "15203"
            },
            {
                  "distance": 679,
                  "location": {
                        "address": "1000 Decarie Blvd",
                        "country": "CA",
                        "cross_street": "",
                        "formatted_address": "1000 Decarie Blvd, Saint-Laurent QC H4L 3M5",
                        "locality": "Saint-Laurent",
                        "postcode": "H4L 3M5",
                        "region": "QC"
                  },
                  "name": "Pizza Pizza",
                  "popularity": 0.9467969341408025,
                  "price": 1,
                  "rating": 6.3,
                  "store_id": "308"
            },
            {
                  "distance": 848,
                  "location": {
                        "address": "1997 Marcel-Laurin Blvd",
                        "country": "CA",
                        "cross_street": "",
                        "formatted_address": "1997 Marcel-Laurin Blvd, Saint-Laurent QC H4R 1K4",
                        "locality": "Saint-Laurent",
                        "postcode": "H4R 1K4",
                        "region": "QC"
                  },
                  "name": "Restaurant Au Vieux Duluth",
                  "popularity": 0.9025714420893263,
                  "price": 2,
                  "rating": 5.9
            },
            {
                  "distance": 823,
                  "location": {
                        "address": "1995 Marcel-Laurin Blvd",
                        "country": "CA",
                        "cross_street": "Poirier",
                        "formatted_address": "1995 Marcel-Laurin Blvd (Poirier), Saint-Laurent QC H4R 1K4",
                        "locality": "Saint-Laurent",
                        "postcode": "H4R 1K4",
                        "region": "QC"
                  },
                  "name": "Thai Express",
                  "popularity": 0.8191237698713096,
                  "price": 2,
                  "rating": 5.8,
                  "store_id": "95"
            },
            {
                  "distance": 582,
                  "location": {
                        "address": "1565 Ch. de la Cote Vertu",
                        "country": "CA",
                        "formatted_address": "1565 Ch. de la Cote Vertu, Saint-Laurent QC H4L 2A1",
                        "locality": "Saint-Laurent",
                        "postcode": "H4L 2A1",
                        "region": "QC"
                  },
                  "name": "McDonald's",
                  "popularity": 0.9992075132475398,
                  "price": 1,
                  "rating": 5.5,
                  "store_id": "2314"
            },
            {
                  "distance": 262,
                  "location": {
                        "address": "1320 Marcel-Laurin Blvd",
                        "country": "CA",
                        "cross_street": "",
                        "formatted_address": "1320 Marcel-Laurin Blvd, Montr\u00e9al QC H4R 1J9",
                        "locality": "Montreal",
                        "postcode": "H4R 1J9",
                        "region": "QC"
                  },
                  "name": "Premi\u00e8re Fondue",
                  "popularity": 0.9437925813777441
            },
            {
                  "distance": 273,
                  "location": {
                        "address": "1898 Thimens Blvd",
                        "country": "CA",
                        "cross_street": "Marcel-Laurin",
                        "formatted_address": "1898 Thimens Blvd (Marcel-Laurin), Montr\u00e9al QC H4R 2K2",
                        "locality": "Montreal",
                        "postcode": "H4R 2K2",
                        "region": "QC"
                  },
                  "name": "Trattoria la Villetta",
                  "popularity": 0.9578799205147616,
                  "price": 3
            },
            {
                  "distance": 299,
                  "location": {
                        "address": "1470 Blvd de la C\u00f4te-Vertu",
                        "country": "CA",
                        "cross_street": "",
                        "formatted_address": "1470 Blvd de la C\u00f4te-Vertu, Saint-Laurent QC H4L 1Z7",
                        "locality": "Saint-Laurent",
                        "postcode": "H4L 1Z7",
                        "region": "QC"
                  },
                  "name": "123 Caf\u00e9",
                  "popularity": 0.30211487509462526,
                  "price": 1
            },
            {
                  "distance": 508,
                  "location": {
                        "address": "1146 Marcel-Laurin Blvd",
                        "country": "CA",
                        "cross_street": "Cote-vertu",
                        "formatted_address": "1146 Marcel-Laurin Blvd (Cote-vertu), Saint-Laurent QC H4R 1J7",
                        "locality": "Saint-Laurent",
                        "postcode": "H4R 1J7",
                        "region": "QC"
                  },
                  "name": "Double Pizza",
                  "popularity": 0.14413796366389098,
                  "price": 1
            },
            {
                  "distance": 560,
                  "location": {
                        "address": "1110 Marcel-Laurin Blvd",
                        "country": "CA",
                        "cross_street": "",
                        "formatted_address": "1110 Marcel-Laurin Blvd, Saint-Laurent QC H4R 1J7",
                        "locality": "Saint-Laurent",
                        "postcode": "H4R 1J7",
                        "region": "QC"
                  },
                  "name": "La Slice",
                  "popularity": 0.20411856548069643,
                  "price": 1
            },
            {
                  "distance": 568,
                  "location": {
                        "address": "1181 Decarie Rue",
                        "country": "CA",
                        "cross_street": "",
                        "formatted_address": "1181 Decarie Rue, Saint-Laurent QC H4L 3M8",
                        "locality": "Saint-Laurent",
                        "postcode": "H4L 3M8",
                        "region": "QC"
                  },
                  "name": "Planete Pizza",
                  "popularity": 0.9933525738077215,
                  "price": 1
            },
            {
                  "distance": 616,
                  "location": {
                        "address": "1015 Devarie",
                        "country": "CA",
                        "cross_street": "",
                        "formatted_address": "1015 Devarie, Saint-Laurent QC",
                        "locality": "Saint-Laurent",
                        "region": "QC"
                  },
                  "name": "Grillade Yasmine",
                  "popularity": 0.5058667676003028,
                  "price": 2
            },
            {
                  "distance": 684,
                  "location": {
                        "address": "1775 Grenet Rue",
                        "country": "CA",
                        "cross_street": "Poirier",
                        "formatted_address": "1775 Grenet Rue (Poirier), Cartierville QC H4L 2R6",
                        "locality": "Cartierville",
                        "postcode": "H4L 2R6",
                        "region": "QC"
                  },
                  "name": "Express Pizza & Poulet",
                  "popularity": 0.5642505677517032,
                  "price": 1
            },
            {
                  "distance": 688,
                  "location": {
                        "address": "996 Decarie Blvd",
                        "country": "CA",
                        "cross_street": "",
                        "formatted_address": "996 Decarie Blvd, Saint-Laurent QC H4L 3M5",
                        "locality": "Saint-Laurent",
                        "postcode": "H4L 3M5",
                        "region": "QC"
                  },
                  "name": "Caf\u00e9 Van Houtte",
                  "popularity": 0.9931751514004542,
                  "price": 1
            },
            {
                  "distance": 697,
                  "location": {
                        "address": "983 Decarie Blvd",
                        "country": "CA",
                        "cross_street": "Boul. de la C\u00f4te Vertu",
                        "formatted_address": "983 Decarie Blvd (Boul. de la C\u00f4te Vertu), Saint-Laurent QC H4L 3M6",
                        "locality": "Saint-Laurent",
                        "postcode": "H4L 3M6",
                        "region": "QC"
                  },
                  "name": "Bol Orange",
                  "popularity": 0.9293858819076457,
                  "price": 2
            },
            {
                  "distance": 715,
                  "location": {
                        "address": "1470 Blvd de la Cote Vertu",
                        "country": "CA",
                        "cross_street": "Boul. de la C\u00f4te-Vertu",
                        "formatted_address": "1470 Blvd de la Cote Vertu (Boul. de la C\u00f4te-Vertu), Saint-Laurent QC H4L 1Z7",
                        "locality": "Saint-Laurent",
                        "postcode": "H4L 1Z7",
                        "region": "QC"
                  },
                  "name": "Caf\u00e9 Tea Tac Toe",
                  "popularity": 0.928285862982589,
                  "price": 1
            },
            {
                  "distance": 724,
                  "location": {
                        "address": "1001 Decarie Blvd",
                        "country": "CA",
                        "cross_street": "at boul. de la C\u00f4te-Vertu",
                        "formatted_address": "1001 Decarie Blvd (at boul. de la C\u00f4te-Vertu), Saint-Laurent QC H4L 3M6",
                        "locality": "Saint-Laurent",
                        "postcode": "H4L 3M6",
                        "region": "QC"
                  },
                  "name": "Restaurant Kam Do",
                  "popularity": 0.9516228236184708,
                  "price": 1
            },
            {
                  "distance": 773,
                  "location": {
                        "address": "959 Decarie Blvd",
                        "country": "CA",
                        "cross_street": "",
                        "formatted_address": "959 Decarie Blvd, Saint-Laurent QC H4L 3M3",
                        "locality": "Saint-Laurent",
                        "postcode": "H4L 3M3",
                        "region": "QC"
                  },
                  "name": "La Diperie",
                  "popularity": 0.9373462339137018,
                  "price": 1
            },
            {
                  "distance": 777,
                  "location": {
                        "address": "1803 Poirier Rue",
                        "country": "CA",
                        "cross_street": "",
                        "formatted_address": "1803 Poirier Rue, Montr\u00e9al QC H4R 1K4",
                        "locality": "Montreal",
                        "postcode": "H4R 1K4",
                        "region": "QC"
                  },
                  "name": "Restaurant Miran",
                  "popularity": 0.8331164837244511,
                  "price": 2
            },
            {
                  "distance": 825,
                  "location": {
                        "address": "1995 Marcel-Laurin Blvd",
                        "country": "CA",
                        "cross_street": "",
                        "formatted_address": "1995 Marcel-Laurin Blvd, Saint-Laurent QC H4R 1K4",
                        "locality": "Saint-Laurent",
                        "postcode": "H4R 1K4",
                        "region": "QC"
                  },
                  "name": "Villa Madina",
                  "popularity": 0.2170822293716881,
                  "price": 2
            },
            {
                  "distance": 921,
                  "location": {
                        "address": "886 Decarie Blvd",
                        "country": "CA",
                        "cross_street": "",
                        "formatted_address": "886 Decarie Blvd, Montr\u00e9al QC H4L 3L9",
                        "locality": "Montreal",
                        "postcode": "H4L 3L9",
                        "region": "QC"
                  },
                  "name": "Pho Moderne",
                  "popularity": 0.9669521196063589,
                  "price": 2
            },
            {
                  "distance": 1144,
                  "location": {
                        "address": "1805 O'Brien Ave",
                        "country": "CA",
                        "cross_street": "",
                        "formatted_address": "1805 O'Brien Ave, Montr\u00e9al QC H4L 3W6",
                        "locality": "Montreal",
                        "postcode": "H4L 3W6",
                        "region": "QC"
                  },
                  "name": "Mamma's Restaurant Pizzeria",
                  "popularity": 0.5918929788039364,
                  "price": 2
            },
            {
                  "distance": 145,
                  "location": {
                        "address": "1375 Grenet Rue",
                        "country": "CA",
                        "formatted_address": "1375 Grenet Rue, Saint-Laurent QC H4L 5K3",
                        "locality": "Saint-Laurent",
                        "postcode": "H4L 5K3",
                        "region": "QC"
                  },
                  "name": "Cafe Mauro"
            },
            {
                  "distance": 238,
                  "location": {
                        "address": "1555 Marcel Laurin",
                        "country": "CA",
                        "formatted_address": "1555 Marcel Laurin, Saint-Laurent QC H4R 0B7",
                        "locality": "Saint-Laurent",
                        "postcode": "H4R 0B7",
                        "region": "QC"
                  },
                  "name": "Second Cup Caf\u00e9"
            },
            {
                  "distance": 318,
                  "location": {
                        "address": "1898 Thimens Blvd",
                        "country": "CA",
                        "formatted_address": "1898 Thimens Blvd, Saint-Laurent QC H4R 2K2",
                        "locality": "Saint-Laurent",
                        "postcode": "H4R 2K2",
                        "region": "QC"
                  },
                  "name": "R.W. Restaurant"
            },
            {
                  "distance": 375,
                  "location": {
                        "address": "2015 Marcel-Laurin Blvd",
                        "country": "CA",
                        "formatted_address": "2015 Marcel-Laurin Blvd, Saint-Laurent QC H4R 1K4",
                        "locality": "Saint-Laurent",
                        "postcode": "H4R 1K4",
                        "region": "QC"
                  },
                  "name": "Dagwoods"
            },
            {
                  "distance": 507,
                  "location": {
                        "address": "1180 Decarie Rue",
                        "country": "CA",
                        "formatted_address": "1180 Decarie Rue, Saint-Laurent QC H4L 3M9",
                        "locality": "Saint-Laurent",
                        "postcode": "H4L 3M9",
                        "region": "QC"
                  },
                  "name": "Restaurant Fu Kam Wah"
            }
      ],
      "context": {
            "geo_bounds": {
                  "circle": {
                        "center": {
                              "latitude": 45.51473429,
                              "longitude": -73.69144902
                        },
                        "radius": 1000
                  }
            }
      }
}