{
      "results": [
            {
                  "distance": 459,
                  "location": {
                        "address": "1360 Rosemont Blvd",
                        "country": "CA",
                        "cross_street": "",
                        "formatted_address": "1360 Rosemont Blvd, Montr\u00e9al QC H2G 1V4",
                        "locality": "Montreal",
                        "postcode": "H2G 1V4",
                        "region": "QC"
                  },
                  "name": "Caf\u00e9 Dei Campi",
                  "popularity": 0.9428108440575321,
                  "price": 1,
                  "rating": 9.1
            },
            {
                  "distance": 741,
                  "location": {
                        "address": "809 Laurier Ave E",
                        "country": "CA",
                        "formatted_address": "809 Laurier Ave E, Montr\u00e9al QC H2J 1G2",
                        "locality": "Montreal",
                        "postcode": "H2J 1G2",
                        "region": "QC"
                  },
                  "name": "Fous Desserts",
                  "popularity": 0.9535389856169568,
                  "rating": 9.0
            },
            {
                  "distance": 947,
                  "location": {
                        "address": "430 Laurier Ave E",
                        "country": "CA",
                        "cross_street": "coin Rivard",
                        "formatted_address": "430 Laurier Ave E (coin Rivard), Montr\u00e9al QC H2J 1E5",
                        "locality": "Montreal",
                        "postcode": "H2J 1E5",
                        "region": "QC"
                  },
                  "name": "Noble Caf\u00e9",
                  "popularity": 0.9352526495079485,
                  "price": 1,
                  "rating": 8.8
            },
            {
                  "distance": 401,
                  "location": {
                        "address": "1650 Laurier Ave E",
                        "country": "CA",
                        "cross_street": "Marquette",
                        "formatted_address": "1650 Laurier Ave E (Marquette), Montr\u00e9al QC H2J 1J2",
                        "locality": "Montreal",
                        "postcode": "H2J 1J2",
                        "region": "QC"
                  },
                  "name": "Sushi Tri Express",
                  "popularity": 0.8795656699470098,
                  "price": 2,
                  "rating": 8.5
            },
            {
                  "distance": 499,
                  "location": {
                        "address": "1995 Masson Rue",
                        "country": "CA",
                        "cross_street": "coin Bordeaux",
                        "formatted_address": "1995 Masson Rue (coin Bordeaux), Montr\u00e9al QC H2H 1A5",
                        "locality": "Montreal",
                        "postcode": "H2H 1A5",
                        "region": "QC"
                  },
                  "name": "L'Entre-Pots",
                  "popularity": 0.955679882664648,
                  "price": 1,
                  "rating": 8.5
            },
            {
                  "distance": 773,
                  "location": {
                        "address": "1059 Gilford Rue",
                        "country": "CA",
                        "cross_street": "Christophe-Colomb",
                        "formatted_address": "1059 Gilford Rue (Christophe-Colomb), Montr\u00e9al QC H2J 1P7",
                        "locality": "Montreal",
                        "postcode": "H2J 1P7",
                        "region": "QC"
                  },
                  "name": "Restaurant la Raclette",
                  "popularity": 0.9396527252081757,
                  "price": 3,
                  "rating": 8.5
            },
            {
                  "distance": 689,
                  "location": {
                        "address": "4720 Marquette Rue",
                        "country": "CA",
                        "cross_street": "coin Gilford",
                        "formatted_address": "4720 Marquette Rue (coin Gilford), Montr\u00e9al QC H2J 3Y6",
                        "locality": "Montreal",
                        "postcode": "H2J 3Y6",
                        "region": "QC"
                  },
                  "name": "Maison Publique",
                  "popularity": 0.9193674299772899,
                  "price": 3,
                  "rating": 8.4
            },
            {
                  "distance": 396,
                  "location": {
                        "address": "1300 Laurier Ave E",
                        "country": "CA",
                        "cross_street": "Chambord",
                        "formatted_address": "1300 Laurier Ave E (Chambord), Montr\u00e9al QC H2J 1H3",
                        "locality": "Montreal",
                        "postcode": "H2J 1H3",
                        "region": "QC"
                  },
                  "name": "Creme Glacee Bo-Bec",
                  "popularity": 0.9121522520817562,
                  "price": 1,
                  "rating": 8.3
            },
            {
                  "distance": 990,
                  "location": {
                        "address": "1576 Ave du Mont-Royal Est",
                        "country": "CA",
                        "cross_street": "",
                        "formatted_address": "1576 Ave du Mont-Royal Est, Montr\u00e9al QC H2J 1Z2",
                        "locality": "Montreal",
                        "postcode": "H2J 1Z2",
                        "region": "QC"
                  },
                  "name": "L'Artisan Piadineria",
                  "popularity": 0.5744109576078729,
                  "price": 2,
                  "rating": 8.2
            },
            {
                  "distance": 680,
                  "location": {
                        "address": "4710 rue de Lanaudi\u00e8re",
                        "country": "CA",
                        "cross_street": "coin Gilford",
                        "formatted_address": "4710 rue de Lanaudi\u00e8re (coin Gilford), Montr\u00e9al QC H2J 3P7",
                        "locality": "Montreal",
                        "postcode": "H2J 3P7",
                        "region": "QC"
                  },
                  "name": "Le Chien Fumant",
                  "popularity": 0.9083435844057532,
                  "price": 3,
                  "rating": 8.2
            },
            {
                  "distance": 380,
                  "location": {
                        "address": "1546 Laurier Ave E",
                        "country": "CA",
                        "cross_street": "Rue Fabre",
                        "formatted_address": "1546 Laurier Ave E (Rue Fabre), Montr\u00e9al QC H2J 1H9",
                        "locality": "Montreal",
                        "postcode": "H2J 1H9",
                        "region": "QC"
                  },
                  "name": "Caf\u00e9 M\u00e9chants Pinsons",
                  "popularity": 0.9265707797123391,
                  "price": 1,
                  "rating": 8.1
            },
            {
                  "distance": 899,
                  "location": {
                        "address": "5938 Saint-Hubert Rue",
                        "country": "CA",
                        "cross_street": "",
                        "formatted_address": "5938 Saint-Hubert Rue, Montr\u00e9al QC H2S 2L7",
                        "locality": "Montreal",
                        "postcode": "H2S 2L7",
                        "region": "QC"
                  },
                  "name": "Restaurant Casa Alentejo",
                  "popularity": 0.9143522899318698,
                  "price": 2,
                  "rating": 7.9
            },
            {
                  "distance": 364,
                  "location": {
                        "address": "1499 Laurier Ave E",
                        "country": "CA",
                        "cross_street": "coin Fabre",
                        "formatted_address": "1499 Laurier Ave E (coin Fabre), Montr\u00e9al QC H2J 1H8",
                        "locality": "Montreal",
                        "postcode": "H2J 1H8",
                        "region": "QC"
                  },
                  "name": "Byblos le Petit Caf\u00e9",
                  "popularity": 0.8978046934140802,
                  "price": 2,
                  "rating": 7.8
            },
            {
                  "distance": 356,
                  "location": {
                        "address": "1389 Laurier Ave E",
                        "country": "CA",
                        "cross_street": "Garnier",
                        "formatted_address": "1389 Laurier Ave E (Garnier), Montr\u00e9al QC H2J 1H6",
                        "locality": "Montreal",
                        "postcode": "H2J 1H6",
                        "region": "QC"
                  },
                  "name": "Brulerie Saint-Denis",
                  "popularity": 0.9221115632096897,
                  "price": 1,
                  "rating": 7.7
            },
            {
                  "distance": 254,
                  "location": {
                        "address": "5368 Papineau Ave",
                        "country": "CA",
                        "cross_street": "",
                        "formatted_address": "5368 Papineau Ave, Montr\u00e9al QC H2H 1W2",
                        "locality": "Montreal",
                        "postcode": "H2H 1W2",
                        "region": "QC"
                  },
                  "name": "Caf\u00e9 Orr",
                  "popularity": 0.9599853330809992,
                  "price": 1,
                  "rating": 7.6
            },
            {
                  "distance": 815,
                  "location": {
                        "address": "780 Rosemont Blvd",
                        "country": "CA",
                        "cross_street": "coin St-Hubert",
                        "formatted_address": "780 Rosemont Blvd (coin St-Hubert), Montr\u00e9al QC H2S 0B7",
                        "locality": "Montreal",
                        "postcode": "H2S 0B7",
                        "region": "QC"
                  },
                  "name": "\u00d4 deux soeurs",
                  "popularity": 0.8103709311127933,
                  "price": 1,
                  "rating": 7.4
            },
            {
                  "distance": 565,
                  "location": {
                        "address": "5800 rue de la Roche",
                        "country": "CA",
                        "cross_street": "coin Rosemont",
                        "formatted_address": "5800 rue de la Roche (coin Rosemont), Montr\u00e9al QC H2S 2C7",
                        "locality": "Montreal",
                        "postcode": "H2S 2C7",
                        "region": "QC"
                  },
                  "name": "Le North End",
                  "popularity": 0.8863077214231643,
                  "price": 3,
                  "rating": 7.2
            },
            {
                  "distance": 995,
                  "location": {
                        "address": "1651 Mont Royal Ave E",
                        "country": "CA",
                        "cross_street": "",
                        "formatted_address": "1651 Mont Royal Ave E, Montr\u00e9al QC H2J 1Z5",
                        "locality": "Montreal",
                        "postcode": "H2J 1Z5",
                        "region": "QC"
                  },
                  "name": "A&W Restaurant",
                  "popularity": 0.9603638342165026,
                  "price": 1,
                  "rating": 6.9,
                  "store_id": "5549"
            },
            {
                  "distance": 751,
                  "location": {
                        "address": "540 Boucher Rue",
                        "country": "CA",
                        "cross_street": "coin Resther",
                        "formatted_address": "540 Boucher Rue (coin Resther), Montr\u00e9al QC H2J 1C2",
                        "locality": "Montreal",
                        "postcode": "H2J 1C2",
                        "region": "QC"
                  },
                  "name": "Taverne Bar la Remise Inc",
                  "popularity": 0.9550056775170326,
                  "price": 2,
                  "rating": 6.9
            },
            {
                  "distance": 944,
                  "location": {
                        "address": "5237 Saint-Denis Rue",
                        "country": "CA",
                        "cross_street": "",
                        "formatted_address": "5237 Saint-Denis Rue, Montr\u00e9al QC H2J 2M1",
                        "locality": "Montreal",
                        "postcode": "H2J 2M1",
                        "region": "QC"
                  },
                  "name": "Restaurant le Bleu Raisin",
                  "popularity": 0.8919497539742619,
                  "price": 3,
                  "rating": 6.6
            },
            {
                  "distance": 673,
                  "location": {
                        "address": "5800 Christophe-Colomb Ave",
                        "country": "CA",
                        "cross_street": "Boulevard Rosemont",
                        "formatted_address": "5800 Christophe-Colomb Ave (Boulevard Rosemont), Montr\u00e9al QC H2S 2G2",
                        "locality": "Montreal",
                        "postcode": "H2S 2G2",
                        "region": "QC"
                  },
                  "name": "Tim Hortons",
                  "popularity": 0.8799559992429977,
                  "price": 1,
                  "rating": 6.3
            },
            {
                  "distance": 930,
                  "location": {
                        "address": "445 Laurier Ave E",
                        "country": "CA",
                        "formatted_address": "445 Laurier Ave E, Montr\u00e9al QC H2J 1E6",
                        "locality": "Montreal",
                        "postcode": "H2J 1E6",
                        "region": "QC"
                  },
                  "name": "La Boite Gourmande",
                  "popularity": 0.8986563209689629,
                  "price": 2,
                  "rating": 6.2
            },
            {
                  "distance": 1027,
                  "location": {
                        "address": "1251 Ave Mont-Royal Est",
                        "country": "CA",
                        "cross_street": "Br\u00e9beuf",
                        "formatted_address": "1251 Ave Mont-Royal Est (Br\u00e9beuf), Montr\u00e9al QC H2J 1Y4",
                        "locality": "Montreal",
                        "postcode": "H2J 1Y4",
                        "region": "QC"
                  },
                  "name": "Copper Branch",
                  "popularity": 0.8276873580620742,
                  "price": 2,
                  "rating": 5.9
            },
            {
                  "distance": 525,
                  "location": {
                        "address": "1275 Rosemont Blvd",
                        "country": "CA",
                        "formatted_address": "1275 Rosemont Blvd, Montr\u00e9al QC H2S 3L9",
                        "locality": "Montreal",
                        "postcode": "H2S 3L9",
                        "region": "QC"
                  },
                  "name": "McDonald's",
                  "popularity": 0.9897449848599545,
                  "price": 1,
                  "rating": 5.4,
                  "store_id": "2964"
            },
            {
                  "distance": 382,
                  "location": {
                        "address": "1556 Laurier Ave E",
                        "country": "CA",
                        "cross_street": "Rue Fabre",
                        "formatted_address": "1556 Laurier Ave E (Rue Fabre), Montr\u00e9al QC H2J 1H9",
                        "locality": "Montreal",
                        "postcode": "H2J 1H9",
                        "region": "QC"
                  },
                  "name": "Le Bibim - Pique-nique cor\u00e9en",
                  "popularity": 0.17541161998485996,
                  "price": 2
            },
            {
                  "distance": 438,
                  "location": {
                        "address": "5477 Chabot Rue",
                        "country": "CA",
                        "cross_street": "",
                        "formatted_address": "5477 Chabot Rue, Montr\u00e9al QC H2H 1Z1",
                        "locality": "Montreal",
                        "postcode": "H2H 1Z1",
                        "region": "QC"
                  },
                  "name": "Maison Chabot",
                  "popularity": 0.9506765707797123,
                  "price": 1
            },
            {
                  "distance": 482,
                  "location": {
                        "address": "5161 Papineau Ave",
                        "country": "CA",
                        "cross_street": "",
                        "formatted_address": "5161 Papineau Ave, Montr\u00e9al QC H2H 1W1",
                        "locality": "Montreal",
                        "postcode": "H2H 1W1",
                        "region": "QC"
                  },
                  "name": "Chez Tomio",
                  "popularity": 0.8303723504920515,
                  "price": 2
            },
            {
                  "distance": 514,
                  "location": {
                        "address": "1815 Laurier Ave E",
                        "country": "CA",
                        "cross_street": "",
                        "formatted_address": "1815 Laurier Ave E, Montr\u00e9al QC H2H 1B3",
                        "locality": "Montreal",
                        "postcode": "H2H 1B3",
                        "region": "QC"
                  },
                  "name": "Bistro 1815",
                  "popularity": 0.8681514950794852,
                  "price": 2
            },
            {
                  "distance": 689,
                  "location": {
                        "address": "2055 Laurier Ave E",
                        "country": "CA",
                        "cross_street": "De Lorimier",
                        "formatted_address": "2055 Laurier Ave E (De Lorimier), Montr\u00e9al QC H2H 1B8",
                        "locality": "Montreal",
                        "postcode": "H2H 1B8",
                        "region": "QC"
                  },
                  "name": "Dans la Gueule du Loup",
                  "popularity": 0.9511615253595761,
                  "price": 1
            },
            {
                  "distance": 721,
                  "location": {
                        "address": "4780 Papineau Ave",
                        "country": "CA",
                        "cross_street": "Gilford",
                        "formatted_address": "4780 Papineau Ave (Gilford), Montr\u00e9al QC H2H 1V5",
                        "locality": "Montreal",
                        "postcode": "H2H 1V5",
                        "region": "QC"
                  },
                  "name": "Boulangerie Patisserie l'Artisan",
                  "popularity": 0.8731193224829674,
                  "price": 2
            },
            {
                  "distance": 741,
                  "location": {
                        "address": "961 Mont Royal Rue E",
                        "country": "CA",
                        "cross_street": "Boyer",
                        "formatted_address": "961 Mont Royal Rue E (Boyer), Montr\u00e9al QC",
                        "locality": "Montreal",
                        "region": "QC"
                  },
                  "name": "Lun Hong Inc: Centre des Mets Chinois a Montreal",
                  "popularity": 0.7574753974261923,
                  "price": 1
            },
            {
                  "distance": 756,
                  "location": {
                        "address": "824 Rosemont Blvd",
                        "country": "CA",
                        "cross_street": "Saint-Hubert",
                        "formatted_address": "824 Rosemont Blvd (Saint-Hubert), Montr\u00e9al QC H2S 1Z6",
                        "locality": "Montreal",
                        "postcode": "H2S 1Z6",
                        "region": "QC"
                  },
                  "name": "Le Comptoir Mael",
                  "popularity": 0.9000402157456472,
                  "price": 2
            },
            {
                  "distance": 826,
                  "location": {
                        "address": "5500 Fullum Rue",
                        "address_extended": "Suite 105",
                        "country": "CA",
                        "cross_street": "",
                        "formatted_address": "5500 Fullum Rue, Montr\u00e9al QC H2G 2H3",
                        "locality": "Montreal",
                        "postcode": "H2G 2H3",
                        "region": "QC"
                  },
                  "name": "Kittel Compagnie de Caf\u00e9",
                  "popularity": 0.044816900075700224,
                  "price": 1
            },
            {
                  "distance": 873,
                  "location": {
                        "address": "5885 Papineau Ave",
                        "country": "CA",
                        "cross_street": "De Lorimier",
                        "formatted_address": "5885 Papineau Ave (De Lorimier), Montr\u00e9al QC H2G 2W5",
                        "locality": "Montreal",
                        "postcode": "H2G 2W5",
                        "region": "QC"
                  },
                  "name": "Grozepa Brasserie Urbaine",
                  "popularity": 0.969708080999243,
                  "price": 2
            },
            {
                  "distance": 935,
                  "location": {
                        "address": "5985 Saint-Hubert Rue",
                        "country": "CA",
                        "cross_street": "",
                        "formatted_address": "5985 Saint-Hubert Rue, Montr\u00e9al QC H2S 2L8",
                        "locality": "Montreal",
                        "postcode": "H2S 2L8",
                        "region": "QC"
                  },
                  "name": "Pichai",
                  "popularity": 0.9629660295230885,
                  "price": 2
            }
      ],
      "context": {
            "geo_bounds": {
                  "circle": {
                        "center": {
                              "latitude": 45.53582154,
                              "longitude": -73.5871017
                        },
                        "radius": 1000
                  }
            }
      }
}