{
      "results": [
            {
                  "distance": 995,
                  "location": {
                        "address": "2407 Ave du Mont-Royal Est",
                        "country": "CA",
                        "cross_street": "entre Franch\u00e8re & Chapleau",
                        "formatted_address": "2407 Ave du Mont-Royal Est (entre Franch\u00e8re & Chapleau), Montr\u00e9al QC H2H 1L2",
                        "locality": "Montreal",
                        "postcode": "H2H 1L2",
                        "region": "QC"
                  },
                  "name": "Boswell Brasserie Artisanale",
                  "popularity": 0.9548282551097653,
                  "price": 2,
                  "rating": 8.6
            },
            {
                  "distance": 374,
                  "location": {
                        "address": "4093 Molson Rue",
                        "country": "CA",
                        "cross_street": "Rue William-Tremblay",
                        "formatted_address": "4093 Molson Rue (Rue William-Tremblay), Montr\u00e9al QC H1Y 3L1",
                        "locality": "Montreal",
                        "postcode": "H1Y 3L1",
                        "region": "QC"
                  },
                  "name": "Mamie Clafoutis",
                  "popularity": 0.9076693792581377,
                  "price": 1,
                  "rating": 7.9
            },
            {
                  "distance": 408,
                  "location": {
                        "address": "3121 Hochelaga Rue",
                        "country": "CA",
                        "cross_street": "",
                        "formatted_address": "3121 Hochelaga Rue, Montr\u00e9al QC H1W 1G3",
                        "locality": "Montreal",
                        "postcode": "H1W 1G3",
                        "region": "QC"
                  },
                  "name": "Maneki Comptoir Asiat'",
                  "popularity": 0.8695235616956851,
                  "price": 2,
                  "rating": 7.2
            },
            {
                  "distance": 208,
                  "location": {
                        "address": "3090 Sherbrooke Rue E",
                        "country": "CA",
                        "cross_street": "coin Moreau",
                        "formatted_address": "3090 Sherbrooke Rue E (coin Moreau), Montr\u00e9al QC H1W 1B5",
                        "locality": "Montreal",
                        "postcode": "H1W 1B5",
                        "region": "QC"
                  },
                  "name": "Deli Miami",
                  "popularity": 0.9861492240726722,
                  "price": 1,
                  "rating": 6.9
            },
            {
                  "distance": 519,
                  "location": {
                        "address": "2765 Sherbrooke Rue E",
                        "country": "CA",
                        "cross_street": "Montgomery",
                        "formatted_address": "2765 Sherbrooke Rue E (Montgomery), Montr\u00e9al QC H2K 1G9",
                        "locality": "Montreal",
                        "postcode": "H2K 1G9",
                        "region": "QC"
                  },
                  "name": "Subway",
                  "popularity": 0.8906368281604845,
                  "price": 1,
                  "rating": 6.3,
                  "store_id": "27680"
            },
            {
                  "distance": 992,
                  "location": {
                        "address": "3881 Sherbrooke Rue E",
                        "country": "CA",
                        "cross_street": "coin Av. Bourbonni\u00e8re",
                        "formatted_address": "3881 Sherbrooke Rue E (coin Av. Bourbonni\u00e8re), Montr\u00e9al QC H1X 2A5",
                        "locality": "Montreal",
                        "postcode": "H1X 2A5",
                        "region": "QC"
                  },
                  "name": "Tim Hortons",
                  "popularity": 0.9890116389099167,
                  "price": 1,
                  "rating": 6.2
            },
            {
                  "distance": 523,
                  "location": {
                        "address": "2800 Rachel St E",
                        "country": "CA",
                        "cross_street": "",
                        "formatted_address": "2800 Rachel St E, Montr\u00e9al QC H2H 1S8",
                        "locality": "Montreal",
                        "postcode": "H2H 1S8",
                        "region": "QC"
                  },
                  "name": "Pizza Hut",
                  "popularity": 0.9308289174867524,
                  "price": 1,
                  "rating": 6.1
            },
            {
                  "distance": 357,
                  "location": {
                        "address": "2901 Sherbrooke St E",
                        "country": "CA",
                        "cross_street": "",
                        "formatted_address": "2901 Sherbrooke St E, Montr\u00e9al QC H1W 1B2",
                        "locality": "Montreal",
                        "postcode": "H1W 1B2",
                        "region": "QC"
                  },
                  "name": "McDonald's",
                  "popularity": 0.9885621688115064,
                  "price": 1,
                  "rating": 5.3,
                  "store_id": "40472"
            },
            {
                  "distance": 389,
                  "location": {
                        "address": "4091 Molson Rue",
                        "country": "CA",
                        "cross_street": "",
                        "formatted_address": "4091 Molson Rue, Montr\u00e9al QC H1Y 3L1",
                        "locality": "Montreal",
                        "postcode": "H1Y 3L1",
                        "region": "QC"
                  },
                  "name": "Pizzeria Caldo",
                  "popularity": 0.17878264572293717,
                  "price": 1,
                  "rating": 5.3
            },
            {
                  "distance": 460,
                  "location": {
                        "address": "3090 Hochelaga Rue",
                        "country": "CA",
                        "cross_street": "",
                        "formatted_address": "3090 Hochelaga Rue, Montr\u00e9al QC H1W 1G2",
                        "locality": "Montreal",
                        "postcode": "H1W 1G2",
                        "region": "QC"
                  },
                  "name": "KFC",
                  "popularity": 0.9641961582134746,
                  "price": 1,
                  "rating": 4.9,
                  "store_id": "1256"
            },
            {
                  "distance": 264,
                  "location": {
                        "address": "4090 Andre-Laurendeau Rue",
                        "country": "CA",
                        "cross_street": "",
                        "formatted_address": "4090 Andre-Laurendeau Rue, Montreal QC H1Y 3N6",
                        "locality": "Montreal",
                        "postcode": "H1Y 3N6",
                        "region": "QC"
                  },
                  "name": "La Caf\u00e9shop",
                  "popularity": 0.8607470666161998,
                  "price": 1
            },
            {
                  "distance": 362,
                  "location": {
                        "address": "2600 William-Tremblay Rue",
                        "country": "CA",
                        "cross_street": "",
                        "formatted_address": "2600 William-Tremblay Rue, Montr\u00e9al QC H1Y 3J2",
                        "locality": "Montreal",
                        "postcode": "H1Y 3J2",
                        "region": "QC"
                  },
                  "name": "Station W",
                  "popularity": 0.9345902725208176,
                  "price": 1
            },
            {
                  "distance": 397,
                  "location": {
                        "address": "4091 Molson Rue",
                        "country": "CA",
                        "cross_street": "",
                        "formatted_address": "4091 Molson Rue, Montr\u00e9al QC H1Y 3L1",
                        "locality": "Montreal",
                        "postcode": "H1Y 3L1",
                        "region": "QC"
                  },
                  "name": "Pizzeria No.900",
                  "popularity": 0.9202427138531416,
                  "price": 1
            },
            {
                  "distance": 604,
                  "location": {
                        "address": "3537 Rachel Rue E",
                        "country": "CA",
                        "cross_street": "",
                        "formatted_address": "3537 Rachel Rue E, Montr\u00e9al QC H1W 1A8",
                        "locality": "Montreal",
                        "postcode": "H1W 1A8",
                        "region": "QC"
                  },
                  "name": "Jardin des Delices",
                  "popularity": 0.9223599545798638,
                  "price": 2
            },
            {
                  "distance": 751,
                  "location": {
                        "address": "4600 Molson Rue",
                        "country": "CA",
                        "cross_street": "",
                        "formatted_address": "4600 Molson Rue, Montr\u00e9al QC H1Y 0A3",
                        "locality": "Montreal",
                        "postcode": "H1Y 0A3",
                        "region": "QC"
                  },
                  "name": "Mito Sushi",
                  "popularity": 0.625981737320212,
                  "price": 2
            },
            {
                  "distance": 767,
                  "location": {
                        "address": "2100 Moreau Rue",
                        "country": "CA",
                        "cross_street": "",
                        "formatted_address": "2100 Moreau Rue, Montr\u00e9al QC H1W 2M3",
                        "locality": "Montreal",
                        "postcode": "H1W 2M3",
                        "region": "QC"
                  },
                  "name": "La Compagnie Montreal Chop Suey Lt\u00e9e",
                  "popularity": 0.6426239591218774
            },
            {
                  "distance": 801,
                  "location": {
                        "address": "3667 Hochelaga Rue",
                        "country": "CA",
                        "cross_street": "Chambly",
                        "formatted_address": "3667 Hochelaga Rue (Chambly), Montr\u00e9al QC H1W 1J2",
                        "locality": "Montreal",
                        "postcode": "H1W 1J2",
                        "region": "QC"
                  },
                  "name": "Bistro King Creole",
                  "popularity": 0.007901211203633612,
                  "price": 2
            },
            {
                  "distance": 890,
                  "location": {
                        "address": "3800 Sherbrooke Rue E",
                        "country": "CA",
                        "cross_street": "",
                        "formatted_address": "3800 Sherbrooke Rue E, Montr\u00e9al QC H1X 2A2",
                        "locality": "Montreal",
                        "postcode": "H1X 2A2",
                        "region": "QC"
                  },
                  "name": "Caf\u00e9 l'Escale",
                  "popularity": 0.9066403292959879,
                  "price": 1
            },
            {
                  "distance": 969,
                  "location": {
                        "address": "3213 Ontario Rue E",
                        "country": "CA",
                        "cross_street": "",
                        "formatted_address": "3213 Ontario Rue E, Montr\u00e9al QC H1W 1P3",
                        "locality": "Montreal",
                        "postcode": "H1W 1P3",
                        "region": "QC"
                  },
                  "name": "Coop\u00e9rative Rond-Point, caf\u00e9 autog\u00e9r\u00e9",
                  "popularity": 0.7255275359576079,
                  "price": 1
            },
            {
                  "distance": 970,
                  "location": {
                        "address": "3213 Ontario Rue E",
                        "country": "CA",
                        "cross_street": "D\u00e9z\u00e9ry",
                        "formatted_address": "3213 Ontario Rue E (D\u00e9z\u00e9ry), Montr\u00e9al QC H1W 1P3",
                        "locality": "Montreal",
                        "postcode": "H1W 1P3",
                        "region": "QC"
                  },
                  "name": "Le Rond-Point",
                  "popularity": 0.9561766654049962,
                  "price": 1
            },
            {
                  "distance": 974,
                  "location": {
                        "address": "3179 Ontario Rue E",
                        "country": "CA",
                        "cross_street": "D\u00e9zery",
                        "formatted_address": "3179 Ontario Rue E (D\u00e9zery), Montr\u00e9al QC H1W 1P1",
                        "locality": "Montreal",
                        "postcode": "H1W 1P1",
                        "region": "QC"
                  },
                  "name": "Chez Sandrine",
                  "popularity": 0.6639856169568509,
                  "price": 1
            },
            {
                  "distance": 975,
                  "location": {
                        "address": "3227 Ontario Rue E",
                        "country": "CA",
                        "cross_street": "",
                        "formatted_address": "3227 Ontario Rue E, Montr\u00e9al QC H1W 1P3",
                        "locality": "Montreal",
                        "postcode": "H1W 1P3",
                        "region": "QC"
                  },
                  "name": "3 Patapoufs",
                  "popularity": 0.961132664647994
            },
            {
                  "distance": 219,
                  "location": {
                        "address": "3240 Rachel Rue E",
                        "country": "CA",
                        "formatted_address": "3240 Rachel Rue E, Montreal QC H1W 1A4",
                        "locality": "Montreal",
                        "postcode": "H1W 1A4",
                        "region": "QC"
                  },
                  "name": "Pub Angus"
            },
            {
                  "distance": 271,
                  "location": {
                        "address": "2925 Rachel Rue E",
                        "country": "CA",
                        "formatted_address": "2925 Rachel Rue E, Montreal QC H1W 3Z8",
                        "locality": "Montreal",
                        "postcode": "H1W 3Z8",
                        "region": "QC"
                  },
                  "name": "Starbucks",
                  "store_id": "65587-300003"
            },
            {
                  "distance": 460,
                  "location": {
                        "address": "3090 Hochelaga Rue",
                        "country": "CA",
                        "formatted_address": "3090 Hochelaga Rue, Montreal QC H1W 1G2",
                        "locality": "Montreal",
                        "postcode": "H1W 1G2",
                        "region": "QC"
                  },
                  "name": "Restaurant Pfk -Suite Continue, Succursales, Montreal"
            },
            {
                  "distance": 482,
                  "location": {
                        "address": "3060 Hochelaga Rue",
                        "country": "CA",
                        "formatted_address": "3060 Hochelaga Rue, Montreal QC H1W 1G2",
                        "locality": "Montreal",
                        "postcode": "H1W 1G2",
                        "region": "QC"
                  },
                  "name": "R\u00f4tisseries au Coq Lt\u00e9e, les"
            },
            {
                  "distance": 567,
                  "location": {
                        "address": "2755 Sherbrooke Rue E",
                        "country": "CA",
                        "formatted_address": "2755 Sherbrooke Rue E, Montreal QC H2K 1G9",
                        "locality": "Montreal",
                        "postcode": "H2K 1G9",
                        "region": "QC"
                  },
                  "name": "Pizza Hut"
            },
            {
                  "distance": 571,
                  "location": {
                        "address": "3400 Hochelaga Rue",
                        "country": "CA",
                        "formatted_address": "3400 Hochelaga Rue, Montreal QC H1W 1H3",
                        "locality": "Montreal",
                        "postcode": "H1W 1H3",
                        "region": "QC"
                  },
                  "name": "Restaurant Yammi Yammi Pizza"
            },
            {
                  "distance": 571,
                  "location": {
                        "address": "3400 Hochelaga Rue",
                        "country": "CA",
                        "formatted_address": "3400 Hochelaga Rue, Montreal QC H1W 1H3",
                        "locality": "Montreal",
                        "postcode": "H1W 1H3",
                        "region": "QC"
                  },
                  "name": "Restaurant Rami"
            },
            {
                  "distance": 646,
                  "location": {
                        "address": "3645 Sherbrooke Rue E",
                        "country": "CA",
                        "formatted_address": "3645 Sherbrooke Rue E, Montreal QC H1W 1E5",
                        "locality": "Montreal",
                        "postcode": "H1W 1E5",
                        "region": "QC"
                  },
                  "name": "Sandwich Par-Ici"
            },
            {
                  "distance": 665,
                  "location": {
                        "address": "3529 Hochelaga Rue",
                        "country": "CA",
                        "formatted_address": "3529 Hochelaga Rue, Montreal QC H1W 1H8",
                        "locality": "Montreal",
                        "postcode": "H1W 1H8",
                        "region": "QC"
                  },
                  "name": "Taverne Morelli"
            },
            {
                  "distance": 748,
                  "location": {
                        "address": "2150 Moreau Rue",
                        "country": "CA",
                        "formatted_address": "2150 Moreau Rue, Montreal QC H1W 2M3",
                        "locality": "Montreal",
                        "postcode": "H1W 2M3",
                        "region": "QC"
                  },
                  "name": "Fous de l'\u00cele Kombucha Inc"
            },
            {
                  "distance": 780,
                  "location": {
                        "address": "2150 Moreau Rue",
                        "country": "CA",
                        "formatted_address": "2150 Moreau Rue, Montreal QC",
                        "locality": "Montreal",
                        "region": "QC"
                  },
                  "name": "Les Touriers"
            },
            {
                  "distance": 897,
                  "location": {
                        "address": "2490 Ave du Mont-Royal E",
                        "country": "CA",
                        "formatted_address": "2490 Ave du Mont-Royal E, Montreal QC H2H 1L3",
                        "locality": "Montreal",
                        "postcode": "H2H 1L3",
                        "region": "QC"
                  },
                  "name": "Crapaud Resto Bar"
            },
            {
                  "distance": 932,
                  "location": {
                        "address": "4900 Molson Rue",
                        "country": "CA",
                        "formatted_address": "4900 Molson Rue, Montreal QC H1Y 3J8",
                        "locality": "Montreal",
                        "postcode": "H1Y 3J8",
                        "region": "QC"
                  },
                  "name": "Pecheries Norref Quebec les Inc"
            }
      ],
      "context": {
            "geo_bounds": {
                  "circle": {
                        "center": {
                              "latitude": 45.5436538,
                              "longitude": -73.55942063
                        },
                        "radius": 1000
                  }
            }
      }
}