{
      "results": [
            {
                  "distance": 428,
                  "location": {
                        "address": "2308 Ontario Rue E",
                        "country": "CA",
                        "cross_street": "",
                        "formatted_address": "2308 Ontario Rue E, Montr\u00e9al QC H2K 1W1",
                        "locality": "Montreal",
                        "postcode": "H2K 1W1",
                        "region": "QC"
                  },
                  "name": "Cr\u00e8merie Confiserie le Gourmandin",
                  "popularity": 0.8898679977289932,
                  "price": 1,
                  "rating": 7.4
            },
            {
                  "distance": 827,
                  "location": {
                        "address": "3121 Hochelaga Rue",
                        "country": "CA",
                        "cross_street": "",
                        "formatted_address": "3121 Hochelaga Rue, Montr\u00e9al QC H1W 1G3",
                        "locality": "Montreal",
                        "postcode": "H1W 1G3",
                        "region": "QC"
                  },
                  "name": "Maneki Comptoir Asiat'",
                  "popularity": 0.8695235616956851,
                  "price": 2,
                  "rating": 7.2
            },
            {
                  "distance": 941,
                  "location": {
                        "address": "1851 Ontario Rue E",
                        "country": "CA",
                        "cross_street": "Rue Cartier",
                        "formatted_address": "1851 Ontario Rue E (Rue Cartier), Montr\u00e9al QC H2K 1T6",
                        "locality": "Montreal",
                        "postcode": "H2K 1T6",
                        "region": "QC"
                  },
                  "name": "A Quinta",
                  "popularity": 0.9652488644965935,
                  "price": 2,
                  "rating": 7.0
            },
            {
                  "distance": 677,
                  "location": {
                        "address": "2120 Ontario Rue E",
                        "country": "CA",
                        "cross_street": "De Lormier",
                        "formatted_address": "2120 Ontario Rue E (De Lormier), Montr\u00e9al QC H2K 1V5",
                        "locality": "Montreal",
                        "postcode": "H2K 1V5",
                        "region": "QC"
                  },
                  "name": "Lafleur Restaurants",
                  "popularity": 0.9637348599545799,
                  "price": 1,
                  "rating": 6.9
            },
            {
                  "distance": 875,
                  "location": {
                        "address": "3090 Sherbrooke Rue E",
                        "country": "CA",
                        "cross_street": "coin Moreau",
                        "formatted_address": "3090 Sherbrooke Rue E (coin Moreau), Montr\u00e9al QC H1W 1B5",
                        "locality": "Montreal",
                        "postcode": "H1W 1B5",
                        "region": "QC"
                  },
                  "name": "Deli Miami",
                  "popularity": 0.9861492240726722,
                  "price": 1,
                  "rating": 6.9
            },
            {
                  "distance": 259,
                  "location": {
                        "address": "2544 Ontario Rue E",
                        "country": "CA",
                        "cross_street": "coin Frontenac",
                        "formatted_address": "2544 Ontario Rue E (coin Frontenac), Montr\u00e9al QC H2K 1W4",
                        "locality": "Montreal",
                        "postcode": "H2K 1W4",
                        "region": "QC"
                  },
                  "name": "Subway",
                  "popularity": 0.8541824375473126,
                  "price": 1,
                  "rating": 6.4,
                  "store_id": "38095"
            },
            {
                  "distance": 666,
                  "location": {
                        "address": "2765 Sherbrooke Rue E",
                        "country": "CA",
                        "cross_street": "Montgomery",
                        "formatted_address": "2765 Sherbrooke Rue E (Montgomery), Montr\u00e9al QC H2K 1G9",
                        "locality": "Montreal",
                        "postcode": "H2K 1G9",
                        "region": "QC"
                  },
                  "name": "Subway",
                  "popularity": 0.8906368281604845,
                  "price": 1,
                  "rating": 6.3,
                  "store_id": "27680"
            },
            {
                  "distance": 268,
                  "location": {
                        "address": "2700 Ontario Rue E",
                        "country": "CA",
                        "cross_street": "Bercy",
                        "formatted_address": "2700 Ontario Rue E (Bercy), Montr\u00e9al QC H2K 1W9",
                        "locality": "Montreal",
                        "postcode": "H2K 1W9",
                        "region": "QC"
                  },
                  "name": "Tim Hortons",
                  "popularity": 0.967791919000757,
                  "price": 1,
                  "rating": 5.6
            },
            {
                  "distance": 754,
                  "location": {
                        "address": "2901 Sherbrooke St E",
                        "country": "CA",
                        "cross_street": "",
                        "formatted_address": "2901 Sherbrooke St E, Montr\u00e9al QC H1W 1B2",
                        "locality": "Montreal",
                        "postcode": "H1W 1B2",
                        "region": "QC"
                  },
                  "name": "McDonald's",
                  "popularity": 0.9885621688115064,
                  "price": 1,
                  "rating": 5.3,
                  "store_id": "40472"
            },
            {
                  "distance": 957,
                  "location": {
                        "address": "1845 Ontario Rue E",
                        "country": "CA",
                        "cross_street": "Cartier",
                        "formatted_address": "1845 Ontario Rue E (Cartier), Montr\u00e9al QC H2K 1T6",
                        "locality": "Montreal",
                        "postcode": "H2K 1T6",
                        "region": "QC"
                  },
                  "name": "Astral 2000",
                  "popularity": 0.8681633232399697,
                  "price": 2,
                  "rating": 5.2
            },
            {
                  "distance": 330,
                  "location": {
                        "address": "2600 Ontario Rue E",
                        "country": "CA",
                        "cross_street": "coin Du Havre",
                        "formatted_address": "2600 Ontario Rue E (coin Du Havre), Montr\u00e9al QC H2K 4K4",
                        "locality": "Montreal",
                        "postcode": "H2K 4K4",
                        "region": "QC"
                  },
                  "name": "McDonald's",
                  "popularity": 0.9883729182437547,
                  "price": 1,
                  "rating": 4.6,
                  "store_id": "10089"
            },
            {
                  "distance": 244,
                  "location": {
                        "address": "2683 Ontario Rue E",
                        "country": "CA",
                        "cross_street": "",
                        "formatted_address": "2683 Ontario Rue E, Montr\u00e9al QC H2K 1X1",
                        "locality": "Montreal",
                        "postcode": "H2K 1X1",
                        "region": "QC"
                  },
                  "name": "Bar Sexe Mania",
                  "popularity": 0.9735995457986374,
                  "price": 3
            },
            {
                  "distance": 272,
                  "location": {
                        "address": "2600 Ontario Rue E",
                        "address_extended": "# 10",
                        "country": "CA",
                        "cross_street": "Du Havre",
                        "formatted_address": "2600 Ontario Rue E (Du Havre), Montr\u00e9al QC H2K 4K4",
                        "locality": "Montreal",
                        "postcode": "H2K 4K4",
                        "region": "QC"
                  },
                  "name": "Restaurant Bercy",
                  "popularity": 0.8457844436033308,
                  "price": 2
            },
            {
                  "distance": 422,
                  "location": {
                        "address": "2054 Fullum Rue",
                        "country": "CA",
                        "cross_street": "Ontario",
                        "formatted_address": "2054 Fullum Rue (Ontario), Montr\u00e9al QC H2K 3N7",
                        "locality": "Montreal",
                        "postcode": "H2K 3N7",
                        "region": "QC"
                  },
                  "name": "Ikaros Pizzeria Enr",
                  "popularity": 0.8425908402725208,
                  "price": 1
            },
            {
                  "distance": 545,
                  "location": {
                        "address": "2043 Parthenais Rue",
                        "country": "CA",
                        "cross_street": "Larivi\u00e8re",
                        "formatted_address": "2043 Parthenais Rue (Larivi\u00e8re), Montr\u00e9al QC H2K 3T1",
                        "locality": "Montreal",
                        "postcode": "H2K 3T1",
                        "region": "QC"
                  },
                  "name": "Cafeteria Nonnini",
                  "popularity": 0.9463238077214232,
                  "price": 1
            },
            {
                  "distance": 876,
                  "location": {
                        "address": "3179 Ontario Rue E",
                        "country": "CA",
                        "cross_street": "D\u00e9zery",
                        "formatted_address": "3179 Ontario Rue E (D\u00e9zery), Montr\u00e9al QC H1W 1P1",
                        "locality": "Montreal",
                        "postcode": "H1W 1P1",
                        "region": "QC"
                  },
                  "name": "Chez Sandrine",
                  "popularity": 0.6639856169568509,
                  "price": 1
            },
            {
                  "distance": 918,
                  "location": {
                        "address": "789 Jean Talon Rue O",
                        "country": "CA",
                        "formatted_address": "789 Jean Talon Rue O, Montr\u00e9al QC H3N 1S3",
                        "locality": "Montreal",
                        "postcode": "H3N 1S3",
                        "region": "QC"
                  },
                  "name": "Panama Restaurant",
                  "popularity": 0.20819928084784253,
                  "price": 2
            },
            {
                  "distance": 929,
                  "location": {
                        "address": "3213 Ontario Rue E",
                        "country": "CA",
                        "cross_street": "",
                        "formatted_address": "3213 Ontario Rue E, Montr\u00e9al QC H1W 1P3",
                        "locality": "Montreal",
                        "postcode": "H1W 1P3",
                        "region": "QC"
                  },
                  "name": "Coop\u00e9rative Rond-Point, caf\u00e9 autog\u00e9r\u00e9",
                  "popularity": 0.7255275359576079,
                  "price": 1
            },
            {
                  "distance": 968,
                  "location": {
                        "address": "3227 Ontario Rue E",
                        "country": "CA",
                        "cross_street": "",
                        "formatted_address": "3227 Ontario Rue E, Montr\u00e9al QC H1W 1P3",
                        "locality": "Montreal",
                        "postcode": "H1W 1P3",
                        "region": "QC"
                  },
                  "name": "3 Patapoufs",
                  "popularity": 0.961132664647994
            },
            {
                  "distance": 981,
                  "location": {
                        "address": "1821 Ontario Rue E",
                        "country": "CA",
                        "cross_street": "Goulet",
                        "formatted_address": "1821 Ontario Rue E (Goulet), Montr\u00e9al QC H2K 1T6",
                        "locality": "Montreal",
                        "postcode": "H2K 1T6",
                        "region": "QC"
                  },
                  "name": "Pizza City",
                  "popularity": 0.8540641559424679,
                  "price": 1
            },
            {
                  "distance": 268,
                  "location": {
                        "address": "2727 Ontario Rue E",
                        "country": "CA",
                        "formatted_address": "2727 Ontario Rue E, Montreal QC H2K 1X2",
                        "locality": "Montreal",
                        "postcode": "H2K 1X2",
                        "region": "QC"
                  },
                  "name": "Shandmas"
            },
            {
                  "distance": 379,
                  "location": {
                        "address": "2361 Ontario Rue E",
                        "country": "CA",
                        "formatted_address": "2361 Ontario Rue E, Montreal QC H2K 1W2",
                        "locality": "Montreal",
                        "postcode": "H2K 1W2",
                        "region": "QC"
                  },
                  "name": "Cooperative de Travail Touski"
            },
            {
                  "distance": 453,
                  "location": {
                        "address": "2160 Harmony Rue",
                        "country": "CA",
                        "formatted_address": "2160 Harmony Rue, Montreal QC H2K 3P9",
                        "locality": "Montreal",
                        "postcode": "H2K 3P9",
                        "region": "QC"
                  },
                  "name": "Pro Max Pub"
            },
            {
                  "distance": 582,
                  "location": {
                        "address": "2755 Sherbrooke Rue E",
                        "country": "CA",
                        "formatted_address": "2755 Sherbrooke Rue E, Montreal QC H2K 1G9",
                        "locality": "Montreal",
                        "postcode": "H2K 1G9",
                        "region": "QC"
                  },
                  "name": "Pizza Hut"
            },
            {
                  "distance": 689,
                  "location": {
                        "address": "2150 Moreau Rue",
                        "country": "CA",
                        "formatted_address": "2150 Moreau Rue, Montreal QC",
                        "locality": "Montreal",
                        "region": "QC"
                  },
                  "name": "Les Touriers"
            },
            {
                  "distance": 694,
                  "location": {
                        "address": "2150 Moreau Rue",
                        "country": "CA",
                        "formatted_address": "2150 Moreau Rue, Montreal QC H1W 2M3",
                        "locality": "Montreal",
                        "postcode": "H1W 2M3",
                        "region": "QC"
                  },
                  "name": "Fous de l'\u00cele Kombucha Inc"
            },
            {
                  "distance": 945,
                  "location": {
                        "address": "3213 Ontario Rue E",
                        "country": "CA",
                        "formatted_address": "3213 Ontario Rue E, Montreal QC H1W 1P3",
                        "locality": "Montreal",
                        "postcode": "H1W 1P3",
                        "region": "QC"
                  },
                  "name": "Rond-Point, caf\u00e9 autog\u00e9r\u00e9"
            },
            {
                  "distance": 954,
                  "location": {
                        "address": "1851 Ontario Rue E",
                        "country": "CA",
                        "formatted_address": "1851 Ontario Rue E, Montreal QC H2K 1T6",
                        "locality": "Montreal",
                        "postcode": "H2K 1T6",
                        "region": "QC"
                  },
                  "name": "Restaurant Cartier Pizzeria"
            }
      ],
      "context": {
            "geo_bounds": {
                  "circle": {
                        "center": {
                              "latitude": 45.53456257,
                              "longitude": -73.55478646
                        },
                        "radius": 1000
                  }
            }
      }
}