{
      "results": [
            {
                  "distance": 459,
                  "location": {
                        "address": "2110 Belanger Rue",
                        "country": "CA",
                        "cross_street": "",
                        "formatted_address": "2110 Belanger Rue, Montr\u00e9al QC H2G 1C2",
                        "locality": "Montreal",
                        "postcode": "H2G 1C2",
                        "region": "QC"
                  },
                  "name": "Paquebot",
                  "popularity": 0.9647520817562453,
                  "price": 1,
                  "rating": 9.2
            },
            {
                  "distance": 855,
                  "location": {
                        "address": "1212 Saint-Zotique Rue E",
                        "country": "CA",
                        "cross_street": "",
                        "formatted_address": "1212 Saint-Zotique Rue E, Montr\u00e9al QC H2S 1N5",
                        "locality": "Montreal",
                        "postcode": "H2S 1N5",
                        "region": "QC"
                  },
                  "name": "Luciano Trattoria",
                  "popularity": 0.9558099924299773,
                  "price": 2,
                  "rating": 8.7
            },
            {
                  "distance": 941,
                  "location": {
                        "address": "7349 Saint Hubert Rue",
                        "country": "CA",
                        "cross_street": "",
                        "formatted_address": "7349 Saint Hubert Rue, Montr\u00e9al QC H2R 2N4",
                        "locality": "Montreal",
                        "postcode": "H2R 2N4",
                        "region": "QC"
                  },
                  "name": "Mr. Azteca",
                  "popularity": 0.9330762679788039,
                  "price": 1,
                  "rating": 8.5
            },
            {
                  "distance": 732,
                  "location": {
                        "address": "1309 Saint-Zotique Rue E",
                        "country": "CA",
                        "cross_street": "coin Chambord",
                        "formatted_address": "1309 Saint-Zotique Rue E (coin Chambord), Montr\u00e9al QC H2G 1G6",
                        "locality": "Montreal",
                        "postcode": "H2G 1G6",
                        "region": "QC"
                  },
                  "name": "Bar le Jockey",
                  "popularity": 0.9420538417865254,
                  "price": 2,
                  "rating": 8.2
            },
            {
                  "distance": 171,
                  "location": {
                        "address": "1950 Jean-Talon Rue E",
                        "country": "CA",
                        "cross_street": "Chabot",
                        "formatted_address": "1950 Jean-Talon Rue E (Chabot), Montr\u00e9al QC H2E 1T8",
                        "locality": "Montreal",
                        "postcode": "H2E 1T8",
                        "region": "QC"
                  },
                  "name": "Boulangerie & Charcuterie San Pietro",
                  "popularity": 0.953763720666162,
                  "price": 1,
                  "rating": 8.2
            },
            {
                  "distance": 960,
                  "location": {
                        "address": "1898 Beaubien Rue E",
                        "country": "CA",
                        "cross_street": "Chabot",
                        "formatted_address": "1898 Beaubien Rue E (Chabot), Montr\u00e9al QC H2G 1L9",
                        "locality": "Montreal",
                        "postcode": "H2G 1L9",
                        "region": "QC"
                  },
                  "name": "Sushi Itamea",
                  "popularity": 0.9421366389099167,
                  "price": 2,
                  "rating": 8.0
            },
            {
                  "distance": 959,
                  "location": {
                        "address": "1991 Beaubien Rue E",
                        "country": "CA",
                        "cross_street": "Bordeaux",
                        "formatted_address": "1991 Beaubien Rue E (Bordeaux), Montr\u00e9al QC H2G 1M2",
                        "locality": "Montreal",
                        "postcode": "H2G 1M2",
                        "region": "QC"
                  },
                  "name": "Caf\u00e9 l'\u00c9tincelle",
                  "popularity": 0.9640660484481454,
                  "price": 1,
                  "rating": 6.9
            },
            {
                  "distance": 687,
                  "location": {
                        "address": "7690 Papineau Ave",
                        "country": "CA",
                        "formatted_address": "7690 Papineau Ave, Montreal QC H2E 2H2",
                        "locality": "Montreal",
                        "postcode": "H2E 2H2",
                        "region": "QC"
                  },
                  "name": "Restaurant Deli-Plus",
                  "popularity": 0.9771243376230129,
                  "price": 1,
                  "rating": 6.6
            },
            {
                  "distance": 33,
                  "location": {
                        "address": "1840 Jean Talon Rue E",
                        "country": "CA",
                        "cross_street": "Papineau",
                        "formatted_address": "1840 Jean Talon Rue E (Papineau), Montr\u00e9al QC H2E 1T5",
                        "locality": "Montreal",
                        "postcode": "H2E 1T5",
                        "region": "QC"
                  },
                  "name": "Dilallo Burger et Bar",
                  "popularity": 0.9578207797123391,
                  "price": 2
            },
            {
                  "distance": 701,
                  "location": {
                        "address": "1127 Belanger Rue",
                        "country": "CA",
                        "cross_street": "",
                        "formatted_address": "1127 Belanger Rue, Montr\u00e9al QC H2S 1H6",
                        "locality": "Montreal",
                        "postcode": "H2S 1H6",
                        "region": "QC"
                  },
                  "name": "Le Far Breton",
                  "popularity": 0.6438540878122634,
                  "price": 1
            },
            {
                  "distance": 774,
                  "location": {
                        "address": "1370 Villeray Rue",
                        "country": "CA",
                        "cross_street": "",
                        "formatted_address": "1370 Villeray Rue, Montr\u00e9al QC H2E 1G6",
                        "locality": "Montreal",
                        "postcode": "H2E 1G6",
                        "region": "QC"
                  },
                  "name": "Tabac",
                  "popularity": 0.9707489591218774,
                  "price": 1
            },
            {
                  "distance": 786,
                  "location": {
                        "address": "2517 Jean-Talon Rue E",
                        "country": "CA",
                        "cross_street": "Iberville",
                        "formatted_address": "2517 Jean-Talon Rue E (Iberville), Montr\u00e9al QC H2A 1T6",
                        "locality": "Montreal",
                        "postcode": "H2A 1T6",
                        "region": "QC"
                  },
                  "name": "Casse-Cro\u00fbte Sissi & Paul",
                  "popularity": 0.9293030847842544,
                  "price": 2
            },
            {
                  "distance": 797,
                  "location": {
                        "address": "2524 Jean-Talon Rue E",
                        "country": "CA",
                        "cross_street": "D' Iberville",
                        "formatted_address": "2524 Jean-Talon Rue E (D' Iberville), Montr\u00e9al QC H2A 1T7",
                        "locality": "Montreal",
                        "postcode": "H2A 1T7",
                        "region": "QC"
                  },
                  "name": "Mexico Restaurant",
                  "popularity": 0.8773301476154428,
                  "price": 1
            },
            {
                  "distance": 811,
                  "location": {
                        "address": "1251 St Zotique",
                        "country": "CA",
                        "cross_street": "De Normanville",
                        "formatted_address": "1251 St Zotique (De Normanville), Montr\u00e9al QC",
                        "locality": "Montreal",
                        "region": "QC"
                  },
                  "name": "Le Norman Zotique",
                  "popularity": 0.7669615821347464,
                  "price": 1
            },
            {
                  "distance": 834,
                  "location": {
                        "address": "2548 Belanger Rue",
                        "country": "CA",
                        "cross_street": "Belanger",
                        "formatted_address": "2548 Belanger Rue (Belanger), Montr\u00e9al QC H1Y 1A1",
                        "locality": "Montreal",
                        "postcode": "H1Y 1A1",
                        "region": "QC"
                  },
                  "name": "Bar Excel",
                  "popularity": 0.9128974261922785,
                  "price": 3
            },
            {
                  "distance": 869,
                  "location": {
                        "address": "2566 Jean Talon Rue E",
                        "country": "CA",
                        "cross_street": "",
                        "formatted_address": "2566 Jean Talon Rue E, Montr\u00e9al QC H2A 1T9",
                        "locality": "Montreal",
                        "postcode": "H2A 1T9",
                        "region": "QC"
                  },
                  "name": "Kokoriko",
                  "popularity": 0.6628737698713096,
                  "price": 2
            },
            {
                  "distance": 921,
                  "location": {
                        "address": "7217 Saint-Hubert Rue",
                        "country": "CA",
                        "cross_street": "De Castelnau",
                        "formatted_address": "7217 Saint-Hubert Rue (De Castelnau), Montr\u00e9al QC H2R 2N2",
                        "locality": "Montreal",
                        "postcode": "H2R 2N2",
                        "region": "QC"
                  },
                  "name": "Les Importations Eche",
                  "popularity": 0.9637585162755489,
                  "price": 1
            },
            {
                  "distance": 930,
                  "location": {
                        "address": "7245 Saint-Hubert Rue",
                        "country": "CA",
                        "cross_street": "",
                        "formatted_address": "7245 Saint-Hubert Rue, Montr\u00e9al QC H2R 2N2",
                        "locality": "Montreal",
                        "postcode": "H2R 2N2",
                        "region": "QC"
                  },
                  "name": "Restaurant Pachamama",
                  "popularity": 0.9621025738077215,
                  "price": 2
            },
            {
                  "distance": 948,
                  "location": {
                        "address": "7046 Saint-Hubert Rue",
                        "country": "CA",
                        "cross_street": "",
                        "formatted_address": "7046 Saint-Hubert Rue, Montr\u00e9al QC H2S 2M9",
                        "locality": "Montreal",
                        "postcode": "H2S 2M9",
                        "region": "QC"
                  },
                  "name": "Domino's Pizza",
                  "popularity": 0.9229868470855412,
                  "price": 1,
                  "store_id": "10710"
            },
            {
                  "distance": 967,
                  "location": {
                        "address": "6442 Papineau Ave",
                        "country": "CA",
                        "cross_street": "Beaubien",
                        "formatted_address": "6442 Papineau Ave (Beaubien), Montr\u00e9al QC H2G 2W9",
                        "locality": "Montreal",
                        "postcode": "H2G 2W9",
                        "region": "QC"
                  },
                  "name": "Bar Paspebiac",
                  "popularity": 0.8786549015897047,
                  "price": 2
            },
            {
                  "distance": 1001,
                  "location": {
                        "address": "1335 Beaubien Rue E",
                        "country": "CA",
                        "cross_street": "",
                        "formatted_address": "1335 Beaubien Rue E, Montr\u00e9al QC H2G 1K7",
                        "locality": "Montreal",
                        "postcode": "H2G 1K7",
                        "region": "QC"
                  },
                  "name": "La Belle Tonki",
                  "popularity": 0.9382806585919757,
                  "price": 2
            },
            {
                  "distance": 63,
                  "location": {
                        "address": "7203 Papineau Ave",
                        "country": "CA",
                        "formatted_address": "7203 Papineau Ave, Montreal QC H2E 2G7",
                        "locality": "Montreal",
                        "postcode": "H2E 2G7",
                        "region": "QC"
                  },
                  "name": "El Chasqui Latino"
            },
            {
                  "distance": 327,
                  "location": {
                        "address": "1828 Belanger Rue",
                        "country": "CA",
                        "formatted_address": "1828 Belanger Rue, Montreal QC H2G 1B4",
                        "locality": "Montreal",
                        "postcode": "H2G 1B4",
                        "region": "QC"
                  },
                  "name": "Restaurant Chez Flore"
            },
            {
                  "distance": 578,
                  "location": {
                        "address": "1268 rue B\u00e9langer",
                        "country": "CA",
                        "formatted_address": "1268 rue B\u00e9langer, Montreal QC H2S 1H9",
                        "locality": "Montreal",
                        "postcode": "H2S 1H9",
                        "region": "QC"
                  },
                  "name": "Le Cake Studio"
            },
            {
                  "distance": 582,
                  "location": {
                        "address": "7481 Ave de Lorimier",
                        "country": "CA",
                        "formatted_address": "7481 Ave de Lorimier, Montreal QC H2E 2P4",
                        "locality": "Montreal",
                        "postcode": "H2E 2P4",
                        "region": "QC"
                  },
                  "name": "Restaurant Pizza & Pasta"
            },
            {
                  "distance": 617,
                  "location": {
                        "address": "1238 Belanger Rue",
                        "country": "CA",
                        "formatted_address": "1238 Belanger Rue, Montreal QC H2S 1H8",
                        "locality": "Montreal",
                        "postcode": "H2S 1H8",
                        "region": "QC"
                  },
                  "name": "Club Helios Inc"
            },
            {
                  "distance": 629,
                  "location": {
                        "address": "1224 Belanger Rue",
                        "country": "CA",
                        "formatted_address": "1224 Belanger Rue, Montreal QC H2S 1H8",
                        "locality": "Montreal",
                        "postcode": "H2S 1H8",
                        "region": "QC"
                  },
                  "name": "Le Panivore"
            },
            {
                  "distance": 669,
                  "location": {
                        "address": "1212 Belanger Rue",
                        "country": "CA",
                        "formatted_address": "1212 Belanger Rue, Montreal QC H2S 1H8",
                        "locality": "Montreal",
                        "postcode": "H2S 1H8",
                        "region": "QC"
                  },
                  "name": "Roseville cafe bar"
            },
            {
                  "distance": 703,
                  "location": {
                        "address": "1190 Belanger Rue",
                        "country": "CA",
                        "formatted_address": "1190 Belanger Rue, Montreal QC H2S 1H4",
                        "locality": "Montreal",
                        "postcode": "H2S 1H4",
                        "region": "QC"
                  },
                  "name": "Restaurant l'Elysee Enr"
            },
            {
                  "distance": 809,
                  "location": {
                        "address": "2490 Belanger Rue",
                        "country": "CA",
                        "formatted_address": "2490 Belanger Rue, Montreal QC H2G 1E5",
                        "locality": "Montreal",
                        "postcode": "H2G 1E5",
                        "region": "QC"
                  },
                  "name": "Restaurant Grill Tasqueria la Sharade"
            },
            {
                  "distance": 908,
                  "location": {
                        "address": "7183 Saint-Hubert Rue",
                        "country": "CA",
                        "formatted_address": "7183 Saint-Hubert Rue, Montreal QC H2R 2N2",
                        "locality": "Montreal",
                        "postcode": "H2R 2N2",
                        "region": "QC"
                  },
                  "name": "Restaurant El Jibaro"
            },
            {
                  "distance": 908,
                  "location": {
                        "address": "7163 Saint-Hubert Rue",
                        "country": "CA",
                        "formatted_address": "7163 Saint-Hubert Rue, Montreal QC H2R 2N2",
                        "locality": "Montreal",
                        "postcode": "H2R 2N2",
                        "region": "QC"
                  },
                  "name": "Pho Vinh Vinh"
            },
            {
                  "distance": 932,
                  "location": {
                        "address": "2583 Jean-Talon Rue E",
                        "country": "CA",
                        "formatted_address": "2583 Jean-Talon Rue E, Montreal QC H2A 1V1",
                        "locality": "Montreal",
                        "postcode": "H2A 1V1",
                        "region": "QC"
                  },
                  "name": "Pamela Sue"
            },
            {
                  "distance": 956,
                  "location": {
                        "address": "7429 Saint-Hubert Rue",
                        "country": "CA",
                        "formatted_address": "7429 Saint-Hubert Rue, Montreal QC H2R 2N4",
                        "locality": "Montreal",
                        "postcode": "H2R 2N4",
                        "region": "QC"
                  },
                  "name": "Bistro Bar Bizzwack"
            },
            {
                  "distance": 999,
                  "location": {
                        "address": "7450 Saint-Hubert Rue",
                        "country": "CA",
                        "formatted_address": "7450 Saint-Hubert Rue, Montreal QC H2R 2N3",
                        "locality": "Montreal",
                        "postcode": "H2R 2N3",
                        "region": "QC"
                  },
                  "name": "Paraiso Tropical"
            }
      ],
      "context": {
            "geo_bounds": {
                  "circle": {
                        "center": {
                              "latitude": 45.54773932,
                              "longitude": -73.60693395
                        },
                        "radius": 1000
                  }
            }
      }
}