{
      "results": [
            {
                  "distance": 436,
                  "location": {
                        "address": "953 Decarie Blvd",
                        "country": "CA",
                        "cross_street": "cote-vertu",
                        "formatted_address": "953 Decarie Blvd (cote-vertu), Montr\u00e9al QC H4L 3M3",
                        "locality": "Montreal",
                        "postcode": "H4L 3M3",
                        "region": "QC"
                  },
                  "name": "Decarie Hot Dog",
                  "popularity": 0.9809921461014383,
                  "price": 1,
                  "rating": 7.7
            },
            {
                  "distance": 538,
                  "location": {
                        "address": "1494 Blvd de la Cote-Vertu",
                        "country": "CA",
                        "cross_street": "",
                        "formatted_address": "1494 Blvd de la Cote-Vertu, Montr\u00e9al QC H4L 1Z8",
                        "locality": "Montreal",
                        "postcode": "H4L 1Z8",
                        "region": "QC"
                  },
                  "name": "A&W Restaurant",
                  "popularity": 0.9899815480696442,
                  "price": 1,
                  "rating": 7.5,
                  "store_id": "5555"
            },
            {
                  "distance": 253,
                  "location": {
                        "address": "735 Decarie Blvd",
                        "country": "CA",
                        "cross_street": "btwn Du College & Eglise",
                        "formatted_address": "735 Decarie Blvd (btwn Du College & Eglise), Montr\u00e9al QC H4L 3L3",
                        "locality": "Montreal",
                        "postcode": "H4L 3L3",
                        "region": "QC"
                  },
                  "name": "Restaurant Yi Pin Xiang",
                  "popularity": 0.29537282361847084,
                  "rating": 7.2
            },
            {
                  "distance": 867,
                  "location": {
                        "address": "1800 Blvd de la cote-Vertu",
                        "country": "CA",
                        "cross_street": "",
                        "formatted_address": "1800 Blvd de la cote-Vertu, Montr\u00e9al QC H4L 2A6",
                        "locality": "Montreal",
                        "postcode": "H4L 2A6",
                        "region": "QC"
                  },
                  "name": "Bistro Sawadika",
                  "popularity": 0.9861728803936411,
                  "price": 2,
                  "rating": 7.1
            },
            {
                  "distance": 743,
                  "location": {
                        "address": "1191 Decarie Rue",
                        "country": "CA",
                        "cross_street": "Rochon",
                        "formatted_address": "1191 Decarie Rue (Rochon), Saint-Laurent QC H4L 3M8",
                        "locality": "Saint-Laurent",
                        "postcode": "H4L 3M8",
                        "region": "QC"
                  },
                  "name": "Tim Hortons",
                  "popularity": 0.9984741672975019,
                  "price": 1,
                  "rating": 6.6
            },
            {
                  "distance": 539,
                  "location": {
                        "address": "993 Blvd D\u00e9carie",
                        "country": "CA",
                        "cross_street": "",
                        "formatted_address": "993 Blvd D\u00e9carie, Montr\u00e9al QC H4L 3M7",
                        "locality": "Montreal",
                        "postcode": "H4L 3M7",
                        "region": "QC"
                  },
                  "name": "Subway",
                  "popularity": 0.8939723694171082,
                  "price": 1,
                  "rating": 6.4,
                  "store_id": "15203"
            },
            {
                  "distance": 819,
                  "location": {
                        "address": "740 Blvd de la cote-Vertu",
                        "address_extended": "Suite 159D",
                        "country": "CA",
                        "formatted_address": "740 Blvd de la cote-Vertu, Saint-Laurent QC H4L 5C8",
                        "locality": "Saint-Laurent",
                        "postcode": "H4L 5C8",
                        "region": "QC"
                  },
                  "name": "Subway",
                  "popularity": 0.9444667865253595,
                  "price": 1,
                  "rating": 6.4
            },
            {
                  "distance": 535,
                  "location": {
                        "address": "1000 Decarie Blvd",
                        "country": "CA",
                        "cross_street": "",
                        "formatted_address": "1000 Decarie Blvd, Saint-Laurent QC H4L 3M5",
                        "locality": "Saint-Laurent",
                        "postcode": "H4L 3M5",
                        "region": "QC"
                  },
                  "name": "Pizza Pizza",
                  "popularity": 0.9467969341408025,
                  "price": 1,
                  "rating": 6.3,
                  "store_id": "308"
            },
            {
                  "distance": 93,
                  "location": {
                        "address": "1408 Rue de l'\u00c9glise",
                        "country": "CA",
                        "cross_street": "Saint Germain",
                        "formatted_address": "1408 Rue de l'\u00c9glise (Saint Germain), Saint-Laurent QC H4L 2H3",
                        "locality": "Saint-Laurent",
                        "postcode": "H4L 2H3",
                        "region": "QC"
                  },
                  "name": "Boccalini",
                  "popularity": 0.9165168433005298,
                  "price": 2,
                  "rating": 6.1
            },
            {
                  "distance": 1003,
                  "location": {
                        "address": "400 Marcel-Laurin Blvd",
                        "country": "CA",
                        "cross_street": "Rue Saint-Louis",
                        "formatted_address": "400 Marcel-Laurin Blvd (Rue Saint-Louis), Saint-Laurent QC H4M 2L4",
                        "locality": "Saint-Laurent",
                        "postcode": "H4M 2L4",
                        "region": "QC"
                  },
                  "name": "Tim Hortons",
                  "popularity": 0.9977881339894019,
                  "price": 1,
                  "rating": 5.9
            },
            {
                  "distance": 809,
                  "location": {
                        "address": "740 C\u00f4te-Vertu",
                        "country": "CA",
                        "cross_street": "",
                        "formatted_address": "740 C\u00f4te-Vertu, Saint-Laurent QC H4L 5C8",
                        "locality": "Saint-Laurent",
                        "postcode": "H4L 5C8",
                        "region": "QC"
                  },
                  "name": "Pho Thanh Nam Quan",
                  "popularity": 0.9864449280847842,
                  "price": 2,
                  "rating": 5.9
            },
            {
                  "distance": 632,
                  "location": {
                        "address": "1565 Ch. de la Cote Vertu",
                        "country": "CA",
                        "formatted_address": "1565 Ch. de la Cote Vertu, Saint-Laurent QC H4L 2A1",
                        "locality": "Saint-Laurent",
                        "postcode": "H4L 2A1",
                        "region": "QC"
                  },
                  "name": "McDonald's",
                  "popularity": 0.9992075132475398,
                  "price": 1,
                  "rating": 5.5,
                  "store_id": "2314"
            },
            {
                  "distance": 112,
                  "location": {
                        "address": "1430 rue de l'\u00c9glise",
                        "country": "CA",
                        "cross_street": "",
                        "formatted_address": "1430 rue de l'\u00c9glise, Montr\u00e9al QC H4L 2H3",
                        "locality": "Montreal",
                        "postcode": "H4L 2H3",
                        "region": "QC"
                  },
                  "name": "Maison Samosa Express",
                  "popularity": 0.13836582134746403,
                  "price": 2
            },
            {
                  "distance": 160,
                  "location": {
                        "address": "1455 Rue de l'\u00c3\u2030glise",
                        "country": "CA",
                        "cross_street": "",
                        "formatted_address": "1455 Rue de l'\u00c3\u2030glise, Saint-Laurent QC H4L 2H5",
                        "locality": "Saint-Laurent",
                        "postcode": "H4L 2H5",
                        "region": "QC"
                  },
                  "name": "Domino's Pizza",
                  "popularity": 0.9375118281604845,
                  "price": 1
            },
            {
                  "distance": 203,
                  "location": {
                        "address": "747 Decarie Blvd",
                        "country": "CA",
                        "cross_street": "",
                        "formatted_address": "747 Decarie Blvd, Montr\u00e9al QC H4L 3L3",
                        "locality": "Montreal",
                        "postcode": "H4L 3L3",
                        "region": "QC"
                  },
                  "name": "Mon Ami",
                  "popularity": 0.9755038796366389,
                  "price": 2
            },
            {
                  "distance": 211,
                  "location": {
                        "address": "753 Decarie Blvd",
                        "country": "CA",
                        "cross_street": "",
                        "formatted_address": "753 Decarie Blvd, Montr\u00e9al QC H4L 3L3",
                        "locality": "Montreal",
                        "postcode": "H4L 3L3",
                        "region": "QC"
                  },
                  "name": "Caf\u00e9 le VSL",
                  "popularity": 0.7458838001514004,
                  "price": 1
            },
            {
                  "distance": 311,
                  "location": {
                        "address": "886 Decarie Blvd",
                        "country": "CA",
                        "cross_street": "",
                        "formatted_address": "886 Decarie Blvd, Montr\u00e9al QC H4L 3L9",
                        "locality": "Montreal",
                        "postcode": "H4L 3L9",
                        "region": "QC"
                  },
                  "name": "Pho Moderne",
                  "popularity": 0.9669521196063589,
                  "price": 2
            },
            {
                  "distance": 337,
                  "location": {
                        "address": "625 Decarie Blvd",
                        "country": "CA",
                        "cross_street": "Lafontaine",
                        "formatted_address": "625 Decarie Blvd (Lafontaine), Montr\u00e9al QC H4L 3L2",
                        "locality": "Montreal",
                        "postcode": "H4L 3L2",
                        "region": "QC"
                  },
                  "name": "\u00d4 Th\u00e9 Tea Shop",
                  "popularity": 0.9048661052233157
            },
            {
                  "distance": 438,
                  "location": {
                        "address": "959 Decarie Blvd",
                        "country": "CA",
                        "cross_street": "",
                        "formatted_address": "959 Decarie Blvd, Saint-Laurent QC H4L 3M3",
                        "locality": "Saint-Laurent",
                        "postcode": "H4L 3M3",
                        "region": "QC"
                  },
                  "name": "La Diperie",
                  "popularity": 0.9373462339137018,
                  "price": 1
            },
            {
                  "distance": 489,
                  "location": {
                        "address": "1001 Decarie Blvd",
                        "country": "CA",
                        "cross_street": "at boul. de la C\u00f4te-Vertu",
                        "formatted_address": "1001 Decarie Blvd (at boul. de la C\u00f4te-Vertu), Saint-Laurent QC H4L 3M6",
                        "locality": "Saint-Laurent",
                        "postcode": "H4L 3M6",
                        "region": "QC"
                  },
                  "name": "Restaurant Kam Do",
                  "popularity": 0.9516228236184708,
                  "price": 1
            },
            {
                  "distance": 505,
                  "location": {
                        "address": "1470 Blvd de la Cote Vertu",
                        "country": "CA",
                        "cross_street": "Boul. de la C\u00f4te-Vertu",
                        "formatted_address": "1470 Blvd de la Cote Vertu (Boul. de la C\u00f4te-Vertu), Saint-Laurent QC H4L 1Z7",
                        "locality": "Saint-Laurent",
                        "postcode": "H4L 1Z7",
                        "region": "QC"
                  },
                  "name": "Caf\u00e9 Tea Tac Toe",
                  "popularity": 0.928285862982589,
                  "price": 1
            },
            {
                  "distance": 525,
                  "location": {
                        "address": "996 Decarie Blvd",
                        "country": "CA",
                        "cross_street": "",
                        "formatted_address": "996 Decarie Blvd, Saint-Laurent QC H4L 3M5",
                        "locality": "Saint-Laurent",
                        "postcode": "H4L 3M5",
                        "region": "QC"
                  },
                  "name": "Caf\u00e9 Van Houtte",
                  "popularity": 0.9931751514004542,
                  "price": 1
            },
            {
                  "distance": 698,
                  "location": {
                        "address": "1181 Decarie Rue",
                        "country": "CA",
                        "cross_street": "",
                        "formatted_address": "1181 Decarie Rue, Saint-Laurent QC H4L 3M8",
                        "locality": "Saint-Laurent",
                        "postcode": "H4L 3M8",
                        "region": "QC"
                  },
                  "name": "Planete Pizza",
                  "popularity": 0.9933525738077215,
                  "price": 1
            },
            {
                  "distance": 865,
                  "location": {
                        "address": "740 Blvd de la C\u00f4te-Vertu O",
                        "country": "CA",
                        "cross_street": "",
                        "formatted_address": "740 Blvd de la C\u00f4te-Vertu O, Montr\u00e9al QC H4L 5C8",
                        "locality": "Montreal",
                        "postcode": "H4L 5C8",
                        "region": "QC"
                  },
                  "name": "Patisserie Al Shahroura",
                  "popularity": 0.3167226532929599
            },
            {
                  "distance": 931,
                  "location": {
                        "address": "1470 Blvd de la C\u00f4te-Vertu",
                        "country": "CA",
                        "cross_street": "",
                        "formatted_address": "1470 Blvd de la C\u00f4te-Vertu, Saint-Laurent QC H4L 1Z7",
                        "locality": "Saint-Laurent",
                        "postcode": "H4L 1Z7",
                        "region": "QC"
                  },
                  "name": "123 Caf\u00e9",
                  "popularity": 0.30211487509462526,
                  "price": 1
            },
            {
                  "distance": 967,
                  "location": {
                        "address": "1470 Blvd de la C\u00f4te-Vertu",
                        "country": "CA",
                        "cross_street": "Montpellier",
                        "formatted_address": "1470 Blvd de la C\u00f4te-Vertu (Montpellier), Saint-Laurent QC H4L 1Z7",
                        "locality": "Saint-Laurent",
                        "postcode": "H4L 1Z7",
                        "region": "QC"
                  },
                  "name": "Caf\u00e9 Beyrouth",
                  "popularity": 0.9762727100681302,
                  "price": 1
            },
            {
                  "distance": 227,
                  "location": {
                        "address": "821 Sainte-Croix Ave",
                        "address_extended": "The N Building",
                        "country": "CA",
                        "formatted_address": "821 Sainte-Croix Ave, Saint-Laurent QC H4L 3X9",
                        "locality": "Saint-Laurent",
                        "postcode": "H4L 3X9",
                        "region": "QC"
                  },
                  "name": "Subway",
                  "store_id": "19723"
            },
            {
                  "distance": 258,
                  "location": {
                        "address": "1500 Morin Rue",
                        "country": "CA",
                        "formatted_address": "1500 Morin Rue, Saint-Laurent QC H4L 5M7",
                        "locality": "Saint-Laurent",
                        "postcode": "H4L 5M7",
                        "region": "QC"
                  },
                  "name": "Kyoto Sushi Restaurant Japanese Cuisine"
            },
            {
                  "distance": 261,
                  "location": {
                        "address": "855 Decarie Blvd",
                        "country": "CA",
                        "formatted_address": "855 Decarie Blvd, Saint-Laurent QC H4L 3L7",
                        "locality": "Saint-Laurent",
                        "postcode": "H4L 3L7",
                        "region": "QC"
                  },
                  "name": "Brasserie Internet Inc"
            },
            {
                  "distance": 261,
                  "location": {
                        "address": "855 Decarie Blvd",
                        "country": "CA",
                        "formatted_address": "855 Decarie Blvd, Saint-Laurent QC H4L 3L7",
                        "locality": "Saint-Laurent",
                        "postcode": "H4L 3L7",
                        "region": "QC"
                  },
                  "name": "Rasa Resto Lounge & Reception"
            },
            {
                  "distance": 431,
                  "location": {
                        "address": "625 Sainte-Croix Ave",
                        "country": "CA",
                        "formatted_address": "625 Sainte-Croix Ave, Saint-Laurent QC H4L 3X7",
                        "locality": "Saint-Laurent",
                        "postcode": "H4L 3X7",
                        "region": "QC"
                  },
                  "name": "Buffet Larry"
            },
            {
                  "distance": 628,
                  "location": {
                        "address": "1595 Blvd de la C\u00f4te-Vertu",
                        "country": "CA",
                        "formatted_address": "1595 Blvd de la C\u00f4te-Vertu, Saint-Laurent QC H4L 2A1",
                        "locality": "Saint-Laurent",
                        "postcode": "H4L 2A1",
                        "region": "QC"
                  },
                  "name": "Restaurant PFK"
            },
            {
                  "distance": 760,
                  "location": {
                        "address": "1180 Decarie Rue",
                        "country": "CA",
                        "formatted_address": "1180 Decarie Rue, Saint-Laurent QC H4L 3M9",
                        "locality": "Saint-Laurent",
                        "postcode": "H4L 3M9",
                        "region": "QC"
                  },
                  "name": "Restaurant Fu Kam Wah"
            },
            {
                  "distance": 797,
                  "location": {
                        "address": "825 Blvd de la Cote-Vertu",
                        "country": "CA",
                        "formatted_address": "825 Blvd de la Cote-Vertu, Saint-Laurent QC H4L 1Y6",
                        "locality": "Saint-Laurent",
                        "postcode": "H4L 1Y6",
                        "region": "QC"
                  },
                  "name": "Restaurant Siwar"
            },
            {
                  "distance": 819,
                  "location": {
                        "address": "740 Cote Vertu Blvd O",
                        "country": "CA",
                        "formatted_address": "740 Cote Vertu Blvd O, Saint-Laurent QC",
                        "locality": "Saint-Laurent",
                        "region": "QC"
                  },
                  "name": "Ph\u1edf Th\u00e0nh Nam Quang"
            }
      ],
      "context": {
            "geo_bounds": {
                  "circle": {
                        "center": {
                              "latitude": 45.51284329,
                              "longitude": -73.67612422
                        },
                        "radius": 1000
                  }
            }
      }
}