{
      "results": [
            {
                  "distance": 706,
                  "location": {
                        "address": "1266 Ave du Mont-Royal Est",
                        "country": "CA",
                        "cross_street": "entre Br\u00e9beuf & Chambord",
                        "formatted_address": "1266 Ave du Mont-Royal Est (entre Br\u00e9beuf & Chambord), Montr\u00e9al QC H2J 1Y3",
                        "locality": "Montreal",
                        "postcode": "H2J 1Y3",
                        "region": "QC"
                  },
                  "name": "Point G",
                  "popularity": 0.9041800719152158,
                  "price": 1,
                  "rating": 8.9
            },
            {
                  "distance": 454,
                  "location": {
                        "address": "1810 Ave du MONT-ROYAL Est",
                        "country": "CA",
                        "cross_street": "",
                        "formatted_address": "1810 Ave du MONT-ROYAL Est, Montr\u00e9al QC H2H 1J1",
                        "locality": "Montreal",
                        "postcode": "H2H 1J1",
                        "region": "QC"
                  },
                  "name": "Mr. Puffs",
                  "popularity": 0.9136307721423165,
                  "price": 1,
                  "rating": 8.8
            },
            {
                  "distance": 826,
                  "location": {
                        "address": "1127 Ave du Mont-Royal Est",
                        "country": "CA",
                        "cross_street": "coin Christophe-Colomb",
                        "formatted_address": "1127 Ave du Mont-Royal Est (coin Christophe-Colomb), Montr\u00e9al QC H2J 1X9",
                        "locality": "Montreal",
                        "postcode": "H2J 1X9",
                        "region": "QC"
                  },
                  "name": "St-Viateur Bagel & Cafe",
                  "popularity": 0.9727715745647237,
                  "price": 1,
                  "rating": 8.7
            },
            {
                  "distance": 758,
                  "location": {
                        "address": "2407 Ave du Mont-Royal Est",
                        "country": "CA",
                        "cross_street": "entre Franch\u00e8re & Chapleau",
                        "formatted_address": "2407 Ave du Mont-Royal Est (entre Franch\u00e8re & Chapleau), Montr\u00e9al QC H2H 1L2",
                        "locality": "Montreal",
                        "postcode": "H2H 1L2",
                        "region": "QC"
                  },
                  "name": "Boswell Brasserie Artisanale",
                  "popularity": 0.9548282551097653,
                  "price": 2,
                  "rating": 8.6
            },
            {
                  "distance": 259,
                  "location": {
                        "address": "1650 Laurier Ave E",
                        "country": "CA",
                        "cross_street": "Marquette",
                        "formatted_address": "1650 Laurier Ave E (Marquette), Montr\u00e9al QC H2J 1J2",
                        "locality": "Montreal",
                        "postcode": "H2J 1J2",
                        "region": "QC"
                  },
                  "name": "Sushi Tri Express",
                  "popularity": 0.8795656699470098,
                  "price": 2,
                  "rating": 8.5
            },
            {
                  "distance": 448,
                  "location": {
                        "address": "1995 Masson Rue",
                        "country": "CA",
                        "cross_street": "coin Bordeaux",
                        "formatted_address": "1995 Masson Rue (coin Bordeaux), Montr\u00e9al QC H2H 1A5",
                        "locality": "Montreal",
                        "postcode": "H2H 1A5",
                        "region": "QC"
                  },
                  "name": "L'Entre-Pots",
                  "popularity": 0.955679882664648,
                  "price": 1,
                  "rating": 8.5
            },
            {
                  "distance": 766,
                  "location": {
                        "address": "1059 Gilford Rue",
                        "country": "CA",
                        "cross_street": "Christophe-Colomb",
                        "formatted_address": "1059 Gilford Rue (Christophe-Colomb), Montr\u00e9al QC H2J 1P7",
                        "locality": "Montreal",
                        "postcode": "H2J 1P7",
                        "region": "QC"
                  },
                  "name": "Restaurant la Raclette",
                  "popularity": 0.9396527252081757,
                  "price": 3,
                  "rating": 8.5
            },
            {
                  "distance": 988,
                  "location": {
                        "address": "4449 Rue de Mentana",
                        "country": "CA",
                        "cross_street": "Avenue du Mont-Royal",
                        "formatted_address": "4449 Rue de Mentana (Avenue du Mont-Royal), Montr\u00e9al QC H2J 3B4",
                        "locality": "Montreal",
                        "postcode": "H2J 3B4",
                        "region": "QC"
                  },
                  "name": "Tampopo",
                  "popularity": 0.8850539364118092,
                  "price": 2,
                  "rating": 8.5
            },
            {
                  "distance": 749,
                  "location": {
                        "address": "1232 Ave du Mont-Royal Est",
                        "country": "CA",
                        "cross_street": "",
                        "formatted_address": "1232 Ave du Mont-Royal Est, Montr\u00e9al QC H2J 1Y1",
                        "locality": "Montreal",
                        "postcode": "H2J 1Y1",
                        "region": "QC"
                  },
                  "name": "Le Royal",
                  "popularity": 0.3079579863739591,
                  "price": 3,
                  "rating": 8.5
            },
            {
                  "distance": 232,
                  "location": {
                        "address": "4720 Marquette Rue",
                        "country": "CA",
                        "cross_street": "coin Gilford",
                        "formatted_address": "4720 Marquette Rue (coin Gilford), Montr\u00e9al QC H2J 3Y6",
                        "locality": "Montreal",
                        "postcode": "H2J 3Y6",
                        "region": "QC"
                  },
                  "name": "Maison Publique",
                  "popularity": 0.9193674299772899,
                  "price": 3,
                  "rating": 8.4
            },
            {
                  "distance": 526,
                  "location": {
                        "address": "1300 Laurier Ave E",
                        "country": "CA",
                        "cross_street": "Chambord",
                        "formatted_address": "1300 Laurier Ave E (Chambord), Montr\u00e9al QC H2J 1H3",
                        "locality": "Montreal",
                        "postcode": "H2J 1H3",
                        "region": "QC"
                  },
                  "name": "Creme Glacee Bo-Bec",
                  "popularity": 0.9121522520817562,
                  "price": 1,
                  "rating": 8.3
            },
            {
                  "distance": 671,
                  "location": {
                        "address": "2296 Ave du Mont Royal Est",
                        "country": "CA",
                        "cross_street": "",
                        "formatted_address": "2296 Ave du Mont Royal Est, Montr\u00e9al QC H2H 1K6",
                        "locality": "Montreal",
                        "postcode": "H2H 1K6",
                        "region": "QC"
                  },
                  "name": "Caf\u00e9 des Bois",
                  "popularity": 0.9125070968962907,
                  "price": 1,
                  "rating": 8.2
            },
            {
                  "distance": 498,
                  "location": {
                        "address": "1576 Ave du Mont-Royal Est",
                        "country": "CA",
                        "cross_street": "",
                        "formatted_address": "1576 Ave du Mont-Royal Est, Montr\u00e9al QC H2J 1Z2",
                        "locality": "Montreal",
                        "postcode": "H2J 1Z2",
                        "region": "QC"
                  },
                  "name": "L'Artisan Piadineria",
                  "popularity": 0.5744109576078729,
                  "price": 2,
                  "rating": 8.2
            },
            {
                  "distance": 468,
                  "location": {
                        "address": "4710 rue de Lanaudi\u00e8re",
                        "country": "CA",
                        "cross_street": "coin Gilford",
                        "formatted_address": "4710 rue de Lanaudi\u00e8re (coin Gilford), Montr\u00e9al QC H2J 3P7",
                        "locality": "Montreal",
                        "postcode": "H2J 3P7",
                        "region": "QC"
                  },
                  "name": "Le Chien Fumant",
                  "popularity": 0.9083435844057532,
                  "price": 3,
                  "rating": 8.2
            },
            {
                  "distance": 323,
                  "location": {
                        "address": "1546 Laurier Ave E",
                        "country": "CA",
                        "cross_street": "Rue Fabre",
                        "formatted_address": "1546 Laurier Ave E (Rue Fabre), Montr\u00e9al QC H2J 1H9",
                        "locality": "Montreal",
                        "postcode": "H2J 1H9",
                        "region": "QC"
                  },
                  "name": "Caf\u00e9 M\u00e9chants Pinsons",
                  "popularity": 0.9265707797123391,
                  "price": 1,
                  "rating": 8.1
            },
            {
                  "distance": 346,
                  "location": {
                        "address": "1499 Laurier Ave E",
                        "country": "CA",
                        "cross_street": "coin Fabre",
                        "formatted_address": "1499 Laurier Ave E (coin Fabre), Montr\u00e9al QC H2J 1H8",
                        "locality": "Montreal",
                        "postcode": "H2J 1H8",
                        "region": "QC"
                  },
                  "name": "Byblos le Petit Caf\u00e9",
                  "popularity": 0.8978046934140802,
                  "price": 2,
                  "rating": 7.8
            },
            {
                  "distance": 428,
                  "location": {
                        "address": "1389 Laurier Ave E",
                        "country": "CA",
                        "cross_street": "Garnier",
                        "formatted_address": "1389 Laurier Ave E (Garnier), Montr\u00e9al QC H2J 1H6",
                        "locality": "Montreal",
                        "postcode": "H2J 1H6",
                        "region": "QC"
                  },
                  "name": "Brulerie Saint-Denis",
                  "popularity": 0.9221115632096897,
                  "price": 1,
                  "rating": 7.7
            },
            {
                  "distance": 491,
                  "location": {
                        "address": "5368 Papineau Ave",
                        "country": "CA",
                        "cross_street": "",
                        "formatted_address": "5368 Papineau Ave, Montr\u00e9al QC H2H 1W2",
                        "locality": "Montreal",
                        "postcode": "H2H 1W2",
                        "region": "QC"
                  },
                  "name": "Caf\u00e9 Orr",
                  "popularity": 0.9599853330809992,
                  "price": 1,
                  "rating": 7.6
            },
            {
                  "distance": 465,
                  "location": {
                        "address": "2017 Ave du Mont-Royal Est",
                        "country": "CA",
                        "formatted_address": "2017 Ave du Mont-Royal Est, Montr\u00e9al QC H2H 1J7",
                        "locality": "Montreal",
                        "postcode": "H2H 1J7",
                        "region": "QC"
                  },
                  "name": "L'Oeufrier",
                  "popularity": 0.955360522331567,
                  "price": 1,
                  "rating": 7.2
            },
            {
                  "distance": 440,
                  "location": {
                        "address": "1875 Ave du Mont-Royal Est",
                        "country": "CA",
                        "cross_street": "coin Cartier",
                        "formatted_address": "1875 Ave du Mont-Royal Est (coin Cartier), Montr\u00e9al QC H2H 1J3",
                        "locality": "Montreal",
                        "postcode": "H2H 1J3",
                        "region": "QC"
                  },
                  "name": "Le Terminal",
                  "popularity": 0.9634036714610144,
                  "price": 2,
                  "rating": 7.1
            },
            {
                  "distance": 450,
                  "location": {
                        "address": "1828 Ave du Mont-Royal Est",
                        "country": "CA",
                        "cross_street": "Papineau",
                        "formatted_address": "1828 Ave du Mont-Royal Est (Papineau), Montr\u00e9al QC H2H 1J1",
                        "locality": "Montreal",
                        "postcode": "H2H 1J1",
                        "region": "QC"
                  },
                  "name": "Caf\u00e9 Asia",
                  "popularity": 0.8551523467070401,
                  "price": 2,
                  "rating": 6.9
            },
            {
                  "distance": 503,
                  "location": {
                        "address": "2112 Ave du Mont-Royal Est",
                        "country": "CA",
                        "cross_street": "entre De Lorimier & Des \u00c9rables",
                        "formatted_address": "2112 Ave du Mont-Royal Est (entre De Lorimier & Des \u00c9rables), Montr\u00e9al QC H2H 1J8",
                        "locality": "Montreal",
                        "postcode": "H2H 1J8",
                        "region": "QC"
                  },
                  "name": "Verre Bouteille",
                  "popularity": 0.9396172407267221,
                  "price": 2,
                  "rating": 6.6
            },
            {
                  "distance": 883,
                  "location": {
                        "address": "1045 Ave du Mont-Royal Est",
                        "country": "CA",
                        "cross_street": "coin Christophe-Colomb",
                        "formatted_address": "1045 Ave du Mont-Royal Est (coin Christophe-Colomb), Montr\u00e9al QC H2J 1X7",
                        "locality": "Montreal",
                        "postcode": "H2J 1X7",
                        "region": "QC"
                  },
                  "name": "Brasserie Chez Baptiste",
                  "popularity": 0.9606595382286147,
                  "price": 2,
                  "rating": 6.5
            },
            {
                  "distance": 909,
                  "location": {
                        "address": "2460 Dandurand Rue",
                        "country": "CA",
                        "formatted_address": "2460 Dandurand Rue, Montr\u00e9al QC H2G 2A3",
                        "locality": "Montreal",
                        "postcode": "H2G 2A3",
                        "region": "QC"
                  },
                  "name": "Tim Hortons",
                  "popularity": 0.9830857305071915,
                  "price": 1,
                  "rating": 6.5
            },
            {
                  "distance": 496,
                  "location": {
                        "address": "1648 Ave du Mont-Royal Est",
                        "country": "CA",
                        "cross_street": "Marquette",
                        "formatted_address": "1648 Ave du Mont-Royal Est (Marquette), Montr\u00e9al QC H2J 1Z5",
                        "locality": "Montreal",
                        "postcode": "H2J 1Z5",
                        "region": "QC"
                  },
                  "name": "Second Cup",
                  "popularity": 0.8998154806964421,
                  "price": 1,
                  "rating": 6.4
            },
            {
                  "distance": 803,
                  "location": {
                        "address": "1148 Ave du Mont-Royal Est",
                        "country": "CA",
                        "cross_street": "coin De la Roche",
                        "formatted_address": "1148 Ave du Mont-Royal Est (coin De la Roche), Montr\u00e9al QC H2J 1X8",
                        "locality": "Montreal",
                        "postcode": "H2J 1X8",
                        "region": "QC"
                  },
                  "name": "Candi Bar",
                  "popularity": 0.9068768925056775,
                  "price": 3,
                  "rating": 6.1
            },
            {
                  "distance": 700,
                  "location": {
                        "address": "1251 Ave Mont-Royal Est",
                        "country": "CA",
                        "cross_street": "Br\u00e9beuf",
                        "formatted_address": "1251 Ave Mont-Royal Est (Br\u00e9beuf), Montr\u00e9al QC H2J 1Y4",
                        "locality": "Montreal",
                        "postcode": "H2J 1Y4",
                        "region": "QC"
                  },
                  "name": "Copper Branch",
                  "popularity": 0.8276873580620742,
                  "price": 2,
                  "rating": 5.9
            },
            {
                  "distance": 942,
                  "location": {
                        "address": "1001 Ave du Mont-Royal Est",
                        "country": "CA",
                        "cross_street": "coin Boyer",
                        "formatted_address": "1001 Ave du Mont-Royal Est (coin Boyer), Montr\u00e9al QC H2J 1X7",
                        "locality": "Montreal",
                        "postcode": "H2J 1X7",
                        "region": "QC"
                  },
                  "name": "Mont-Royal Hot Dog",
                  "popularity": 0.9374053747161242,
                  "price": 1,
                  "rating": 5.9
            },
            {
                  "distance": 1712,
                  "location": {
                        "address": "5228 d'Iberville Rue",
                        "country": "CA",
                        "cross_street": "coin Masson",
                        "formatted_address": "5228 d'Iberville Rue (coin Masson), Montr\u00e9al QC H2G 2A8",
                        "locality": "Montreal",
                        "postcode": "H2G 2A8",
                        "region": "QC"
                  },
                  "name": "Bar Sel et Poivre",
                  "popularity": 0.9735758894776685,
                  "rating": 5.9
            },
            {
                  "distance": 837,
                  "location": {
                        "address": "2530 Masson Rue",
                        "country": "CA",
                        "cross_street": "coin Iberville",
                        "formatted_address": "2530 Masson Rue (coin Iberville), Montr\u00e9al QC H1Y 1V8",
                        "locality": "Montreal",
                        "postcode": "H1Y 1V8",
                        "region": "QC"
                  },
                  "name": "McDonald's",
                  "popularity": 0.9850965177895533,
                  "price": 1,
                  "rating": 5.1,
                  "store_id": "5336"
            },
            {
                  "distance": 142,
                  "location": {
                        "address": "1815 Laurier Ave E",
                        "country": "CA",
                        "cross_street": "",
                        "formatted_address": "1815 Laurier Ave E, Montr\u00e9al QC H2H 1B3",
                        "locality": "Montreal",
                        "postcode": "H2H 1B3",
                        "region": "QC"
                  },
                  "name": "Bistro 1815",
                  "popularity": 0.8681514950794852,
                  "price": 2
            },
            {
                  "distance": 164,
                  "location": {
                        "address": "2055 Laurier Ave E",
                        "country": "CA",
                        "cross_street": "De Lorimier",
                        "formatted_address": "2055 Laurier Ave E (De Lorimier), Montr\u00e9al QC H2H 1B8",
                        "locality": "Montreal",
                        "postcode": "H2H 1B8",
                        "region": "QC"
                  },
                  "name": "Dans la Gueule du Loup",
                  "popularity": 0.9511615253595761,
                  "price": 1
            },
            {
                  "distance": 169,
                  "location": {
                        "address": "4780 Papineau Ave",
                        "country": "CA",
                        "cross_street": "Gilford",
                        "formatted_address": "4780 Papineau Ave (Gilford), Montr\u00e9al QC H2H 1V5",
                        "locality": "Montreal",
                        "postcode": "H2H 1V5",
                        "region": "QC"
                  },
                  "name": "Boulangerie Patisserie l'Artisan",
                  "popularity": 0.8731193224829674,
                  "price": 2
            },
            {
                  "distance": 177,
                  "location": {
                        "address": "5161 Papineau Ave",
                        "country": "CA",
                        "cross_street": "",
                        "formatted_address": "5161 Papineau Ave, Montr\u00e9al QC H2H 1W1",
                        "locality": "Montreal",
                        "postcode": "H2H 1W1",
                        "region": "QC"
                  },
                  "name": "Chez Tomio",
                  "popularity": 0.8303723504920515,
                  "price": 2
            },
            {
                  "distance": 312,
                  "location": {
                        "address": "1556 Laurier Ave E",
                        "country": "CA",
                        "cross_street": "Rue Fabre",
                        "formatted_address": "1556 Laurier Ave E (Rue Fabre), Montr\u00e9al QC H2J 1H9",
                        "locality": "Montreal",
                        "postcode": "H2J 1H9",
                        "region": "QC"
                  },
                  "name": "Le Bibim - Pique-nique cor\u00e9en",
                  "popularity": 0.17541161998485996,
                  "price": 2
            }
      ],
      "context": {
            "geo_bounds": {
                  "circle": {
                        "center": {
                              "latitude": 45.53582824,
                              "longitude": -73.57869029
                        },
                        "radius": 1000
                  }
            }
      }
}