{
      "results": [
            {
                  "distance": 668,
                  "location": {
                        "address": "1678 Saint-Joseph Blvd",
                        "country": "CA",
                        "formatted_address": "1678 Saint-Joseph Blvd, Montr\u00e9al QC H8S 2N1",
                        "locality": "Montreal",
                        "postcode": "H8S 2N1",
                        "region": "QC"
                  },
                  "name": "Restaurant El Meson",
                  "popularity": 0.9525809046177138,
                  "price": 1,
                  "rating": 8.0
            },
            {
                  "distance": 843,
                  "location": {
                        "address": "1900 Saint-Joseph Blvd",
                        "country": "CA",
                        "cross_street": "",
                        "formatted_address": "1900 Saint-Joseph Blvd, Lachine QC H8S 2N5",
                        "locality": "Lachine",
                        "postcode": "H8S 2N5",
                        "region": "QC"
                  },
                  "name": "Il Fornetto Restaurant",
                  "popularity": 0.9391441143073429,
                  "price": 2,
                  "rating": 7.1
            },
            {
                  "distance": 138,
                  "location": {
                        "address": "600 Saint-Joseph Blvd",
                        "country": "CA",
                        "cross_street": "",
                        "formatted_address": "600 Saint-Joseph Blvd, Lachine QC H8S 2M1",
                        "locality": "Lachine",
                        "postcode": "H8S 2M1",
                        "region": "QC"
                  },
                  "name": "Restaurant la Strada",
                  "popularity": 0.8477360900832702,
                  "price": 3,
                  "rating": 7.1
            },
            {
                  "distance": 704,
                  "location": {
                        "address": "1718 Saint-Joseph Blvd",
                        "country": "CA",
                        "cross_street": "18th ave",
                        "formatted_address": "1718 Saint-Joseph Blvd (18th ave), Lachine QC H8S 2N2",
                        "locality": "Lachine",
                        "postcode": "H8S 2N2",
                        "region": "QC"
                  },
                  "name": "Pasta Andrea",
                  "popularity": 0.9488313777441333,
                  "price": 2,
                  "rating": 7.1
            },
            {
                  "distance": 572,
                  "location": {
                        "address": "1380 Notre-Dame Rue",
                        "country": "CA",
                        "cross_street": "",
                        "formatted_address": "1380 Notre-Dame Rue, Lachine QC H8S 2C8",
                        "locality": "Lachine",
                        "postcode": "H8S 2C8",
                        "region": "QC"
                  },
                  "name": "Restaurant Toto Pizzeria Lachine",
                  "popularity": 0.8498060181680545,
                  "price": 1,
                  "rating": 6.8
            },
            {
                  "distance": 642,
                  "location": {
                        "address": "Lasalle Blvd",
                        "country": "CA",
                        "cross_street": "",
                        "formatted_address": "Lasalle Blvd, Lachine QC",
                        "locality": "Lachine",
                        "region": "QC"
                  },
                  "name": "Dairy Queen",
                  "popularity": 0.8709547691143074,
                  "price": 1,
                  "rating": 6.6
            },
            {
                  "distance": 136,
                  "location": {
                        "address": "1000 Saint-Joseph Blvd",
                        "country": "CA",
                        "cross_street": "10e avenue",
                        "formatted_address": "1000 Saint-Joseph Blvd (10e avenue), Lachine QC H8S 2M6",
                        "locality": "Lachine",
                        "postcode": "H8S 2M6",
                        "region": "QC"
                  },
                  "name": "Pahpatzoa",
                  "popularity": 0.8607352384557153,
                  "price": 1
            },
            {
                  "distance": 383,
                  "location": {
                        "address": "900 Notre-Dame Rue",
                        "country": "CA",
                        "cross_street": "",
                        "formatted_address": "900 Notre-Dame Rue, Lachine QC H8S 2B9",
                        "locality": "Lachine",
                        "postcode": "H8S 2B9",
                        "region": "QC"
                  },
                  "name": "Bar l'H\u00f4tel-de-ville",
                  "popularity": 0.6886000189250567,
                  "price": 1
            },
            {
                  "distance": 392,
                  "location": {
                        "address": "601 Notre-Dame Rue",
                        "country": "CA",
                        "cross_street": "6e Avenue",
                        "formatted_address": "601 Notre-Dame Rue (6e Avenue), Lachine QC H8S 2B4",
                        "locality": "Lachine",
                        "postcode": "H8S 2B4",
                        "region": "QC"
                  },
                  "name": "Bardeco",
                  "popularity": 0.9232470666161998,
                  "price": 1
            },
            {
                  "distance": 397,
                  "location": {
                        "address": "880 Notre-Dame Rue",
                        "country": "CA",
                        "cross_street": "",
                        "formatted_address": "880 Notre-Dame Rue, Lachine QC H8S 2B7",
                        "locality": "Lachine",
                        "postcode": "H8S 2B7",
                        "region": "QC"
                  },
                  "name": "Trans Canada Pizzeria & Submarine",
                  "popularity": 0.32975728614685845,
                  "price": 2
            },
            {
                  "distance": 405,
                  "location": {
                        "address": "1050 Notre-Dame Rue",
                        "country": "CA",
                        "cross_street": "",
                        "formatted_address": "1050 Notre-Dame Rue, Lachine QC H8S 2C2",
                        "locality": "Lachine",
                        "postcode": "H8S 2C2",
                        "region": "QC"
                  },
                  "name": "Restaurant Lachine Rotisserie et Grillades",
                  "popularity": 0.7039056585919757,
                  "price": 2
            },
            {
                  "distance": 474,
                  "location": {
                        "address": "1199 Notre Dame Lchn",
                        "country": "CA",
                        "cross_street": "Notre-Dame",
                        "formatted_address": "1199 Notre Dame Lchn (Notre-Dame), Lachine QC H8S 2C5",
                        "locality": "Lachine",
                        "postcode": "H8S 2C5",
                        "region": "QC"
                  },
                  "name": "Tubomi Sushi",
                  "popularity": 0.760172218016654,
                  "price": 2
            },
            {
                  "distance": 596,
                  "location": {
                        "address": "1498 Notre-Dame Rue",
                        "country": "CA",
                        "cross_street": "15e avenue",
                        "formatted_address": "1498 Notre-Dame Rue (15e avenue), Lachine QC H8S 2E1",
                        "locality": "Lachine",
                        "postcode": "H8S 2E1",
                        "region": "QC"
                  },
                  "name": "Patisserie Fine Savoureuse",
                  "popularity": 0.14385408781226344,
                  "price": 1
            },
            {
                  "distance": 843,
                  "location": {
                        "address": "1895 Piche Rue",
                        "country": "CA",
                        "cross_street": "",
                        "formatted_address": "1895 Piche Rue, Lachine QC H8S 2H9",
                        "locality": "Lachine",
                        "postcode": "H8S 2H9",
                        "region": "QC"
                  },
                  "name": "Nonnina",
                  "popularity": 0.9854631907645723,
                  "price": 1
            },
            {
                  "distance": 849,
                  "location": {
                        "address": "1875 Notre-Dame Rue",
                        "country": "CA",
                        "cross_street": "19e Ave",
                        "formatted_address": "1875 Notre-Dame Rue (19e Ave), Lachine QC H8S 2E9",
                        "locality": "Lachine",
                        "postcode": "H8S 2E9",
                        "region": "QC"
                  },
                  "name": "Caf\u00e9 du March\u00e9",
                  "popularity": 0.8442704390613172,
                  "price": 1
            },
            {
                  "distance": 854,
                  "location": {
                        "address": "1895 Piche Rue",
                        "country": "CA",
                        "cross_street": "",
                        "formatted_address": "1895 Piche Rue, Lachine QC H8S 2H9",
                        "locality": "Lachine",
                        "postcode": "H8S 2H9",
                        "region": "QC"
                  },
                  "name": "Marius et Fanny",
                  "popularity": 0.1437476343679031,
                  "price": 1
            },
            {
                  "distance": 956,
                  "location": {
                        "address": "403 Notre-Dame Rue",
                        "country": "CA",
                        "cross_street": "",
                        "formatted_address": "403 Notre-Dame Rue, Repentigny QC J6A 2T2",
                        "locality": "Repentigny",
                        "postcode": "J6A 2T2",
                        "region": "QC"
                  },
                  "name": "Le Grill Barosso",
                  "popularity": 0.11683856926570779,
                  "price": 2
            },
            {
                  "distance": 25904,
                  "location": {
                        "address": "1895 Piche Rue",
                        "country": "CA",
                        "cross_street": "",
                        "formatted_address": "1895 Piche Rue, Lachine QC H8S 2H9",
                        "locality": "Lachine",
                        "postcode": "H8S 2H9",
                        "region": "QC"
                  },
                  "name": "Gaufrabec",
                  "popularity": 0.5934959349593496,
                  "price": 1
            },
            {
                  "distance": 364,
                  "location": {
                        "address": "825 Notre-Dame Rue",
                        "country": "CA",
                        "formatted_address": "825 Notre-Dame Rue, Lachine QC H8S 2B8",
                        "locality": "Lachine",
                        "postcode": "H8S 2B8",
                        "region": "QC"
                  },
                  "name": "Bistro Lachine"
            },
            {
                  "distance": 364,
                  "location": {
                        "address": "825 Notre-Dame Rue",
                        "country": "CA",
                        "formatted_address": "825 Notre-Dame Rue, Lachine QC H8S 2B8",
                        "locality": "Lachine",
                        "postcode": "H8S 2B8",
                        "region": "QC"
                  },
                  "name": "Le Pub"
            },
            {
                  "distance": 398,
                  "location": {
                        "address": "1050 Notre-Dame Rue",
                        "country": "CA",
                        "formatted_address": "1050 Notre-Dame Rue, Lachine QC H8S 2C2",
                        "locality": "Lachine",
                        "postcode": "H8S 2C2",
                        "region": "QC"
                  },
                  "name": "Restaurant Lachine"
            },
            {
                  "distance": 418,
                  "location": {
                        "address": "580 Notre-Dame Rue",
                        "country": "CA",
                        "formatted_address": "580 Notre-Dame Rue, Lachine QC H8S 2B2",
                        "locality": "Lachine",
                        "postcode": "H8S 2B2",
                        "region": "QC"
                  },
                  "name": "Bar Western Chez Marcel"
            },
            {
                  "distance": 419,
                  "location": {
                        "address": "1050 Notre-Dame Rue",
                        "country": "CA",
                        "formatted_address": "1050 Notre-Dame Rue, Lachine QC H8S 2C2",
                        "locality": "Lachine",
                        "postcode": "H8S 2C2",
                        "region": "QC"
                  },
                  "name": "Astoria Restaurant Pizzeria"
            },
            {
                  "distance": 421,
                  "location": {
                        "address": "580 Notre-Dame Rue",
                        "country": "CA",
                        "formatted_address": "580 Notre-Dame Rue, Lachine QC H8S 2B2",
                        "locality": "Lachine",
                        "postcode": "H8S 2B2",
                        "region": "QC"
                  },
                  "name": "Bar Liqueur"
            },
            {
                  "distance": 426,
                  "location": {
                        "address": "1050 Notre-Dame Rue",
                        "country": "CA",
                        "formatted_address": "1050 Notre-Dame Rue, Lachine QC H8S 2C2",
                        "locality": "Lachine",
                        "postcode": "H8S 2C2",
                        "region": "QC"
                  },
                  "name": "Souvlaki Souvlaki Authentique"
            },
            {
                  "distance": 457,
                  "location": {
                        "address": "1128 Notre Dame Rue",
                        "country": "CA",
                        "formatted_address": "1128 Notre Dame Rue, Lachine QC H8S 2C4",
                        "locality": "Lachine",
                        "postcode": "H8S 2C4",
                        "region": "QC"
                  },
                  "name": "La G\u00e2terie J R Inc"
            },
            {
                  "distance": 457,
                  "location": {
                        "address": "500 des Iroquois Ch",
                        "country": "CA",
                        "formatted_address": "500 des Iroquois Ch, Lachine QC H8S 4J5",
                        "locality": "Lachine",
                        "postcode": "H8S 4J5",
                        "region": "QC"
                  },
                  "name": "Terrasse Rossi Bistro"
            },
            {
                  "distance": 491,
                  "location": {
                        "address": "1299 Notre Dame Rue",
                        "country": "CA",
                        "formatted_address": "1299 Notre Dame Rue, Lachine QC H8S 2C7",
                        "locality": "Lachine",
                        "postcode": "H8S 2C7",
                        "region": "QC"
                  },
                  "name": "Falafel St. Jacques"
            },
            {
                  "distance": 511,
                  "location": {
                        "address": "1290 Notre-Dame Rue",
                        "country": "CA",
                        "formatted_address": "1290 Notre-Dame Rue, Lachine QC",
                        "locality": "Lachine",
                        "region": "QC"
                  },
                  "name": "Houblon et C\u00e9pages"
            },
            {
                  "distance": 516,
                  "location": {
                        "address": "8594 15e Ave",
                        "country": "CA",
                        "formatted_address": "8594 15e Ave, Montreal QC H1Z 3N7",
                        "locality": "Montreal",
                        "postcode": "H1Z 3N7",
                        "region": "QC"
                  },
                  "name": "Acad\u00e9mie Belle et Fantastique"
            },
            {
                  "distance": 522,
                  "location": {
                        "address": "1305 Notre Dame Rue",
                        "country": "CA",
                        "formatted_address": "1305 Notre Dame Rue, Lachine QC H8S 2C9",
                        "locality": "Lachine",
                        "postcode": "H8S 2C9",
                        "region": "QC"
                  },
                  "name": "Pizza Pizza",
                  "store_id": "350"
            },
            {
                  "distance": 663,
                  "location": {
                        "address": "605 William-Macdonald Rue",
                        "country": "CA",
                        "formatted_address": "605 William-Macdonald Rue, Lachine QC H8S 1Z7",
                        "locality": "Lachine",
                        "postcode": "H8S 1Z7",
                        "region": "QC"
                  },
                  "name": "Bar Zeff\u00e9"
            },
            {
                  "distance": 748,
                  "location": {
                        "address": "1798 Saint-Joseph Blvd",
                        "country": "CA",
                        "formatted_address": "1798 Saint-Joseph Blvd, Lachine QC H8S 2N2",
                        "locality": "Lachine",
                        "postcode": "H8S 2N2",
                        "region": "QC"
                  },
                  "name": "Hentai Restaurant"
            },
            {
                  "distance": 783,
                  "location": {
                        "address": "1726 Notre-Dame Rue O",
                        "country": "CA",
                        "formatted_address": "1726 Notre-Dame Rue O, Montreal QC H3J 1M3",
                        "locality": "Montreal",
                        "postcode": "H3J 1M3",
                        "region": "QC"
                  },
                  "name": "Mlle Butterfly"
            }
      ],
      "context": {
            "geo_bounds": {
                  "circle": {
                        "center": {
                              "latitude": 45.43151891,
                              "longitude": -73.67110446
                        },
                        "radius": 1000
                  }
            }
      }
}