{
      "results": [
            {
                  "distance": 517,
                  "location": {
                        "address": "46 Cartier Blvd O",
                        "country": "CA",
                        "cross_street": "at rue \u00c9mile",
                        "formatted_address": "46 Cartier Blvd O (at rue \u00c9mile), Laval QC H7N 2H4",
                        "locality": "Laval",
                        "postcode": "H7N 2H4",
                        "region": "QC"
                  },
                  "name": "Chez Gerard",
                  "popularity": 0.9875033473176827,
                  "price": 1,
                  "rating": 6.8
            },
            {
                  "distance": 545,
                  "location": {
                        "address": "155B des Laurentides Blvd",
                        "country": "CA",
                        "cross_street": "",
                        "formatted_address": "155B des Laurentides Blvd, Laval QC H7G 2T4",
                        "locality": "Laval",
                        "postcode": "H7G 2T4",
                        "region": "QC"
                  },
                  "name": "Subway",
                  "popularity": 0.9418905650272249,
                  "price": 1,
                  "rating": 6.6,
                  "store_id": "13551"
            },
            {
                  "distance": 89,
                  "location": {
                        "address": "40 des Laurentides Blvd",
                        "country": "CA",
                        "cross_street": "Station Cartier",
                        "formatted_address": "40 des Laurentides Blvd (Station Cartier), Laval QC H7G 2S6",
                        "locality": "Laval",
                        "postcode": "H7G 2S6",
                        "region": "QC"
                  },
                  "name": "Presse Caf\u00e9",
                  "popularity": 0.8960992591270196,
                  "price": 1
            },
            {
                  "distance": 334,
                  "location": {
                        "address": "87 des Laurentides Blvd",
                        "country": "CA",
                        "cross_street": "Cartier",
                        "formatted_address": "87 des Laurentides Blvd (Cartier), Laval QC H7G 2T2",
                        "locality": "Laval",
                        "postcode": "H7G 2T2",
                        "region": "QC"
                  },
                  "name": "Buffalo Bill Wings",
                  "popularity": 0.1620101758457556,
                  "price": 1
            },
            {
                  "distance": 371,
                  "location": {
                        "address": "34 Cartier O",
                        "country": "CA",
                        "cross_street": "",
                        "formatted_address": "34 Cartier O, Laval QC H7N 2H3",
                        "locality": "Laval",
                        "postcode": "H7N 2H3",
                        "region": "QC"
                  },
                  "name": "La Diperie",
                  "popularity": 0.6443809693832009,
                  "price": 1
            },
            {
                  "distance": 437,
                  "location": {
                        "address": "117 des Laurentides Blvd",
                        "country": "CA",
                        "formatted_address": "117 des Laurentides Blvd, Laval QC H7G 2T2",
                        "locality": "Laval",
                        "postcode": "H7G 2T2",
                        "region": "QC"
                  },
                  "name": "Pink Paradise",
                  "popularity": 0.7672944746942784,
                  "price": 3
            },
            {
                  "distance": 644,
                  "location": {
                        "address": "54 Cartier Blvd O",
                        "country": "CA",
                        "cross_street": "",
                        "formatted_address": "54 Cartier Blvd O, Laval QC H7N 2H5",
                        "locality": "Laval",
                        "postcode": "H7N 2H5",
                        "region": "QC"
                  },
                  "name": "Au Coq",
                  "popularity": 0.2224404177452468,
                  "price": 1
            },
            {
                  "distance": 644,
                  "location": {
                        "address": "54 Cartier Blvd O",
                        "country": "CA",
                        "cross_street": "",
                        "formatted_address": "54 Cartier Blvd O, Laval QC",
                        "locality": "Laval",
                        "region": "QC"
                  },
                  "name": "R\u00f4tisseries Au Coq",
                  "popularity": 0.8043381237168615,
                  "price": 1
            },
            {
                  "distance": 680,
                  "location": {
                        "address": "66 Cartier Blvd O",
                        "country": "CA",
                        "cross_street": "",
                        "formatted_address": "66 Cartier Blvd O, Laval QC H7N 2H5",
                        "locality": "Laval",
                        "postcode": "H7N 2H5",
                        "region": "QC"
                  },
                  "name": "Marche des Iles",
                  "popularity": 0.582701062215478,
                  "price": 2
            },
            {
                  "distance": 714,
                  "location": {
                        "address": "105 Cartier Blvd O",
                        "country": "CA",
                        "cross_street": "",
                        "formatted_address": "105 Cartier Blvd O, Laval QC H7N 2H6",
                        "locality": "Laval",
                        "postcode": "H7N 2H6",
                        "region": "QC"
                  },
                  "name": "Allo Pizza",
                  "popularity": 0.5971614746050166,
                  "price": 1
            },
            {
                  "distance": 818,
                  "location": {
                        "address": "223 des Laurentides Blvd",
                        "country": "CA",
                        "cross_street": "",
                        "formatted_address": "223 des Laurentides Blvd, Laval QC H7G 2T7",
                        "locality": "Laval",
                        "postcode": "H7G 2T7",
                        "region": "QC"
                  },
                  "name": "Crazy Moon Laval",
                  "popularity": 0.9260019637597072,
                  "price": 3
            },
            {
                  "distance": 130,
                  "location": {
                        "address": "48 des Laurentides Blvd",
                        "country": "CA",
                        "formatted_address": "48 des Laurentides Blvd, Laval QC H7G 2S7",
                        "locality": "Laval",
                        "postcode": "H7G 2S7",
                        "region": "QC"
                  },
                  "name": "Bingo la Java Inc"
            },
            {
                  "distance": 574,
                  "location": {
                        "address": "46 Cartier Blvd O",
                        "country": "CA",
                        "formatted_address": "46 Cartier Blvd O, Laval QC H7N 2H4",
                        "locality": "Laval",
                        "postcode": "H7N 2H4",
                        "region": "QC"
                  },
                  "name": "Louks Beignets"
            },
            {
                  "distance": 645,
                  "location": {
                        "address": "54 Cartier Blvd O",
                        "country": "CA",
                        "formatted_address": "54 Cartier Blvd O, Laval QC H7N 2H5",
                        "locality": "Laval",
                        "postcode": "H7N 2H5",
                        "region": "QC"
                  },
                  "name": "Au Coq"
            },
            {
                  "distance": 736,
                  "location": {
                        "address": "300 Juge-Desnoyers Pl",
                        "country": "CA",
                        "formatted_address": "300 Juge-Desnoyers Pl, Laval QC H7G 4R1",
                        "locality": "Laval",
                        "postcode": "H7G 4R1",
                        "region": "QC"
                  },
                  "name": "Le Maria Chapdelaine"
            },
            {
                  "distance": 783,
                  "location": {
                        "address": "209 des Laurentides Blvd",
                        "country": "CA",
                        "formatted_address": "209 des Laurentides Blvd, Laval QC H7G 2T7",
                        "locality": "Laval",
                        "postcode": "H7G 2T7",
                        "region": "QC"
                  },
                  "name": "Bistro la Coquille"
            },
            {
                  "distance": 861,
                  "location": {
                        "address": "237 des Laurentides Blvd",
                        "country": "CA",
                        "formatted_address": "237 des Laurentides Blvd, Laval QC H7G 2T7",
                        "locality": "Laval",
                        "postcode": "H7G 2T7",
                        "region": "QC"
                  },
                  "name": "Restaurant Pupusa Al Paso"
            },
            {
                  "distance": 970,
                  "location": {
                        "address": "10820 Millen Ave",
                        "country": "CA",
                        "formatted_address": "10820 Millen Ave, Montreal QC H2C 0A5",
                        "locality": "Montreal",
                        "postcode": "H2C 0A5",
                        "region": "QC"
                  },
                  "name": "Tutti Frutti"
            }
      ],
      "context": {
            "geo_bounds": {
                  "circle": {
                        "center": {
                              "latitude": 45.56007441,
                              "longitude": -73.6812526
                        },
                        "radius": 1000
                  }
            }
      }
}