{
      "results": [
            {
                  "distance": 472,
                  "location": {
                        "address": "275 Blvd de la Concorde E",
                        "country": "CA",
                        "cross_street": "rue des Alouettes",
                        "formatted_address": "275 Blvd de la Concorde E (rue des Alouettes), Laval QC H7G 2E5",
                        "locality": "Laval",
                        "postcode": "H7G 2E5",
                        "region": "QC"
                  },
                  "name": "Les Insulaires Microbrasseurs",
                  "popularity": 0.9980362402927787,
                  "price": 2,
                  "rating": 7.7
            },
            {
                  "distance": 713,
                  "location": {
                        "address": "330 Rue de la Normandie",
                        "country": "CA",
                        "cross_street": "at de la Concorde",
                        "formatted_address": "330 Rue de la Normandie (at de la Concorde), Laval QC H7G 2A8",
                        "locality": "Laval",
                        "postcode": "H7G 2A8",
                        "region": "QC"
                  },
                  "name": "Dejeuner Au P'tit Dore",
                  "popularity": 0.828171025618138,
                  "price": 1,
                  "rating": 7.5
            },
            {
                  "distance": 418,
                  "location": {
                        "address": "281 Concorde East Blvd",
                        "address_extended": "# 279",
                        "country": "CA",
                        "cross_street": "Rue des Alouettes",
                        "formatted_address": "281 Concorde East Blvd (Rue des Alouettes), Laval QC H7G 2E5",
                        "locality": "Laval",
                        "postcode": "H7G 2E5",
                        "region": "QC"
                  },
                  "name": "Subway",
                  "popularity": 0.8062126216192091,
                  "price": 1,
                  "store_id": "54471"
            },
            {
                  "distance": 459,
                  "location": {
                        "address": "1622 Blvd de la Concorde E",
                        "country": "CA",
                        "cross_street": "",
                        "formatted_address": "1622 Blvd de la Concorde E, Laval QC H7G 2E7",
                        "locality": "Laval",
                        "postcode": "H7G 2E7",
                        "region": "QC"
                  },
                  "name": "Domino's Pizza",
                  "popularity": 0.9213603499062751,
                  "price": 1,
                  "store_id": "10691"
            },
            {
                  "distance": 565,
                  "location": {
                        "address": "199 Blvd de la Concorde Est",
                        "country": "CA",
                        "cross_street": "",
                        "formatted_address": "199 Blvd de la Concorde Est, Laval QC H7G 2C7",
                        "locality": "Laval",
                        "postcode": "H7G 2C7",
                        "region": "QC"
                  },
                  "name": "Soleil d'Asie",
                  "popularity": 0.02865303936445595,
                  "price": 2
            },
            {
                  "distance": 674,
                  "location": {
                        "address": "220 Blvd de la Concorde Est",
                        "country": "CA",
                        "formatted_address": "220 Blvd de la Concorde Est, Laval QC H7G 2E1",
                        "locality": "Laval",
                        "postcode": "H7G 2E1",
                        "region": "QC"
                  },
                  "name": "Tandoori Xpress",
                  "popularity": 0.874051593323217,
                  "price": 2
            },
            {
                  "distance": 746,
                  "location": {
                        "address": "131 Blvd de la Concorde Est",
                        "country": "CA",
                        "cross_street": "coin rue Goineau et boulevard de la Concorde",
                        "formatted_address": "131 Blvd de la Concorde Est (coin rue Goineau et boulevard de la Concorde), Laval QC H7G 2C3",
                        "locality": "Laval",
                        "postcode": "H7G 2C3",
                        "region": "QC"
                  },
                  "name": "Le Caf\u00e9 de la Concorde",
                  "popularity": 0.6791038114790681,
                  "price": 1
            },
            {
                  "distance": 405,
                  "location": {
                        "address": "519 Patenaude Rue",
                        "country": "CA",
                        "formatted_address": "519 Patenaude Rue, Laval QC H7G 3G2",
                        "locality": "Laval",
                        "postcode": "H7G 3G2",
                        "region": "QC"
                  },
                  "name": "Restolicious"
            },
            {
                  "distance": 422,
                  "location": {
                        "address": "165 Tascherau Blvd",
                        "country": "CA",
                        "formatted_address": "165 Tascherau Blvd, Laval QC",
                        "locality": "Laval",
                        "region": "QC"
                  },
                  "name": "Table 51"
            },
            {
                  "distance": 424,
                  "location": {
                        "address": "250 Blvd de la Concorde E",
                        "country": "CA",
                        "formatted_address": "250 Blvd de la Concorde E, Laval QC H7G 2E4",
                        "locality": "Laval",
                        "postcode": "H7G 2E4",
                        "region": "QC"
                  },
                  "name": "Restaurant la Prima Volta"
            },
            {
                  "distance": 441,
                  "location": {
                        "address": "1670 Blvd de la Concorde E",
                        "country": "CA",
                        "formatted_address": "1670 Blvd de la Concorde E, Laval QC H7G 2E7",
                        "locality": "Laval",
                        "postcode": "H7G 2E7",
                        "region": "QC"
                  },
                  "name": "Restaurant Pfk , Succursales, Laval"
            },
            {
                  "distance": 750,
                  "location": {
                        "address": "159 Blvd de la Concorde E",
                        "country": "CA",
                        "formatted_address": "159 Blvd de la Concorde E, Laval QC H7G 2C6",
                        "locality": "Laval",
                        "postcode": "H7G 2C6",
                        "region": "QC"
                  },
                  "name": "D\u00e9jeuner au P Tit Dor\u00e9"
            },
            {
                  "distance": 897,
                  "location": {
                        "address": "2055 Guerin Rue",
                        "country": "CA",
                        "formatted_address": "2055 Guerin Rue, Laval QC H7E 1R7",
                        "locality": "Laval",
                        "postcode": "H7E 1R7",
                        "region": "QC"
                  },
                  "name": "Nico's Pizza Coffee"
            },
            {
                  "distance": 966,
                  "location": {
                        "address": "1216 Normont Rue",
                        "address_extended": "# 3",
                        "country": "CA",
                        "formatted_address": "1216 Normont Rue, Laval QC H7G 3H5",
                        "locality": "Laval",
                        "postcode": "H7G 3H5",
                        "region": "QC"
                  },
                  "name": "Greg's Patisserie"
            }
      ],
      "context": {
            "geo_bounds": {
                  "circle": {
                        "center": {
                              "latitude": 45.58033486,
                              "longitude": -73.68471868
                        },
                        "radius": 1000
                  }
            }
      }
}