{
      "results": [
            {
                  "distance": 942,
                  "location": {
                        "address": "7669 Centrale Rue",
                        "country": "CA",
                        "cross_street": "",
                        "formatted_address": "7669 Centrale Rue, Lasalle QC H8P 1L4",
                        "locality": "Lasalle",
                        "postcode": "H8P 1L4",
                        "region": "QC"
                  },
                  "name": "Restaurant Dani's Pizzeria",
                  "popularity": 0.9778340272520818,
                  "price": 1,
                  "rating": 7.4
            },
            {
                  "distance": 832,
                  "location": {
                        "address": "7852 Champlain Blvd",
                        "country": "CA",
                        "formatted_address": "7852 Champlain Blvd, Lasalle QC H8P 1B3",
                        "locality": "Lasalle",
                        "postcode": "H8P 1B3",
                        "region": "QC"
                  },
                  "name": "Brasserie des Rapides",
                  "popularity": 0.9975515707797123,
                  "price": 2,
                  "rating": 7.4
            },
            {
                  "distance": 929,
                  "location": {
                        "address": "8080 Champlain Blvd",
                        "country": "CA",
                        "formatted_address": "8080 Champlain Blvd, Lasalle QC H8P 1B3",
                        "locality": "Lasalle",
                        "postcode": "H8P 1B3",
                        "region": "QC"
                  },
                  "name": "Tim Hortons",
                  "popularity": 0.9928676192278577,
                  "price": 1,
                  "rating": 7.1
            },
            {
                  "distance": 950,
                  "location": {
                        "address": "8100 Champlain Blvd",
                        "country": "CA",
                        "cross_street": "",
                        "formatted_address": "8100 Champlain Blvd, Lasalle QC H8P 1B3",
                        "locality": "Lasalle",
                        "postcode": "H8P 1B3",
                        "region": "QC"
                  },
                  "name": "McDonald's",
                  "popularity": 0.9958719719909159,
                  "price": 1,
                  "rating": 5.9
            },
            {
                  "distance": 827,
                  "location": {
                        "address": "7 8e Ave",
                        "address_extended": "# 7",
                        "country": "CA",
                        "cross_street": "",
                        "formatted_address": "7 8e Ave, Lasalle QC H8P 2M6",
                        "locality": "Lasalle",
                        "postcode": "H8P 2M6",
                        "region": "QC"
                  },
                  "name": "Ristorante Riventino",
                  "popularity": 0.8844980128690386,
                  "price": 2
            },
            {
                  "distance": 836,
                  "location": {
                        "address": "1 8e Ave",
                        "country": "CA",
                        "cross_street": "",
                        "formatted_address": "1 8e Ave, Lasalle QC H8P 2M6",
                        "locality": "Lasalle",
                        "postcode": "H8P 2M6",
                        "region": "QC"
                  },
                  "name": "Restaurant Cr\u00e8me Caf\u00e9",
                  "popularity": 0.9164577024981075,
                  "price": 2
            },
            {
                  "distance": 850,
                  "location": {
                        "address": "7814 Champlain Blvd",
                        "country": "CA",
                        "cross_street": "",
                        "formatted_address": "7814 Champlain Blvd, Lasalle QC H8P 1B3",
                        "locality": "Lasalle",
                        "postcode": "H8P 1B3",
                        "region": "QC"
                  },
                  "name": "Subway",
                  "popularity": 0.9309945117335352,
                  "price": 1,
                  "store_id": "#25147"
            },
            {
                  "distance": 883,
                  "location": {
                        "address": "7685 Centrale Rue",
                        "country": "CA",
                        "cross_street": "",
                        "formatted_address": "7685 Centrale Rue, Lasalle QC H8P 1L7",
                        "locality": "Lasalle",
                        "postcode": "H8P 1L7",
                        "region": "QC"
                  },
                  "name": "Eviza Cafe",
                  "popularity": 0.9806609576078729,
                  "price": 1
            },
            {
                  "distance": 15431,
                  "location": {
                        "address": "7848 Champlain Blvd",
                        "country": "CA",
                        "cross_street": "",
                        "formatted_address": "7848 Champlain Blvd, Lasalle QC H8P 1B3",
                        "locality": "Lasalle",
                        "postcode": "H8P 1B3",
                        "region": "QC"
                  },
                  "name": "Au Cochon Fou",
                  "popularity": 0.4348150075700227,
                  "price": 2
            },
            {
                  "distance": 753,
                  "location": {
                        "address": "8300 George Rue",
                        "country": "CA",
                        "formatted_address": "8300 George Rue, Lasalle QC H8P 1E5",
                        "locality": "Lasalle",
                        "postcode": "H8P 1E5",
                        "region": "QC"
                  },
                  "name": "Le Saucier"
            },
            {
                  "distance": 787,
                  "location": {
                        "address": "189 8e Ave",
                        "country": "CA",
                        "formatted_address": "189 8e Ave, Lasalle QC H8P 2M9",
                        "locality": "Lasalle",
                        "postcode": "H8P 2M9",
                        "region": "QC"
                  },
                  "name": "Pott's Pastries"
            },
            {
                  "distance": 837,
                  "location": {
                        "address": "1 8e Ave",
                        "country": "CA",
                        "formatted_address": "1 8e Ave, Lasalle QC H8P 2M6",
                        "locality": "Lasalle",
                        "postcode": "H8P 2M6",
                        "region": "QC"
                  },
                  "name": "Cafetiere"
            },
            {
                  "distance": 861,
                  "location": {
                        "address": "7695 Centrale Rue",
                        "country": "CA",
                        "formatted_address": "7695 Centrale Rue, Lasalle QC H8P 1L7",
                        "locality": "Lasalle",
                        "postcode": "H8P 1L7",
                        "region": "QC"
                  },
                  "name": "Almondo Pizzeria"
            },
            {
                  "distance": 920,
                  "location": {
                        "address": "7852 Champlain Blvd",
                        "country": "CA",
                        "formatted_address": "7852 Champlain Blvd, Lasalle QC H8P 1B3",
                        "locality": "Lasalle",
                        "postcode": "H8P 1B3",
                        "region": "QC"
                  },
                  "name": "Subway Place Lasalle"
            },
            {
                  "distance": 931,
                  "location": {
                        "address": "8178 Champlain Blvd",
                        "country": "CA",
                        "formatted_address": "8178 Champlain Blvd, Lasalle QC H8P 1B4",
                        "locality": "Lasalle",
                        "postcode": "H8P 1B4",
                        "region": "QC"
                  },
                  "name": "Bistro Isakaya"
            }
      ],
      "context": {
            "geo_bounds": {
                  "circle": {
                        "center": {
                              "latitude": 45.42245141,
                              "longitude": -73.60119402
                        },
                        "radius": 1000
                  }
            }
      }
}