{
      "results": [
            {
                  "distance": 984,
                  "location": {
                        "address": "1777 Graham Blvd",
                        "country": "CA",
                        "cross_street": "",
                        "formatted_address": "1777 Graham Blvd, Mont-Royal QC H3R 1G7",
                        "locality": "Mont-Royal",
                        "postcode": "H3R 1G7",
                        "region": "QC"
                  },
                  "name": "Leonidas Mont Royal",
                  "popularity": 0.9110167486752461,
                  "price": 1,
                  "rating": 8.2
            },
            {
                  "distance": 711,
                  "location": {
                        "address": "6565 Ch de la Cote-Des-Neiges",
                        "country": "CA",
                        "cross_street": "Barclay",
                        "formatted_address": "6565 Ch de la Cote-Des-Neiges (Barclay), Montr\u00e9al QC H3S 2A5",
                        "locality": "Montreal",
                        "postcode": "H3S 2A5",
                        "region": "QC"
                  },
                  "name": "Kum Mon Restaurant",
                  "popularity": 0.9859836298258895,
                  "price": 1,
                  "rating": 7.9
            },
            {
                  "distance": 944,
                  "location": {
                        "address": "1970 Graham Blvd",
                        "country": "CA",
                        "cross_street": "",
                        "formatted_address": "1970 Graham Blvd, Mont-Royal QC H3R 1H3",
                        "locality": "Mont-Royal",
                        "postcode": "H3R 1H3",
                        "region": "QC"
                  },
                  "name": "Grillades Portugaises Galo",
                  "popularity": 0.9300364307342922,
                  "price": 2,
                  "rating": 7.4
            },
            {
                  "distance": 877,
                  "location": {
                        "address": "6260 ch. de la C\u00f4te-des-Neiges",
                        "country": "CA",
                        "formatted_address": "6260 ch. de la C\u00f4te-des-Neiges, Montr\u00e9al QC H3S 2A3",
                        "locality": "Montreal",
                        "postcode": "H3S 2A3",
                        "region": "QC"
                  },
                  "name": "Restaurant Nguyen Phi",
                  "popularity": 0.9791824375473126,
                  "price": 2,
                  "rating": 7.1
            },
            {
                  "distance": 950,
                  "location": {
                        "address": "6230 ch. de la C\u00f4te-des-Neiges",
                        "country": "CA",
                        "cross_street": "coin Van Horne",
                        "formatted_address": "6230 ch. de la C\u00f4te-des-Neiges (coin Van Horne), Montr\u00e9al QC H3S 2A1",
                        "locality": "Montreal",
                        "postcode": "H3S 2A1",
                        "region": "QC"
                  },
                  "name": "Pho Hoa",
                  "popularity": 0.9062145155185466,
                  "price": 2,
                  "rating": 6.7
            },
            {
                  "distance": 471,
                  "location": {
                        "address": "6767A de la Cote des Neiges Ch",
                        "country": "CA",
                        "cross_street": "",
                        "formatted_address": "6767A de la Cote des Neiges Ch, Montr\u00e9al QC H3S 2A8",
                        "locality": "Montreal",
                        "postcode": "H3S 2A8",
                        "region": "QC"
                  },
                  "name": "Kam Shing Chinese Restaurant",
                  "popularity": 0.9756339894019682,
                  "price": 1,
                  "rating": 6.7
            },
            {
                  "distance": 169,
                  "location": {
                        "address": "3777 Jean-Talon Rue O",
                        "country": "CA",
                        "cross_street": "",
                        "formatted_address": "3777 Jean-Talon Rue O, Montr\u00e9al QC H3R 2G4",
                        "locality": "Montreal",
                        "postcode": "H3R 2G4",
                        "region": "QC"
                  },
                  "name": "Pizza Hut",
                  "popularity": 0.95882617335352,
                  "price": 1,
                  "rating": 6.6
            },
            {
                  "distance": 555,
                  "location": {
                        "address": "6700 Ch de la C\u00f4te-des-Neiges",
                        "country": "CA",
                        "cross_street": "Barclay",
                        "formatted_address": "6700 Ch de la C\u00f4te-des-Neiges (Barclay), Montr\u00e9al QC H3S 2B2",
                        "locality": "Montreal",
                        "postcode": "H3S 2B2",
                        "region": "QC"
                  },
                  "name": "Cine Starz Inc Cotes des Neiges",
                  "popularity": 0.991353614685844,
                  "rating": 6.5
            },
            {
                  "distance": 498,
                  "location": {
                        "address": "6775 Cote-des-Neiges",
                        "country": "CA",
                        "formatted_address": "6775 Cote-des-Neiges, Montr\u00e9al QC H3S 2B5",
                        "locality": "Montreal",
                        "postcode": "H3S 2B5",
                        "region": "QC"
                  },
                  "name": "Harvey's",
                  "popularity": 0.9831093868281605,
                  "price": 2,
                  "rating": 6.3,
                  "store_id": "2227"
            },
            {
                  "distance": 459,
                  "location": {
                        "address": "1081 Caledonia Ch",
                        "address_extended": "# 1001",
                        "country": "CA",
                        "cross_street": "",
                        "formatted_address": "1081 Caledonia Ch, Mont-Royal QC H3R 2V6",
                        "locality": "Mont-Royal",
                        "postcode": "H3R 2V6",
                        "region": "QC"
                  },
                  "name": "Thia Dina's",
                  "popularity": 0.47579958364875097,
                  "price": 2
            },
            {
                  "distance": 495,
                  "location": {
                        "address": "6700 ch de la C\u00f4te-des-Neiges",
                        "country": "CA",
                        "cross_street": "",
                        "formatted_address": "6700 ch de la C\u00f4te-des-Neiges, Montreal QC H3S 2B2",
                        "locality": "Montreal",
                        "postcode": "H3S 2B2",
                        "region": "QC"
                  },
                  "name": "Bar Vegas Lounge",
                  "popularity": 0.8900335919757759,
                  "price": 2
            },
            {
                  "distance": 530,
                  "location": {
                        "address": "6700 Ch. de la C\u00f4te-des-Neiges",
                        "country": "CA",
                        "cross_street": "",
                        "formatted_address": "6700 Ch. de la C\u00f4te-des-Neiges, Montr\u00e9al QC H3S 2B2",
                        "locality": "Montreal",
                        "postcode": "H3S 2B2",
                        "region": "QC"
                  },
                  "name": "Uncle Tetsu",
                  "popularity": 0.8627815102195306,
                  "price": 1
            },
            {
                  "distance": 568,
                  "location": {
                        "address": "709 Lucerne Ch",
                        "country": "CA",
                        "cross_street": "",
                        "formatted_address": "709 Lucerne Ch, Montr\u00e9al QC H3R 2H7",
                        "locality": "Montreal",
                        "postcode": "H3R 2H7",
                        "region": "QC"
                  },
                  "name": "District Bagel",
                  "popularity": 0.9018735806207419,
                  "price": 1
            },
            {
                  "distance": 571,
                  "location": {
                        "address": "6700 ch de la C\u00f4te-des-Neiges",
                        "country": "CA",
                        "cross_street": "",
                        "formatted_address": "6700 ch de la C\u00f4te-des-Neiges, Montr\u00e9al QC H3S 2B2",
                        "locality": "Montreal",
                        "postcode": "H3S 2B2",
                        "region": "QC"
                  },
                  "name": "Pita Burger",
                  "popularity": 0.957300340651022,
                  "price": 2
            },
            {
                  "distance": 908,
                  "location": {
                        "address": "149 Kindersley Ave",
                        "country": "CA",
                        "cross_street": "",
                        "formatted_address": "149 Kindersley Ave, Mont-Royal QC H3R 1R3",
                        "locality": "Mont-Royal",
                        "postcode": "H3R 1R3",
                        "region": "QC"
                  },
                  "name": "Sushi Sakana",
                  "popularity": 0.8809377365632097,
                  "price": 2
            },
            {
                  "distance": 1223,
                  "location": {
                        "address": "6600 ch de la C\u00f4te-des-Neiges",
                        "country": "CA",
                        "cross_street": "",
                        "formatted_address": "6600 ch de la C\u00f4te-des-Neiges, Montr\u00e9al QC H3S 2A9",
                        "locality": "Montreal",
                        "postcode": "H3S 2A9",
                        "region": "QC"
                  },
                  "name": "Amir",
                  "popularity": 0.7083885314155942,
                  "price": 1
            },
            {
                  "distance": 155,
                  "location": {
                        "address": "3777 Jean-Talon St W",
                        "country": "CA",
                        "formatted_address": "3777 Jean-Talon St W, Montreal QC H3R 2G4",
                        "locality": "Montreal",
                        "postcode": "H3R 2G4",
                        "region": "QC"
                  },
                  "name": "Pizza Hut"
            },
            {
                  "distance": 456,
                  "location": {
                        "address": "6825 Ch de la Cote-Des-Neiges",
                        "country": "CA",
                        "formatted_address": "6825 Ch de la Cote-Des-Neiges, Montreal QC H3S 2B6",
                        "locality": "Montreal",
                        "postcode": "H3S 2B6",
                        "region": "QC"
                  },
                  "name": "Second Cup"
            },
            {
                  "distance": 524,
                  "location": {
                        "address": "6700 ch de la C\u00f4te-des-Neiges",
                        "country": "CA",
                        "formatted_address": "6700 ch de la C\u00f4te-des-Neiges, Montreal QC H3S 2B2",
                        "locality": "Montreal",
                        "postcode": "H3S 2B2",
                        "region": "QC"
                  },
                  "name": "SBS Resto"
            },
            {
                  "distance": 524,
                  "location": {
                        "address": "6700 ch de la C\u00f4te-des-Neiges",
                        "country": "CA",
                        "formatted_address": "6700 ch de la C\u00f4te-des-Neiges, Montreal QC H3S 2B2",
                        "locality": "Montreal",
                        "postcode": "H3S 2B2",
                        "region": "QC"
                  },
                  "name": "Mnaghdi Company Can Inc Chemin"
            },
            {
                  "distance": 528,
                  "location": {
                        "address": "6700 Ch de la Cote-Des-Neiges",
                        "country": "CA",
                        "formatted_address": "6700 Ch de la Cote-Des-Neiges, Montreal QC H3S 2B2",
                        "locality": "Montreal",
                        "postcode": "H3S 2B2",
                        "region": "QC"
                  },
                  "name": "Sushi 1004"
            },
            {
                  "distance": 533,
                  "location": {
                        "address": "6700 Ch de la Cote-Des-Neiges",
                        "country": "CA",
                        "formatted_address": "6700 Ch de la Cote-Des-Neiges, Montreal QC H3S 2B2",
                        "locality": "Montreal",
                        "postcode": "H3S 2B2",
                        "region": "QC"
                  },
                  "name": "Bistro"
            },
            {
                  "distance": 535,
                  "location": {
                        "address": "6700 ch de la cote-des-Neiges",
                        "country": "CA",
                        "formatted_address": "6700 ch de la cote-des-Neiges, Montreal QC H3S 2B2",
                        "locality": "Montreal",
                        "postcode": "H3S 2B2",
                        "region": "QC"
                  },
                  "name": "Goong Sushi Restaurant"
            },
            {
                  "distance": 538,
                  "location": {
                        "address": "6700 Ch de la Cote-Des-Neiges",
                        "country": "CA",
                        "formatted_address": "6700 Ch de la Cote-Des-Neiges, Montreal QC H3S 2B2",
                        "locality": "Montreal",
                        "postcode": "H3S 2B2",
                        "region": "QC"
                  },
                  "name": "International India"
            },
            {
                  "distance": 542,
                  "location": {
                        "address": "6700 de la Cote-Des-Neiges Ch",
                        "country": "CA",
                        "formatted_address": "6700 de la Cote-Des-Neiges Ch, Montreal QC H3S 2B2",
                        "locality": "Montreal",
                        "postcode": "H3S 2B2",
                        "region": "QC"
                  },
                  "name": "Petit Caveau"
            },
            {
                  "distance": 550,
                  "location": {
                        "address": "6700 de la Cote-Des-Neiges Ch",
                        "country": "CA",
                        "formatted_address": "6700 de la Cote-Des-Neiges Ch, Montreal QC H3S 2B2",
                        "locality": "Montreal",
                        "postcode": "H3S 2B2",
                        "region": "QC"
                  },
                  "name": "Croissant Plus"
            },
            {
                  "distance": 570,
                  "location": {
                        "address": "6700 Ch de la Cote-Des-Neiges",
                        "address_extended": "# 139",
                        "country": "CA",
                        "formatted_address": "6700 Ch de la Cote-Des-Neiges, Montreal QC H3S 2B2",
                        "locality": "Montreal",
                        "postcode": "H3S 2B2",
                        "region": "QC"
                  },
                  "name": "Iguana Pool Bar Inc"
            },
            {
                  "distance": 570,
                  "location": {
                        "address": "6700 Ch de la C\u00f4te-des-Neiges",
                        "country": "CA",
                        "formatted_address": "6700 Ch de la C\u00f4te-des-Neiges, Montreal QC H3S 2B2",
                        "locality": "Montreal",
                        "postcode": "H3S 2B2",
                        "region": "QC"
                  },
                  "name": "Resto Caf\u00e9 Site Med Inc"
            },
            {
                  "distance": 574,
                  "location": {
                        "address": "6700 ch de la C\u00f4te-des-Neiges",
                        "country": "CA",
                        "formatted_address": "6700 ch de la C\u00f4te-des-Neiges, Montreal QC H3S 2B2",
                        "locality": "Montreal",
                        "postcode": "H3S 2B2",
                        "region": "QC"
                  },
                  "name": "To Go Bubble Tea"
            },
            {
                  "distance": 597,
                  "location": {
                        "address": "6700 Ch de la cote-des-Neiges",
                        "country": "CA",
                        "formatted_address": "6700 Ch de la cote-des-Neiges, Montreal QC H3S 2B2",
                        "locality": "Montreal",
                        "postcode": "H3S 2B2",
                        "region": "QC"
                  },
                  "name": "Subway"
            },
            {
                  "distance": 620,
                  "location": {
                        "address": "6615 Ch de la Cote-Des-Neiges",
                        "country": "CA",
                        "formatted_address": "6615 Ch de la Cote-Des-Neiges, Montreal QC H3S 2B3",
                        "locality": "Montreal",
                        "postcode": "H3S 2B3",
                        "region": "QC"
                  },
                  "name": "Cafe Lan-Anh"
            },
            {
                  "distance": 683,
                  "location": {
                        "address": "1904 Thimens Blvd",
                        "country": "CA",
                        "formatted_address": "1904 Thimens Blvd, Saint-Laurent QC H4R 2K2",
                        "locality": "Saint-Laurent",
                        "postcode": "H4R 2K2",
                        "region": "QC"
                  },
                  "name": "Restaurant et Poisonnerie la Mer Rouge"
            },
            {
                  "distance": 721,
                  "location": {
                        "address": "3205 Barclay Ave",
                        "country": "CA",
                        "formatted_address": "3205 Barclay Ave, Montreal QC H3S 1K2",
                        "locality": "Montreal",
                        "postcode": "H3S 1K2",
                        "region": "QC"
                  },
                  "name": "Boulangerie Kalina"
            },
            {
                  "distance": 732,
                  "location": {
                        "address": "5316 Newman Pl",
                        "country": "CA",
                        "formatted_address": "5316 Newman Pl, Montreal QC H3X 1E6",
                        "locality": "Montreal",
                        "postcode": "H3X 1E6",
                        "region": "QC"
                  },
                  "name": "Island Grill"
            },
            {
                  "distance": 936,
                  "location": {
                        "address": "4700 Rue de la Savane",
                        "country": "CA",
                        "formatted_address": "4700 Rue de la Savane, Montreal QC H4P 1T7",
                        "locality": "Montreal",
                        "postcode": "H4P 1T7",
                        "region": "QC"
                  },
                  "name": "Caf\u00e9 Eclipse"
            }
      ],
      "context": {
            "geo_bounds": {
                  "circle": {
                        "center": {
                              "latitude": 45.50619158,
                              "longitude": -73.642308
                        },
                        "radius": 1000
                  }
            }
      }
}