{
      "results": [
            {
                  "distance": 432,
                  "location": {
                        "address": "4093 Molson Rue",
                        "country": "CA",
                        "cross_street": "Rue William-Tremblay",
                        "formatted_address": "4093 Molson Rue (Rue William-Tremblay), Montr\u00e9al QC H1Y 3L1",
                        "locality": "Montreal",
                        "postcode": "H1Y 3L1",
                        "region": "QC"
                  },
                  "name": "Mamie Clafoutis",
                  "popularity": 0.9076693792581377,
                  "price": 1,
                  "rating": 7.9
            },
            {
                  "distance": 1011,
                  "location": {
                        "address": "3014 Masson Rue",
                        "country": "CA",
                        "cross_street": "coin 7e avenue",
                        "formatted_address": "3014 Masson Rue (coin 7e avenue), Montr\u00e9al QC H1Y 1X6",
                        "locality": "Montreal",
                        "postcode": "H1Y 1X6",
                        "region": "QC"
                  },
                  "name": "Chez Baptiste Sur Masson",
                  "popularity": 0.9593347842543528,
                  "price": 2,
                  "rating": 7.3
            },
            {
                  "distance": 714,
                  "location": {
                        "address": "3121 Hochelaga Rue",
                        "country": "CA",
                        "cross_street": "",
                        "formatted_address": "3121 Hochelaga Rue, Montr\u00e9al QC H1W 1G3",
                        "locality": "Montreal",
                        "postcode": "H1W 1G3",
                        "region": "QC"
                  },
                  "name": "Maneki Comptoir Asiat'",
                  "popularity": 0.8695235616956851,
                  "price": 2,
                  "rating": 7.2
            },
            {
                  "distance": 526,
                  "location": {
                        "address": "3090 Sherbrooke Rue E",
                        "country": "CA",
                        "cross_street": "coin Moreau",
                        "formatted_address": "3090 Sherbrooke Rue E (coin Moreau), Montr\u00e9al QC H1W 1B5",
                        "locality": "Montreal",
                        "postcode": "H1W 1B5",
                        "region": "QC"
                  },
                  "name": "Deli Miami",
                  "popularity": 0.9861492240726722,
                  "price": 1,
                  "rating": 6.9
            },
            {
                  "distance": 760,
                  "location": {
                        "address": "2765 Sherbrooke Rue E",
                        "country": "CA",
                        "cross_street": "Montgomery",
                        "formatted_address": "2765 Sherbrooke Rue E (Montgomery), Montr\u00e9al QC H2K 1G9",
                        "locality": "Montreal",
                        "postcode": "H2K 1G9",
                        "region": "QC"
                  },
                  "name": "Subway",
                  "popularity": 0.8906368281604845,
                  "price": 1,
                  "rating": 6.3,
                  "store_id": "27680"
            },
            {
                  "distance": 991,
                  "location": {
                        "address": "3929 Sherbrooke Rue E",
                        "country": "CA",
                        "cross_street": "Orleans",
                        "formatted_address": "3929 Sherbrooke Rue E (Orleans), Montr\u00e9al QC H1X 3E3",
                        "locality": "Montreal",
                        "postcode": "H1X 3E3",
                        "region": "QC"
                  },
                  "name": "Restaurant la Belle Province",
                  "popularity": 0.9721091975775927,
                  "price": 1,
                  "rating": 6.3
            },
            {
                  "distance": 888,
                  "location": {
                        "address": "3881 Sherbrooke Rue E",
                        "country": "CA",
                        "cross_street": "coin Av. Bourbonni\u00e8re",
                        "formatted_address": "3881 Sherbrooke Rue E (coin Av. Bourbonni\u00e8re), Montr\u00e9al QC H1X 2A5",
                        "locality": "Montreal",
                        "postcode": "H1X 2A5",
                        "region": "QC"
                  },
                  "name": "Tim Hortons",
                  "popularity": 0.9890116389099167,
                  "price": 1,
                  "rating": 6.2
            },
            {
                  "distance": 624,
                  "location": {
                        "address": "2901 Sherbrooke St E",
                        "country": "CA",
                        "cross_street": "",
                        "formatted_address": "2901 Sherbrooke St E, Montr\u00e9al QC H1W 1B2",
                        "locality": "Montreal",
                        "postcode": "H1W 1B2",
                        "region": "QC"
                  },
                  "name": "McDonald's",
                  "popularity": 0.9885621688115064,
                  "price": 1,
                  "rating": 5.3,
                  "store_id": "40472"
            },
            {
                  "distance": 443,
                  "location": {
                        "address": "4091 Molson Rue",
                        "country": "CA",
                        "cross_street": "",
                        "formatted_address": "4091 Molson Rue, Montr\u00e9al QC H1Y 3L1",
                        "locality": "Montreal",
                        "postcode": "H1Y 3L1",
                        "region": "QC"
                  },
                  "name": "Pizzeria Caldo",
                  "popularity": 0.17878264572293717,
                  "price": 1,
                  "rating": 5.3
            },
            {
                  "distance": 313,
                  "location": {
                        "address": "4090 Andre-Laurendeau Rue",
                        "country": "CA",
                        "cross_street": "",
                        "formatted_address": "4090 Andre-Laurendeau Rue, Montreal QC H1Y 3N6",
                        "locality": "Montreal",
                        "postcode": "H1Y 3N6",
                        "region": "QC"
                  },
                  "name": "La Caf\u00e9shop",
                  "popularity": 0.8607470666161998,
                  "price": 1
            },
            {
                  "distance": 335,
                  "location": {
                        "address": "2600 William-Tremblay Rue",
                        "country": "CA",
                        "cross_street": "",
                        "formatted_address": "2600 William-Tremblay Rue, Montr\u00e9al QC H1Y 3J2",
                        "locality": "Montreal",
                        "postcode": "H1Y 3J2",
                        "region": "QC"
                  },
                  "name": "Station W",
                  "popularity": 0.9345902725208176,
                  "price": 1
            },
            {
                  "distance": 474,
                  "location": {
                        "address": "3537 Rachel Rue E",
                        "country": "CA",
                        "cross_street": "",
                        "formatted_address": "3537 Rachel Rue E, Montr\u00e9al QC H1W 1A8",
                        "locality": "Montreal",
                        "postcode": "H1W 1A8",
                        "region": "QC"
                  },
                  "name": "Jardin des Delices",
                  "popularity": 0.9223599545798638,
                  "price": 2
            },
            {
                  "distance": 679,
                  "location": {
                        "address": "4600 Molson Rue",
                        "country": "CA",
                        "cross_street": "",
                        "formatted_address": "4600 Molson Rue, Montr\u00e9al QC H1Y 0A3",
                        "locality": "Montreal",
                        "postcode": "H1Y 0A3",
                        "region": "QC"
                  },
                  "name": "Mito Sushi",
                  "popularity": 0.625981737320212,
                  "price": 2
            },
            {
                  "distance": 852,
                  "location": {
                        "address": "3800 Sherbrooke Rue E",
                        "country": "CA",
                        "cross_street": "",
                        "formatted_address": "3800 Sherbrooke Rue E, Montr\u00e9al QC H1X 2A2",
                        "locality": "Montreal",
                        "postcode": "H1X 2A2",
                        "region": "QC"
                  },
                  "name": "Caf\u00e9 l'Escale",
                  "popularity": 0.9066403292959879,
                  "price": 1
            },
            {
                  "distance": 871,
                  "location": {
                        "address": "3881 Rachel Rue E",
                        "country": "CA",
                        "cross_street": "Bourbonni\u00e8re",
                        "formatted_address": "3881 Rachel Rue E (Bourbonni\u00e8re), Montr\u00e9al QC H1X 1Z2",
                        "locality": "Montreal",
                        "postcode": "H1X 1Z2",
                        "region": "QC"
                  },
                  "name": "Le Botocoin",
                  "popularity": 0.9011757191521574,
                  "price": 1
            },
            {
                  "distance": 1008,
                  "location": {
                        "address": "3150 Masson Rue",
                        "country": "CA",
                        "cross_street": "coin 9e avenue",
                        "formatted_address": "3150 Masson Rue (coin 9e avenue), Montr\u00e9al QC H1Y 1Y1",
                        "locality": "Montreal",
                        "postcode": "H1Y 1Y1",
                        "region": "QC"
                  },
                  "name": "Restaurant Basha",
                  "popularity": 0.9222298448145344,
                  "price": 1
            },
            {
                  "distance": 1013,
                  "location": {
                        "address": "3036 Masson Rue",
                        "country": "CA",
                        "cross_street": "",
                        "formatted_address": "3036 Masson Rue, Montr\u00e9al QC H1Y 1X6",
                        "locality": "Montreal",
                        "postcode": "H1Y 1X6",
                        "region": "QC"
                  },
                  "name": "Joyo Burger",
                  "popularity": 0.9241223504920515,
                  "price": 1
            },
            {
                  "distance": 1019,
                  "location": {
                        "address": "3244 Masson Rue",
                        "country": "CA",
                        "cross_street": "",
                        "formatted_address": "3244 Masson Rue, Montr\u00e9al QC H1Y 1Y3",
                        "locality": "Montreal",
                        "postcode": "H1Y 1Y3",
                        "region": "QC"
                  },
                  "name": "A&W Restaurant",
                  "popularity": 0.9042273845571537,
                  "price": 1,
                  "store_id": "5903"
            },
            {
                  "distance": 104,
                  "location": {
                        "address": "2925 Rachel Rue E",
                        "country": "CA",
                        "formatted_address": "2925 Rachel Rue E, Montreal QC H1W 3Z8",
                        "locality": "Montreal",
                        "postcode": "H1W 3Z8",
                        "region": "QC"
                  },
                  "name": "Starbucks",
                  "store_id": "65587-300003"
            },
            {
                  "distance": 615,
                  "location": {
                        "address": "3645 Sherbrooke Rue E",
                        "country": "CA",
                        "formatted_address": "3645 Sherbrooke Rue E, Montreal QC H1W 1E5",
                        "locality": "Montreal",
                        "postcode": "H1W 1E5",
                        "region": "QC"
                  },
                  "name": "Sandwich Par-Ici"
            },
            {
                  "distance": 770,
                  "location": {
                        "address": "3400 Hochelaga Rue",
                        "country": "CA",
                        "formatted_address": "3400 Hochelaga Rue, Montreal QC H1W 1H3",
                        "locality": "Montreal",
                        "postcode": "H1W 1H3",
                        "region": "QC"
                  },
                  "name": "Restaurant Yammi Yammi Pizza"
            },
            {
                  "distance": 826,
                  "location": {
                        "address": "2755 Sherbrooke Rue E",
                        "country": "CA",
                        "formatted_address": "2755 Sherbrooke Rue E, Montreal QC H2K 1G9",
                        "locality": "Montreal",
                        "postcode": "H2K 1G9",
                        "region": "QC"
                  },
                  "name": "Pizza Hut"
            }
      ],
      "context": {
            "geo_bounds": {
                  "circle": {
                        "center": {
                              "latitude": 45.54577595,
                              "longitude": -73.56217459
                        },
                        "radius": 1000
                  }
            }
      }
}