{
      "results": [
            {
                  "distance": 369,
                  "location": {
                        "address": "6588 Monk Blvd",
                        "country": "CA",
                        "cross_street": "",
                        "formatted_address": "6588 Monk Blvd, Montr\u00e9al QC H4E 3J1",
                        "locality": "Montreal",
                        "postcode": "H4E 3J1",
                        "region": "QC"
                  },
                  "name": "Restaurant Pizza Nino",
                  "popularity": 0.9347795230885693,
                  "price": 4,
                  "rating": 7.9
            },
            {
                  "distance": 341,
                  "location": {
                        "address": "2376 Allard Rue",
                        "country": "CA",
                        "cross_street": "",
                        "formatted_address": "2376 Allard Rue, Montr\u00e9al QC H4E 2K9",
                        "locality": "Montreal",
                        "postcode": "H4E 2K9",
                        "region": "QC"
                  },
                  "name": "Caf\u00e9 Central",
                  "popularity": 0.9587906888720666,
                  "price": 1,
                  "rating": 7.8
            },
            {
                  "distance": 755,
                  "location": {
                        "address": "2851 Allard Rue",
                        "country": "CA",
                        "cross_street": "",
                        "formatted_address": "2851 Allard Rue, Montr\u00e9al QC H4E 2M1",
                        "locality": "Montreal",
                        "postcode": "H4E 2M1",
                        "region": "QC"
                  },
                  "name": "Dilallo Burger Original 1929",
                  "popularity": 0.9933289174867524,
                  "price": 1,
                  "rating": 7.7
            },
            {
                  "distance": 687,
                  "location": {
                        "address": "6125 Monk Blvd",
                        "country": "CA",
                        "cross_street": "Jolicoeur",
                        "formatted_address": "6125 Monk Blvd (Jolicoeur), Montr\u00e9al QC H4E 3H5",
                        "locality": "Montreal",
                        "postcode": "H4E 3H5",
                        "region": "QC"
                  },
                  "name": "Tim Hortons",
                  "popularity": 0.9925719152157456,
                  "price": 2,
                  "rating": 6.6
            },
            {
                  "distance": 661,
                  "location": {
                        "address": "6150 Monk Blvd",
                        "country": "CA",
                        "cross_street": "Jolicoeur",
                        "formatted_address": "6150 Monk Blvd (Jolicoeur), Montr\u00e9al QC H4E 3H6",
                        "locality": "Montreal",
                        "postcode": "H4E 3H6",
                        "region": "QC"
                  },
                  "name": "Restaurant Deli Green Stop",
                  "popularity": 0.9044284632853898,
                  "price": 1,
                  "rating": 6.6
            },
            {
                  "distance": 655,
                  "location": {
                        "address": "6201 Monk Blvd",
                        "country": "CA",
                        "cross_street": "Jolicoeur",
                        "formatted_address": "6201 Monk Blvd (Jolicoeur), Montr\u00e9al QC H4E 3H8",
                        "locality": "Montreal",
                        "postcode": "H4E 3H8",
                        "region": "QC"
                  },
                  "name": "Subway",
                  "popularity": 0.8584524034822104,
                  "price": 1,
                  "rating": 6.6,
                  "store_id": "27037"
            },
            {
                  "distance": 347,
                  "location": {
                        "address": "6688 Monk Blvd",
                        "country": "CA",
                        "cross_street": "Boul allard",
                        "formatted_address": "6688 Monk Blvd (Boul allard), Montr\u00e9al QC H4E 3J1",
                        "locality": "Montreal",
                        "postcode": "H4E 3J1",
                        "region": "QC"
                  },
                  "name": "Sports Rock Cafe",
                  "popularity": 0.9659230696442089
            },
            {
                  "distance": 385,
                  "location": {
                        "address": "6540 Monk Blvd",
                        "country": "CA",
                        "cross_street": "",
                        "formatted_address": "6540 Monk Blvd, Montr\u00e9al QC H4E 3J1",
                        "locality": "Montreal",
                        "postcode": "H4E 3J1",
                        "region": "QC"
                  },
                  "name": "Cafe Collab",
                  "popularity": 0.839598315669947,
                  "price": 1
            },
            {
                  "distance": 393,
                  "location": {
                        "address": "6556 Monk Blvd",
                        "country": "CA",
                        "cross_street": "Springland",
                        "formatted_address": "6556 Monk Blvd (Springland), Montr\u00e9al QC H4E 3J1",
                        "locality": "Montreal",
                        "postcode": "H4E 3J1",
                        "region": "QC"
                  },
                  "name": "Ville-\u00c9mard Bagels",
                  "popularity": 0.8834689629068887,
                  "price": 1
            },
            {
                  "distance": 435,
                  "location": {
                        "address": "2437 Allard Rue",
                        "country": "CA",
                        "cross_street": "Beaulieu",
                        "formatted_address": "2437 Allard Rue (Beaulieu), Montr\u00e9al QC H4E 2L3",
                        "locality": "Montreal",
                        "postcode": "H4E 2L3",
                        "region": "QC"
                  },
                  "name": "Gourmet Aldo",
                  "popularity": 0.8908024224072673,
                  "price": 1
            },
            {
                  "distance": 484,
                  "location": {
                        "address": "6375 Monk Blvd",
                        "country": "CA",
                        "cross_street": "",
                        "formatted_address": "6375 Monk Blvd, Montr\u00e9al QC H4E 3H8",
                        "locality": "Montreal",
                        "postcode": "H4E 3H8",
                        "region": "QC"
                  },
                  "name": "U.V.E.",
                  "popularity": 0.6655587623012869,
                  "price": 2
            },
            {
                  "distance": 500,
                  "location": {
                        "address": "6361 Monk Blvd",
                        "country": "CA",
                        "cross_street": "",
                        "formatted_address": "6361 Monk Blvd, Montr\u00e9al QC H4E 3H8",
                        "locality": "Montreal",
                        "postcode": "H4E 3H8",
                        "region": "QC"
                  },
                  "name": "Archibald & Alistair",
                  "popularity": 0.03835872445117335,
                  "price": 1
            },
            {
                  "distance": 616,
                  "location": {
                        "address": "6222 Monk Blvd",
                        "country": "CA",
                        "cross_street": "Jolicoeur",
                        "formatted_address": "6222 Monk Blvd (Jolicoeur), Montr\u00e9al QC H4E 3H7",
                        "locality": "Montreal",
                        "postcode": "H4E 3H7",
                        "region": "QC"
                  },
                  "name": "Chez Ping Restaurant",
                  "popularity": 0.9477550151400455,
                  "price": 1
            },
            {
                  "distance": 799,
                  "location": {
                        "address": "6021 Monk Blvd",
                        "country": "CA",
                        "cross_street": "",
                        "formatted_address": "6021 Monk Blvd, Montr\u00e9al QC H4E 3H5",
                        "locality": "Montreal",
                        "postcode": "H4E 3H5",
                        "region": "QC"
                  },
                  "name": "Maffeo\u2019s Poulet Frit",
                  "popularity": 0.9375591408024224,
                  "price": 1
            },
            {
                  "distance": 878,
                  "location": {
                        "address": "5941 Monk Blvd",
                        "country": "CA",
                        "cross_street": "Biencourt",
                        "formatted_address": "5941 Monk Blvd (Biencourt), Montr\u00e9al QC H4E 3H5",
                        "locality": "Montreal",
                        "postcode": "H4E 3H5",
                        "region": "QC"
                  },
                  "name": "Souchi bar \u00e0 sushi",
                  "popularity": 0.7497516086298259,
                  "price": 2
            },
            {
                  "distance": 923,
                  "location": {
                        "address": "5900 Monk Blvd",
                        "country": "CA",
                        "cross_street": "",
                        "formatted_address": "5900 Monk Blvd, Montr\u00e9al QC",
                        "locality": "Montreal",
                        "region": "QC"
                  },
                  "name": "Chef Pascal Inc. H.Q.",
                  "popularity": 0.01847558667676003,
                  "price": 2
            },
            {
                  "distance": 924,
                  "location": {
                        "address": "5906 Monk Blvd",
                        "country": "CA",
                        "cross_street": "",
                        "formatted_address": "5906 Monk Blvd, Montr\u00e9al QC H4E 3H4",
                        "locality": "Montreal",
                        "postcode": "H4E 3H4",
                        "region": "QC"
                  },
                  "name": "Le Lunch Box Comptoir",
                  "popularity": 0.12628926949280847,
                  "price": 2
            },
            {
                  "distance": 965,
                  "location": {
                        "address": "5980 Monk Blvd",
                        "country": "CA",
                        "cross_street": "",
                        "formatted_address": "5980 Monk Blvd, Montr\u00e9al QC H4E 3H6",
                        "locality": "Montreal",
                        "postcode": "H4E 3H6",
                        "region": "QC"
                  },
                  "name": "Cinq\u00e0sept",
                  "popularity": 0.9719081188493566,
                  "price": 1
            },
            {
                  "distance": 352,
                  "location": {
                        "address": "6574 Monk Blvd",
                        "country": "CA",
                        "formatted_address": "6574 Monk Blvd, Montreal QC H4E 3J1",
                        "locality": "Montreal",
                        "postcode": "H4E 3J1",
                        "region": "QC"
                  },
                  "name": "Caff\u00e8 Napoletana"
            },
            {
                  "distance": 368,
                  "location": {
                        "address": "6462 Briand Rue",
                        "country": "CA",
                        "formatted_address": "6462 Briand Rue, Montreal QC H4E 3L1",
                        "locality": "Montreal",
                        "postcode": "H4E 3L1",
                        "region": "QC"
                  },
                  "name": "Kurde Pizza Restaurant"
            },
            {
                  "distance": 371,
                  "location": {
                        "address": "6723 Monk Blvd",
                        "country": "CA",
                        "formatted_address": "6723 Monk Blvd, Montreal QC H4E 3J2",
                        "locality": "Montreal",
                        "postcode": "H4E 3J2",
                        "region": "QC"
                  },
                  "name": "Maison Tsui Yuen"
            },
            {
                  "distance": 372,
                  "location": {
                        "address": "6717 Monk Blvd",
                        "country": "CA",
                        "formatted_address": "6717 Monk Blvd, Montreal QC H4E 3J2",
                        "locality": "Montreal",
                        "postcode": "H4E 3J2",
                        "region": "QC"
                  },
                  "name": "Restaurant Sizzles"
            },
            {
                  "distance": 377,
                  "location": {
                        "address": "6723 Monk Blvd",
                        "country": "CA",
                        "formatted_address": "6723 Monk Blvd, Montreal QC H4E 3J2",
                        "locality": "Montreal",
                        "postcode": "H4E 3J2",
                        "region": "QC"
                  },
                  "name": "Yasolo Fine Epicerie Exotique"
            },
            {
                  "distance": 377,
                  "location": {
                        "address": "6717 Monk Blvd",
                        "country": "CA",
                        "formatted_address": "6717 Monk Blvd, Montreal QC H4E 3J2",
                        "locality": "Montreal",
                        "postcode": "H4E 3J2",
                        "region": "QC"
                  },
                  "name": "Kurde Pizza Restaurant"
            },
            {
                  "distance": 444,
                  "location": {
                        "address": "7001 Blvd de la V\u00e9rendrye",
                        "country": "CA",
                        "formatted_address": "7001 Blvd de la V\u00e9rendrye, Montreal QC H4E 3R9",
                        "locality": "Montreal",
                        "postcode": "H4E 3R9",
                        "region": "QC"
                  },
                  "name": "La Verendrye"
            },
            {
                  "distance": 446,
                  "location": {
                        "address": "6445 Monk Blvd",
                        "country": "CA",
                        "formatted_address": "6445 Monk Blvd, Montreal QC H4E 3H8",
                        "locality": "Montreal",
                        "postcode": "H4E 3H8",
                        "region": "QC"
                  },
                  "name": "Royal R\u00f4tisserie Moderne"
            },
            {
                  "distance": 449,
                  "location": {
                        "address": "6445 Monk Blvd",
                        "country": "CA",
                        "formatted_address": "6445 Monk Blvd, Montreal QC H4E 3H8",
                        "locality": "Montreal",
                        "postcode": "H4E 3H8",
                        "region": "QC"
                  },
                  "name": "Restaurant Utopia"
            },
            {
                  "distance": 481,
                  "location": {
                        "address": "7001 Blvd de la V\u00e9rendrye",
                        "country": "CA",
                        "formatted_address": "7001 Blvd de la V\u00e9rendrye, Montreal QC H4E 3R9",
                        "locality": "Montreal",
                        "postcode": "H4E 3R9",
                        "region": "QC"
                  },
                  "name": "Restaurant Pizzeria"
            },
            {
                  "distance": 492,
                  "location": {
                        "address": "6375 Monk Blvd",
                        "country": "CA",
                        "formatted_address": "6375 Monk Blvd, Montreal QC H4E 3H8",
                        "locality": "Montreal",
                        "postcode": "H4E 3H8",
                        "region": "QC"
                  },
                  "name": "Bar et Lounge Universit\u00e9 de Ville-Emard Inc"
            },
            {
                  "distance": 547,
                  "location": {
                        "address": "2110 Jolicoeur Rue",
                        "country": "CA",
                        "formatted_address": "2110 Jolicoeur Rue, Montreal QC H4E 1X6",
                        "locality": "Montreal",
                        "postcode": "H4E 1X6",
                        "region": "QC"
                  },
                  "name": "Restaurant Carmen"
            },
            {
                  "distance": 553,
                  "location": {
                        "address": "2600 Allard Rue",
                        "country": "CA",
                        "formatted_address": "2600 Allard Rue, Montreal QC H4E 2L6",
                        "locality": "Montreal",
                        "postcode": "H4E 2L6",
                        "region": "QC"
                  },
                  "name": "Au Rendez Vous Snack Bar"
            },
            {
                  "distance": 686,
                  "location": {
                        "address": "2417 Jolicoeur Rue",
                        "country": "CA",
                        "formatted_address": "2417 Jolicoeur Rue, Montreal QC H4E 1Y1",
                        "locality": "Montreal",
                        "postcode": "H4E 1Y1",
                        "region": "QC"
                  },
                  "name": "Bar Mirabelle"
            },
            {
                  "distance": 697,
                  "location": {
                        "address": "2421 Jolicoeur Rue",
                        "country": "CA",
                        "formatted_address": "2421 Jolicoeur Rue, Montreal QC H4E 1Y1",
                        "locality": "Montreal",
                        "postcode": "H4E 1Y1",
                        "region": "QC"
                  },
                  "name": "Paradis Nutrition"
            },
            {
                  "distance": 803,
                  "location": {
                        "address": "6021 Monk Blvd",
                        "country": "CA",
                        "formatted_address": "6021 Monk Blvd, Montreal QC H4E 3H5",
                        "locality": "Montreal",
                        "postcode": "H4E 3H5",
                        "region": "QC"
                  },
                  "name": "Restaurant Monk"
            },
            {
                  "distance": 815,
                  "location": {
                        "address": "6300 Beurling Rue",
                        "country": "CA",
                        "formatted_address": "6300 Beurling Rue, Verdun QC H4H 1C8",
                        "locality": "Verdun",
                        "postcode": "H4H 1C8",
                        "region": "QC"
                  },
                  "name": "Les Grands Burlesques"
            }
      ],
      "context": {
            "geo_bounds": {
                  "circle": {
                        "center": {
                              "latitude": 45.45290793,
                              "longitude": -73.58918591
                        },
                        "radius": 1000
                  }
            }
      }
}