{
      "results": [
            {
                  "distance": 612,
                  "location": {
                        "address": "215 Blvd de la C\u00f4te-Vertu",
                        "country": "CA",
                        "cross_street": "",
                        "formatted_address": "215 Blvd de la C\u00f4te-Vertu, Montr\u00e9al QC H4N 1C8",
                        "locality": "Montreal",
                        "postcode": "H4N 1C8",
                        "region": "QC"
                  },
                  "name": "Cafe Jounieh",
                  "popularity": 0.9907740348221045,
                  "price": 1,
                  "rating": 7.5
            },
            {
                  "distance": 975,
                  "location": {
                        "address": "740 Blvd de la cote-Vertu",
                        "address_extended": "Suite 159D",
                        "country": "CA",
                        "formatted_address": "740 Blvd de la cote-Vertu, Saint-Laurent QC H4L 5C8",
                        "locality": "Saint-Laurent",
                        "postcode": "H4L 5C8",
                        "region": "QC"
                  },
                  "name": "Subway",
                  "popularity": 0.9444667865253595,
                  "price": 1,
                  "rating": 6.4
            },
            {
                  "distance": 975,
                  "location": {
                        "address": "740 C\u00f4te-Vertu",
                        "country": "CA",
                        "cross_street": "",
                        "formatted_address": "740 C\u00f4te-Vertu, Saint-Laurent QC H4L 5C8",
                        "locality": "Saint-Laurent",
                        "postcode": "H4L 5C8",
                        "region": "QC"
                  },
                  "name": "Pho Thanh Nam Quan",
                  "popularity": 0.9864449280847842,
                  "price": 2,
                  "rating": 5.9
            },
            {
                  "distance": 751,
                  "location": {
                        "address": "595 Blvd de la cote-Vertu",
                        "country": "CA",
                        "formatted_address": "595 Blvd de la cote-Vertu, Saint-Laurent QC H4L 1X8",
                        "locality": "Saint-Laurent",
                        "postcode": "H4L 1X8",
                        "region": "QC"
                  },
                  "name": "Caf\u00e9 Restaurant Jounieh",
                  "popularity": 0.30064818319454956
            },
            {
                  "distance": 861,
                  "location": {
                        "address": "1470 Blvd de la C\u00f4te-Vertu",
                        "country": "CA",
                        "cross_street": "Montpellier",
                        "formatted_address": "1470 Blvd de la C\u00f4te-Vertu (Montpellier), Saint-Laurent QC H4L 1Z7",
                        "locality": "Saint-Laurent",
                        "postcode": "H4L 1Z7",
                        "region": "QC"
                  },
                  "name": "Caf\u00e9 Beyrouth",
                  "popularity": 0.9762727100681302,
                  "price": 1
            },
            {
                  "distance": 940,
                  "location": {
                        "address": "740 Blvd de la C\u00f4te-Vertu O",
                        "country": "CA",
                        "cross_street": "",
                        "formatted_address": "740 Blvd de la C\u00f4te-Vertu O, Montr\u00e9al QC H4L 5C8",
                        "locality": "Montreal",
                        "postcode": "H4L 5C8",
                        "region": "QC"
                  },
                  "name": "Patisserie Al Shahroura",
                  "popularity": 0.3167226532929599
            },
            {
                  "distance": 1004,
                  "location": {
                        "address": "1530 Henri-Bourassa Blvd O",
                        "country": "CA",
                        "cross_street": "",
                        "formatted_address": "1530 Henri-Bourassa Blvd O, Montr\u00e9al QC H3M 3E3",
                        "locality": "Montreal",
                        "postcode": "H3M 3E3",
                        "region": "QC"
                  },
                  "name": "Restaurant le Coq La-La",
                  "popularity": 0.8126655942467828,
                  "price": 2
            },
            {
                  "distance": 1690,
                  "location": {
                        "address": "597 Blvd de la C\u00f4te-Vertu",
                        "country": "CA",
                        "cross_street": "",
                        "formatted_address": "597 Blvd de la C\u00f4te-Vertu, Montr\u00e9al QC H4L 1X8",
                        "locality": "Montreal",
                        "postcode": "H4L 1X8",
                        "region": "QC"
                  },
                  "name": "Chez Wafi",
                  "popularity": 0.6317183951551855,
                  "price": 1
            },
            {
                  "distance": 622,
                  "location": {
                        "address": "217 Blvd de la C\u00f4te-Vertu",
                        "country": "CA",
                        "formatted_address": "217 Blvd de la C\u00f4te-Vertu, Saint-Laurent QC H4N 1C8",
                        "locality": "Saint-Laurent",
                        "postcode": "H4N 1C8",
                        "region": "QC"
                  },
                  "name": "Sahtein Cuisine Authentique"
            },
            {
                  "distance": 679,
                  "location": {
                        "address": "1580 Barre Rue",
                        "country": "CA",
                        "formatted_address": "1580 Barre Rue, Saint-Laurent QC H4L 4M6",
                        "locality": "Saint-Laurent",
                        "postcode": "H4L 4M6",
                        "region": "QC"
                  },
                  "name": "Ville St Laurent Pizzeria"
            },
            {
                  "distance": 756,
                  "location": {
                        "address": "1952 Olivier-Berthelet Rue",
                        "country": "CA",
                        "formatted_address": "1952 Olivier-Berthelet Rue, Montreal QC H4N 3G8",
                        "locality": "Montreal",
                        "postcode": "H4N 3G8",
                        "region": "QC"
                  },
                  "name": "Cafe Noir"
            },
            {
                  "distance": 854,
                  "location": {
                        "address": "685 BdC\u00f4teVertu",
                        "country": "CA",
                        "formatted_address": "685 BdC\u00f4teVertu, Saint-Laurent QC H4L 1Y2",
                        "locality": "Saint-Laurent",
                        "postcode": "H4L 1Y2",
                        "region": "QC"
                  },
                  "name": "Restaurants Shawarmang\u00e9"
            },
            {
                  "distance": 878,
                  "location": {
                        "address": "733 Blvd de la C\u00f4te-Vertu",
                        "country": "CA",
                        "formatted_address": "733 Blvd de la C\u00f4te-Vertu, Saint-Laurent QC",
                        "locality": "Saint-Laurent",
                        "region": "QC"
                  },
                  "name": "Abu Elias"
            },
            {
                  "distance": 904,
                  "location": {
                        "address": "751 Blvd de la C\u00f4te-Vertu",
                        "country": "CA",
                        "formatted_address": "751 Blvd de la C\u00f4te-Vertu, Saint-Laurent QC H4L 1Y6",
                        "locality": "Saint-Laurent",
                        "postcode": "H4L 1Y6",
                        "region": "QC"
                  },
                  "name": "Sailor's"
            },
            {
                  "distance": 913,
                  "location": {
                        "address": "751 Blvd de la Cote-Vertu Saint-Laurent",
                        "country": "CA",
                        "formatted_address": "751 Blvd de la Cote-Vertu Saint-Laurent, Saint-Laurent QC H4L 1Y6",
                        "locality": "Saint-Laurent",
                        "postcode": "H4L 1Y6",
                        "region": "QC"
                  },
                  "name": "Poissonnerie et Fruits de Mer Sailor's"
            },
            {
                  "distance": 917,
                  "location": {
                        "address": "740 Blvd de la Cote Vertu",
                        "country": "CA",
                        "formatted_address": "740 Blvd de la Cote Vertu, Saint-Laurent QC H4L 5C8",
                        "locality": "Saint-Laurent",
                        "postcode": "H4L 5C8",
                        "region": "QC"
                  },
                  "name": "Bon Appetit"
            },
            {
                  "distance": 927,
                  "location": {
                        "address": "1570 Louis-Carrier Rue",
                        "country": "CA",
                        "formatted_address": "1570 Louis-Carrier Rue, Montreal QC H4N 2Z1",
                        "locality": "Montreal",
                        "postcode": "H4N 2Z1",
                        "region": "QC"
                  },
                  "name": "Caramel"
            },
            {
                  "distance": 931,
                  "location": {
                        "address": "740 Blvd de la cote-Vertu",
                        "country": "CA",
                        "formatted_address": "740 Blvd de la cote-Vertu, Saint-Laurent QC H4L 5C8",
                        "locality": "Saint-Laurent",
                        "postcode": "H4L 5C8",
                        "region": "QC"
                  },
                  "name": "Thanh Tien Nguyen"
            },
            {
                  "distance": 936,
                  "location": {
                        "address": "740 Blvd de la Cote-Vertu",
                        "country": "CA",
                        "formatted_address": "740 Blvd de la Cote-Vertu, Saint-Laurent QC",
                        "locality": "Saint-Laurent",
                        "region": "QC"
                  },
                  "name": "Cafe Bistro Arly Tera"
            },
            {
                  "distance": 950,
                  "location": {
                        "address": "740 Cote Vertu Blvd O",
                        "country": "CA",
                        "formatted_address": "740 Cote Vertu Blvd O, Saint-Laurent QC H4L 5C8",
                        "locality": "Saint-Laurent",
                        "postcode": "H4L 5C8",
                        "region": "QC"
                  },
                  "name": "Poulet Syriana"
            },
            {
                  "distance": 966,
                  "location": {
                        "address": "825 Blvd de la Cote-Vertu",
                        "country": "CA",
                        "formatted_address": "825 Blvd de la Cote-Vertu, Saint-Laurent QC H4L 1Y6",
                        "locality": "Saint-Laurent",
                        "postcode": "H4L 1Y6",
                        "region": "QC"
                  },
                  "name": "Restaurant Siwar"
            },
            {
                  "distance": 978,
                  "location": {
                        "address": "740 Cote Vertu Blvd O",
                        "country": "CA",
                        "formatted_address": "740 Cote Vertu Blvd O, Saint-Laurent QC",
                        "locality": "Saint-Laurent",
                        "region": "QC"
                  },
                  "name": "Ph\u1edf Th\u00e0nh Nam Quang"
            },
            {
                  "distance": 982,
                  "location": {
                        "address": "2100 Alice-Nolin Rue",
                        "country": "CA",
                        "formatted_address": "2100 Alice-Nolin Rue, Montreal QC H4N 3C3",
                        "locality": "Montreal",
                        "postcode": "H4N 3C3",
                        "region": "QC"
                  },
                  "name": "Note Sweet Note"
            }
      ],
      "context": {
            "geo_bounds": {
                  "circle": {
                        "center": {
                              "latitude": 45.52863055,
                              "longitude": -73.67731243
                        },
                        "radius": 1000
                  }
            }
      }
}