{
      "results": [
            {
                  "distance": 219,
                  "location": {
                        "address": "510 Prom du Centropolis",
                        "country": "CA",
                        "cross_street": "at Daniel-Johnson",
                        "formatted_address": "510 Prom du Centropolis (at Daniel-Johnson), Laval QC H7T 3C2",
                        "locality": "Laval",
                        "postcode": "H7T 3C2",
                        "region": "QC"
                  },
                  "name": "La Belle et la Boeuf",
                  "popularity": 0.9310898866375078,
                  "price": 2,
                  "rating": 8.0
            },
            {
                  "distance": 254,
                  "location": {
                        "address": "525 Prom du Centropolis",
                        "country": "CA",
                        "cross_street": "",
                        "formatted_address": "525 Prom du Centropolis, Laval QC H7T 0A3",
                        "locality": "Laval",
                        "postcode": "H7T 0A3",
                        "region": "QC"
                  },
                  "name": "Juliette & Chocolat",
                  "popularity": 0.8844059626885655,
                  "price": 1,
                  "rating": 7.9
            },
            {
                  "distance": 57,
                  "location": {
                        "address": "2900 Pierre-Peladeau Ave",
                        "country": "CA",
                        "cross_street": "au Centropolis",
                        "formatted_address": "2900 Pierre-Peladeau Ave (au Centropolis), Laval QC H7T 3B3",
                        "locality": "Laval",
                        "postcode": "H7T 3B3",
                        "region": "QC"
                  },
                  "name": "Les 3 Brasseurs",
                  "popularity": 0.9557261447826475,
                  "price": 2,
                  "rating": 7.9
            },
            {
                  "distance": 164,
                  "location": {
                        "address": "195 Promemade du Centropolis",
                        "country": "CA",
                        "cross_street": "at Daniel-Johnson",
                        "formatted_address": "195 Promemade du Centropolis (at Daniel-Johnson), Laval QC H7T 0B3",
                        "locality": "Laval",
                        "postcode": "H7T 0B3",
                        "region": "QC"
                  },
                  "name": "Le Balthazar",
                  "popularity": 0.9842006605373561,
                  "price": 1,
                  "rating": 7.6
            },
            {
                  "distance": 828,
                  "location": {
                        "address": "2021 Saint-Martin Blvd O",
                        "country": "CA",
                        "cross_street": "",
                        "formatted_address": "2021 Saint-Martin Blvd O, Laval QC H7S 1N3",
                        "locality": "Laval",
                        "postcode": "H7S 1N3",
                        "region": "QC"
                  },
                  "name": "A&W Restaurant",
                  "popularity": 0.9274301526376864,
                  "price": 1,
                  "rating": 7.5,
                  "store_id": "5285"
            },
            {
                  "distance": 186,
                  "location": {
                        "address": "200 Prom du Centropolis",
                        "country": "CA",
                        "cross_street": "",
                        "formatted_address": "200 Prom du Centropolis, Laval QC H7T 2Z6",
                        "locality": "Laval",
                        "postcode": "H7T 2Z6",
                        "region": "QC"
                  },
                  "name": "Les Enfants Terribles",
                  "popularity": 0.9160046416138534,
                  "rating": 7.4
            },
            {
                  "distance": 238,
                  "location": {
                        "address": "505 Prom du Centropolis",
                        "country": "CA",
                        "cross_street": "Avenue Pierre P\u00e9ladeau",
                        "formatted_address": "505 Prom du Centropolis (Avenue Pierre P\u00e9ladeau), Laval QC H7T 0A3",
                        "locality": "Laval",
                        "postcode": "H7T 0A3",
                        "region": "QC"
                  },
                  "name": "Enoteca Monza Pizzeria Moderna",
                  "popularity": 0.9159153798089797,
                  "price": 2,
                  "rating": 7.1
            },
            {
                  "distance": 65,
                  "location": {
                        "address": "1820 Pierre-Peladeau Ave",
                        "country": "CA",
                        "cross_street": "",
                        "formatted_address": "1820 Pierre-Peladeau Ave, Laval QC H7T 2Z1",
                        "locality": "Laval",
                        "postcode": "H7T 2Z1",
                        "region": "QC"
                  },
                  "name": "Jack Astor's Bar & Grill",
                  "popularity": 0.9591180933678479,
                  "price": 2,
                  "rating": 6.9
            },
            {
                  "distance": 784,
                  "location": {
                        "address": "3325 Saint-Martin Blvd O",
                        "country": "CA",
                        "cross_street": "",
                        "formatted_address": "3325 Saint-Martin Blvd O, Laval QC H7T 1S2",
                        "locality": "Laval",
                        "postcode": "H7T 1S2",
                        "region": "QC"
                  },
                  "name": "R\u00f4tisserie St-Hubert",
                  "popularity": 0.9357315004909399,
                  "price": 2,
                  "rating": 6.8,
                  "store_id": "100092"
            },
            {
                  "distance": 83,
                  "location": {
                        "address": "125 Prom du Centropolis",
                        "country": "CA",
                        "cross_street": "",
                        "formatted_address": "125 Prom du Centropolis, Laval QC H7T 0B3",
                        "locality": "Laval",
                        "postcode": "H7T 0B3",
                        "region": "QC"
                  },
                  "name": "Menchie's",
                  "popularity": 0.8610193698116576,
                  "price": 1,
                  "rating": 6.7
            },
            {
                  "distance": 968,
                  "location": {
                        "address": "3453 Saint-Martin Blvd O",
                        "country": "CA",
                        "formatted_address": "3453 Saint-Martin Blvd O, Laval QC H7T 1A2",
                        "locality": "Laval",
                        "postcode": "H7T 1A2",
                        "region": "QC"
                  },
                  "name": "Cafe Univers",
                  "popularity": 0.9045791305900205,
                  "price": 3,
                  "rating": 6.5
            },
            {
                  "distance": 797,
                  "location": {
                        "address": "2075 Chomedey Blvd",
                        "country": "CA",
                        "cross_street": "",
                        "formatted_address": "2075 Chomedey Blvd, Laval QC H7T 0G5",
                        "locality": "Laval",
                        "postcode": "H7T 0G5",
                        "region": "QC"
                  },
                  "name": "Tim Hortons",
                  "popularity": 0.8470945282513612,
                  "price": 2,
                  "rating": 6.4
            },
            {
                  "distance": 906,
                  "location": {
                        "address": "3370 Saint-Martin Blvd O",
                        "country": "CA",
                        "cross_street": "",
                        "formatted_address": "3370 Saint-Martin Blvd O, Laval QC H7T 1A1",
                        "locality": "Laval",
                        "postcode": "H7T 1A1",
                        "region": "QC"
                  },
                  "name": "R\u00f4tisserie Scores",
                  "popularity": 0.9376059983932875,
                  "price": 2,
                  "rating": 6.0,
                  "store_id": "SC_09"
            },
            {
                  "distance": 864,
                  "location": {
                        "address": "2005 Saint-Martin Blvd O",
                        "country": "CA",
                        "cross_street": "coin Le Corbusier",
                        "formatted_address": "2005 Saint-Martin Blvd O (coin Le Corbusier), Laval QC H7S 1N3",
                        "locality": "Laval",
                        "postcode": "H7S 1N3",
                        "region": "QC"
                  },
                  "name": "McDonald's",
                  "popularity": 0.9977684548781577,
                  "price": 1,
                  "rating": 5.5
            },
            {
                  "distance": 199,
                  "location": {
                        "address": "1730 Pierre-Peladeau Ave",
                        "country": "CA",
                        "cross_street": "au Centropolis",
                        "formatted_address": "1730 Pierre-Peladeau Ave (au Centropolis), Laval QC H7T 2Z1",
                        "locality": "Laval",
                        "postcode": "H7T 2Z1",
                        "region": "QC"
                  },
                  "name": "L'Academie Restaurant",
                  "popularity": 0.917879139516201,
                  "price": 3,
                  "rating": 5.4
            },
            {
                  "distance": 105,
                  "location": {
                        "address": "1794 Pierre-Peladeau Ave",
                        "country": "CA",
                        "cross_street": "Centropolis",
                        "formatted_address": "1794 Pierre-Peladeau Ave (Centropolis), Laval QC H7T 2Z1",
                        "locality": "Laval",
                        "postcode": "H7T 2Z1",
                        "region": "QC"
                  },
                  "name": "Presse Caf\u00e9",
                  "popularity": 0.9289476033205392,
                  "price": 1,
                  "rating": 5.3
            },
            {
                  "distance": 96,
                  "location": {
                        "address": "142 Prom du Centropolis",
                        "country": "CA",
                        "cross_street": "",
                        "formatted_address": "142 Prom du Centropolis, Laval QC H7T 2Z6",
                        "locality": "Laval",
                        "postcode": "H7T 2Z6",
                        "region": "QC"
                  },
                  "name": "Mandy's",
                  "popularity": 0.9370704275640453,
                  "price": 1
            },
            {
                  "distance": 111,
                  "location": {
                        "address": "140 Prom du Centropolis",
                        "country": "CA",
                        "cross_street": "",
                        "formatted_address": "140 Prom du Centropolis, Laval QC H7T 2Z6",
                        "locality": "Laval",
                        "postcode": "H7T 2Z6",
                        "region": "QC"
                  },
                  "name": "Lov",
                  "popularity": 0.8920824779077033,
                  "price": 2
            },
            {
                  "distance": 138,
                  "location": {
                        "address": "150B du Centropolis Prom",
                        "country": "CA",
                        "cross_street": "",
                        "formatted_address": "150B du Centropolis Prom, Laval QC H7T 2Z6",
                        "locality": "Laval",
                        "postcode": "H7T 2Z6",
                        "region": "QC"
                  },
                  "name": "Caf\u00e9 Ricardo",
                  "popularity": 0.8523609747389093,
                  "price": 2
            },
            {
                  "distance": 143,
                  "location": {
                        "address": "2888 Ave du Cosmod\u00f4me",
                        "country": "CA",
                        "cross_street": "",
                        "formatted_address": "2888 Ave du Cosmod\u00f4me, Laval QC H7T 2X1",
                        "locality": "Laval",
                        "postcode": "H7T 2X1",
                        "region": "QC"
                  },
                  "name": "Pizza Gourmande",
                  "popularity": 0.5411050611443363,
                  "price": 2
            },
            {
                  "distance": 213,
                  "location": {
                        "address": "505 Prom du Centropolis",
                        "country": "CA",
                        "cross_street": "",
                        "formatted_address": "505 Prom du Centropolis, Laval QC H7T 0A3",
                        "locality": "Laval",
                        "postcode": "H7T 0A3",
                        "region": "QC"
                  },
                  "name": "Monza",
                  "popularity": 0.25680621262161923,
                  "price": 2
            },
            {
                  "distance": 228,
                  "location": {
                        "address": "490 Prom du Centropolis",
                        "country": "CA",
                        "cross_street": "",
                        "formatted_address": "490 Prom du Centropolis, Laval QC H7T 3C2",
                        "locality": "Laval",
                        "postcode": "H7T 3C2",
                        "region": "QC"
                  },
                  "name": "Randolph Pub Ludique Centropolis",
                  "popularity": 0.937159689368919,
                  "price": 1
            },
            {
                  "distance": 249,
                  "location": {
                        "address": "2981 Saint-Martin Blvd O",
                        "country": "CA",
                        "cross_street": "",
                        "formatted_address": "2981 Saint-Martin Blvd O, Laval QC H7T 2Y8",
                        "locality": "Laval",
                        "postcode": "H7T 2Y8",
                        "region": "QC"
                  },
                  "name": "Restaurant Bistro l'Aromate",
                  "popularity": 0.5065607426582166,
                  "price": 2
            },
            {
                  "distance": 803,
                  "location": {
                        "address": "2900 le Carref Blvd",
                        "country": "CA",
                        "cross_street": "",
                        "formatted_address": "2900 le Carref Blvd, Laval QC H7T 2K9",
                        "locality": "Laval",
                        "postcode": "H7T 2K9",
                        "region": "QC"
                  },
                  "name": "Chez Lionel",
                  "popularity": 0.9343925734178345,
                  "price": 2
            },
            {
                  "distance": 819,
                  "location": {
                        "address": "3352 Saint-Martin Blvd O",
                        "country": "CA",
                        "cross_street": "",
                        "formatted_address": "3352 Saint-Martin Blvd O, Laval QC H7T 1A1",
                        "locality": "Laval",
                        "postcode": "H7T 1A1",
                        "region": "QC"
                  },
                  "name": "Cafe Milano",
                  "popularity": 0.9870570382933143,
                  "price": 1
            },
            {
                  "distance": 843,
                  "location": {
                        "address": "2225 des Laurentides (a-15 Desste E",
                        "country": "CA",
                        "cross_street": "",
                        "formatted_address": "2225 des Laurentides (a-15 Desste E, Laval QC H7S 1Z6",
                        "locality": "Laval",
                        "postcode": "H7S 1Z6",
                        "region": "QC"
                  },
                  "name": "Le Quartz",
                  "popularity": 0.8372757297152549,
                  "price": 3
            },
            {
                  "distance": 946,
                  "location": {
                        "address": "2100 le Corbusier Blvd",
                        "address_extended": "# 7",
                        "country": "CA",
                        "formatted_address": "2100 le Corbusier Blvd, Laval QC H7S 2C9",
                        "locality": "Laval",
                        "postcode": "H7S 2C9",
                        "region": "QC"
                  },
                  "name": "Restaurant Charme Cochinchine",
                  "popularity": 0.8489690261537088,
                  "price": 2
            },
            {
                  "distance": 1565,
                  "location": {
                        "address": "1600 le Corbusier Blvd",
                        "country": "CA",
                        "cross_street": "",
                        "formatted_address": "1600 le Corbusier Blvd, Laval QC H7S 1Y9",
                        "locality": "Laval",
                        "postcode": "H7S 1Y9",
                        "region": "QC"
                  },
                  "name": "Va\u00ef Burger",
                  "popularity": 0.2435954655003124
            },
            {
                  "distance": 113,
                  "location": {
                        "address": "2270 Pierre Peladeau Ave",
                        "country": "CA",
                        "formatted_address": "2270 Pierre Peladeau Ave, Laval QC H7T 2Z1",
                        "locality": "Laval",
                        "postcode": "H7T 2Z1",
                        "region": "QC"
                  },
                  "name": "Sterlings Restaurant"
            },
            {
                  "distance": 168,
                  "location": {
                        "address": "205 Prom du Centropolis",
                        "country": "CA",
                        "formatted_address": "205 Prom du Centropolis, Laval QC H7T 0B3",
                        "locality": "Laval",
                        "postcode": "H7T 0B3",
                        "region": "QC"
                  },
                  "name": "Divaliva"
            },
            {
                  "distance": 241,
                  "location": {
                        "address": "2981 Saint-Martin Blvd O",
                        "country": "CA",
                        "formatted_address": "2981 Saint-Martin Blvd O, Laval QC H7T 2Y8",
                        "locality": "Laval",
                        "postcode": "H7T 2Y8",
                        "region": "QC"
                  },
                  "name": "Restaurant Bistro l'Aromate"
            },
            {
                  "distance": 253,
                  "location": {
                        "address": "2981 Saint-Martin Blvd O",
                        "country": "CA",
                        "formatted_address": "2981 Saint-Martin Blvd O, Laval QC H7T 2Y8",
                        "locality": "Laval",
                        "postcode": "H7T 2Y8",
                        "region": "QC"
                  },
                  "name": "L'Aromate Resto-Bar"
            },
            {
                  "distance": 378,
                  "location": {
                        "address": "2800 Saint-Martin Blvd O",
                        "country": "CA",
                        "formatted_address": "2800 Saint-Martin Blvd O, Laval QC H7T 2S9",
                        "locality": "Laval",
                        "postcode": "H7T 2S9",
                        "region": "QC"
                  },
                  "name": "Casse-Cro\u00fbte du Palais"
            },
            {
                  "distance": 655,
                  "location": {
                        "address": "1550 Daniel-Johnson Blvd",
                        "country": "CA",
                        "formatted_address": "1550 Daniel-Johnson Blvd, Laval QC H7V 3V7",
                        "locality": "Laval",
                        "postcode": "H7V 3V7",
                        "region": "QC"
                  },
                  "name": "ChoNeslya Bar Restaurant"
            },
            {
                  "distance": 723,
                  "location": {
                        "address": "3240 Saint-Martin Blvd O",
                        "country": "CA",
                        "formatted_address": "3240 Saint-Martin Blvd O, Laval QC H7T 1A1",
                        "locality": "Laval",
                        "postcode": "H7T 1A1",
                        "region": "QC"
                  },
                  "name": "Grand Burger Blvd"
            }
      ],
      "context": {
            "geo_bounds": {
                  "circle": {
                        "center": {
                              "latitude": 45.56251175,
                              "longitude": -73.74370649
                        },
                        "radius": 1000
                  }
            }
      }
}