{
      "results": [
            {
                  "distance": 751,
                  "location": {
                        "address": "2350 Beaubien Rue E",
                        "country": "CA",
                        "cross_street": "Des \u00c9cores",
                        "formatted_address": "2350 Beaubien Rue E (Des \u00c9cores), Montr\u00e9al QC H2G 1N2",
                        "locality": "Montreal",
                        "postcode": "H2G 1N2",
                        "region": "QC"
                  },
                  "name": "L'Affaire est Chocolat",
                  "popularity": 0.8962078917486752,
                  "price": 1,
                  "rating": 8.4
            },
            {
                  "distance": 560,
                  "location": {
                        "address": "2510 Beaubien Rue E",
                        "country": "CA",
                        "cross_street": "d'Iberville",
                        "formatted_address": "2510 Beaubien Rue E (d'Iberville), Montr\u00e9al QC H1Y 1G2",
                        "locality": "Montreal",
                        "postcode": "H1Y 1G2",
                        "region": "QC"
                  },
                  "name": "Pizzeria Geppetto",
                  "popularity": 0.8779570401211204,
                  "price": 2,
                  "rating": 8.4
            },
            {
                  "distance": 858,
                  "location": {
                        "address": "2440 Rosemont Blvd",
                        "country": "CA",
                        "cross_street": "",
                        "formatted_address": "2440 Rosemont Blvd, Montr\u00e9al QC H2G 1V2",
                        "locality": "Montreal",
                        "postcode": "H2G 1V2",
                        "region": "QC"
                  },
                  "name": "Pub Rosemont",
                  "popularity": 0.9464539174867524,
                  "price": 3,
                  "rating": 8.2
            },
            {
                  "distance": 745,
                  "location": {
                        "address": "2352 Beaubien Rue E",
                        "country": "CA",
                        "cross_street": "Des \u00c9cores",
                        "formatted_address": "2352 Beaubien Rue E (Des \u00c9cores), Montr\u00e9al QC H2G 1N2",
                        "locality": "Montreal",
                        "postcode": "H2G 1N2",
                        "region": "QC"
                  },
                  "name": "Sushi Royal 5 Inc",
                  "popularity": 0.8272497161241483,
                  "price": 2,
                  "rating": 8.2
            },
            {
                  "distance": 740,
                  "location": {
                        "address": "2355 Beaubien Rue E",
                        "country": "CA",
                        "formatted_address": "2355 Beaubien Rue E, Montr\u00e9al QC H2G 1N3",
                        "locality": "Montreal",
                        "postcode": "H2G 1N3",
                        "region": "QC"
                  },
                  "name": "Froment et de S\u00e8ve",
                  "popularity": 0.9245008516275549,
                  "price": 1,
                  "rating": 7.8
            },
            {
                  "distance": 735,
                  "location": {
                        "address": "6505 des Ecores Rue",
                        "country": "CA",
                        "cross_street": "Beaubien Est",
                        "formatted_address": "6505 des Ecores Rue (Beaubien Est), Montr\u00e9al QC H2G 2J8",
                        "locality": "Montreal",
                        "postcode": "H2G 2J8",
                        "region": "QC"
                  },
                  "name": "Randolph Pub Ludique",
                  "popularity": 0.9249148372445117,
                  "price": 1,
                  "rating": 7.8
            },
            {
                  "distance": 881,
                  "location": {
                        "address": "2224 Beaubien Rue E",
                        "country": "CA",
                        "formatted_address": "2224 Beaubien Rue E, Montr\u00e9al QC H2G 1M7",
                        "locality": "Montreal",
                        "postcode": "H2G 1M7",
                        "region": "QC"
                  },
                  "name": "Marconi Pizzeria",
                  "popularity": 0.8903529523088569,
                  "price": 1,
                  "rating": 7.7
            },
            {
                  "distance": 822,
                  "location": {
                        "address": "2316 Beaubien Rue E",
                        "country": "CA",
                        "cross_street": "Louis-H\u00e9mon",
                        "formatted_address": "2316 Beaubien Rue E (Louis-H\u00e9mon), Montr\u00e9al QC H2G 1M9",
                        "locality": "Montreal",
                        "postcode": "H2G 1M9",
                        "region": "QC"
                  },
                  "name": "Bistro Chez Roger",
                  "popularity": 0.9417817940953823,
                  "price": 2,
                  "rating": 7.7
            },
            {
                  "distance": 575,
                  "location": {
                        "address": "2500 Beaubien Rue E",
                        "country": "CA",
                        "cross_street": "coin d'Iberville",
                        "formatted_address": "2500 Beaubien Rue E (coin d'Iberville), Montr\u00e9al QC H1Y 1G2",
                        "locality": "Montreal",
                        "postcode": "H1Y 1G2",
                        "region": "QC"
                  },
                  "name": "Resto la Grand-M\u00e8re Poule",
                  "popularity": 0.9470926381529144,
                  "price": 1,
                  "rating": 7.6
            },
            {
                  "distance": 608,
                  "location": {
                        "address": "2480 Beaubien Rue E",
                        "country": "CA",
                        "cross_street": "btwn Louis-H\u00e9bert & Iberville",
                        "formatted_address": "2480 Beaubien Rue E (btwn Louis-H\u00e9bert & Iberville), Montr\u00e9al QC H2G 1N4",
                        "locality": "Montreal",
                        "postcode": "H2G 1N4",
                        "region": "QC"
                  },
                  "name": "Bistro D\u00e9tour",
                  "popularity": 0.8823926003028009,
                  "price": 3,
                  "rating": 7.3
            },
            {
                  "distance": 930,
                  "location": {
                        "address": "2200 Beaubien Rue E",
                        "country": "CA",
                        "cross_street": "At Des Erables",
                        "formatted_address": "2200 Beaubien Rue E (At Des Erables), Montr\u00e9al QC H2G 1M7",
                        "locality": "Montreal",
                        "postcode": "H2G 1M7",
                        "region": "QC"
                  },
                  "name": "Nouveau Canada",
                  "popularity": 0.9369677327781983,
                  "price": 1,
                  "rating": 7.1
            },
            {
                  "distance": 465,
                  "location": {
                        "address": "3397 Saint-Zotique Rue E",
                        "country": "CA",
                        "cross_street": "",
                        "formatted_address": "3397 Saint-Zotique Rue E, Montr\u00e9al QC H1X 1C7",
                        "locality": "Montreal",
                        "postcode": "H1X 1C7",
                        "region": "QC"
                  },
                  "name": "Au Coq",
                  "popularity": 0.962043433005299,
                  "price": 1,
                  "rating": 6.7
            },
            {
                  "distance": 711,
                  "location": {
                        "address": "3410 Belanger Rue",
                        "country": "CA",
                        "cross_street": "13th Avenue",
                        "formatted_address": "3410 Belanger Rue (13th Avenue), Montr\u00e9al QC H1X 1A6",
                        "locality": "Montreal",
                        "postcode": "H1X 1A6",
                        "region": "QC"
                  },
                  "name": "Merson's Patisserie",
                  "popularity": 0.8872776305828918,
                  "price": 2,
                  "rating": 5.9
            },
            {
                  "distance": 576,
                  "location": {
                        "address": "3255 Rosemont Blvd",
                        "country": "CA",
                        "formatted_address": "3255 Rosemont Blvd, Montr\u00e9al QC H1X 1K1",
                        "locality": "Montreal",
                        "postcode": "H1X 1K1",
                        "region": "QC"
                  },
                  "name": "Restaurant le Petit Quebec",
                  "popularity": 0.9626703255109765,
                  "price": 1,
                  "rating": 5.2
            },
            {
                  "distance": 17,
                  "location": {
                        "address": "3124 Beaubien Rue E",
                        "country": "CA",
                        "cross_street": "",
                        "formatted_address": "3124 Beaubien Rue E, Montr\u00e9al QC H1Y 1H3",
                        "locality": "Montreal",
                        "postcode": "H1Y 1H3",
                        "region": "QC"
                  },
                  "name": "Bairrada",
                  "popularity": 0.6641157267221802,
                  "price": 1
            },
            {
                  "distance": 157,
                  "location": {
                        "address": "3222 Beaubien Rue E",
                        "country": "CA",
                        "cross_street": "St-Michel",
                        "formatted_address": "3222 Beaubien Rue E (St-Michel), Montr\u00e9al QC H1Y 1H7",
                        "locality": "Montreal",
                        "postcode": "H1Y 1H7",
                        "region": "QC"
                  },
                  "name": "Pho Hung Restaurant",
                  "popularity": 0.03770817562452687,
                  "price": 2
            },
            {
                  "distance": 232,
                  "location": {
                        "address": "3251 Beaubien Rue E",
                        "country": "CA",
                        "cross_street": "",
                        "formatted_address": "3251 Beaubien Rue E, Montr\u00e9al QC H1X 1G4",
                        "locality": "Montreal",
                        "postcode": "H1X 1G4",
                        "region": "QC"
                  },
                  "name": "A&W Restaurant",
                  "popularity": 0.9718253217259651,
                  "price": 1,
                  "store_id": "5590"
            },
            {
                  "distance": 291,
                  "location": {
                        "address": "3240 Beaubien Rue E",
                        "country": "CA",
                        "cross_street": "",
                        "formatted_address": "3240 Beaubien Rue E, Montr\u00e9al QC H1Y 1H7",
                        "locality": "Montreal",
                        "postcode": "H1Y 1H7",
                        "region": "QC"
                  },
                  "name": "Caf\u00e9 Hologramme",
                  "popularity": 0.2952663701741105,
                  "price": 1
            },
            {
                  "distance": 306,
                  "location": {
                        "address": "3350 Beaubien Rue E",
                        "country": "CA",
                        "cross_street": "",
                        "formatted_address": "3350 Beaubien Rue E, Montr\u00e9al QC H1X 1G6",
                        "locality": "Montreal",
                        "postcode": "H1X 1G6",
                        "region": "QC"
                  },
                  "name": "Zytynsky's",
                  "popularity": 0.9171555639666918,
                  "price": 2
            },
            {
                  "distance": 511,
                  "location": {
                        "address": "2522 Beaubien Rue E",
                        "country": "CA",
                        "cross_street": "Rue d'Iberville",
                        "formatted_address": "2522 Beaubien Rue E (Rue d'Iberville), Montr\u00e9al QC H1Y 1G2",
                        "locality": "Montreal",
                        "postcode": "H1Y 1G2",
                        "region": "QC"
                  },
                  "name": "La Brass\u00e9e",
                  "popularity": 0.9355483535200606,
                  "price": 1
            },
            {
                  "distance": 566,
                  "location": {
                        "address": "3224 Rosemont Blvd",
                        "country": "CA",
                        "cross_street": "",
                        "formatted_address": "3224 Rosemont Blvd, Montr\u00e9al QC H1Y 1M7",
                        "locality": "Montreal",
                        "postcode": "H1Y 1M7",
                        "region": "QC"
                  },
                  "name": "Poulet 3 Pattes",
                  "popularity": 0.8786430734292203,
                  "price": 2
            },
            {
                  "distance": 704,
                  "location": {
                        "address": "2381 Beaubien Rue E",
                        "country": "CA",
                        "cross_street": "",
                        "formatted_address": "2381 Beaubien Rue E, Montr\u00e9al QC H2G 1N3",
                        "locality": "Montreal",
                        "postcode": "H2G 1N3",
                        "region": "QC"
                  },
                  "name": "Le Elsdale",
                  "popularity": 0.9026778955336866,
                  "price": 1
            },
            {
                  "distance": 815,
                  "location": {
                        "address": "2548 Belanger Rue",
                        "country": "CA",
                        "cross_street": "Belanger",
                        "formatted_address": "2548 Belanger Rue (Belanger), Montr\u00e9al QC H1Y 1A1",
                        "locality": "Montreal",
                        "postcode": "H1Y 1A1",
                        "region": "QC"
                  },
                  "name": "Bar Excel",
                  "popularity": 0.9128974261922785,
                  "price": 3
            },
            {
                  "distance": 820,
                  "location": {
                        "address": "3391 Belair Rue",
                        "country": "CA",
                        "cross_street": "13e avenue",
                        "formatted_address": "3391 Belair Rue (13e avenue), Montr\u00e9al QC H2A 2A6",
                        "locality": "Montreal",
                        "postcode": "H2A 2A6",
                        "region": "QC"
                  },
                  "name": "Montr\u00e9al Caf\u00e9 Restaurent Carthage",
                  "popularity": 0.8973788796366389,
                  "price": 1
            },
            {
                  "distance": 915,
                  "location": {
                        "address": "3240 Dandurand Rue",
                        "country": "CA",
                        "cross_street": "coin St-Michel",
                        "formatted_address": "3240 Dandurand Rue (coin St-Michel), Montr\u00e9al QC H1Y 1V5",
                        "locality": "Montreal",
                        "postcode": "H1Y 1V5",
                        "region": "QC"
                  },
                  "name": "Gariepy & Fils Fins Gourmets",
                  "popularity": 0.9137372255866768
            },
            {
                  "distance": 958,
                  "location": {
                        "address": "2613 Jean Talon Rue E",
                        "country": "CA",
                        "cross_street": "",
                        "formatted_address": "2613 Jean Talon Rue E, Montr\u00e9al QC",
                        "locality": "Montreal",
                        "region": "QC"
                  },
                  "name": "Resto Cafe Tamaris",
                  "popularity": 0.09826835730507191,
                  "price": 2
            },
            {
                  "distance": 2381,
                  "location": {
                        "address": "2862 Rosemont Blvd",
                        "country": "CA",
                        "cross_street": "5e Avenue",
                        "formatted_address": "2862 Rosemont Blvd (5e Avenue), Montr\u00e9al QC H1Y 1L7",
                        "locality": "Montreal",
                        "postcode": "H1Y 1L7",
                        "region": "QC"
                  },
                  "name": "O Fuzion",
                  "popularity": 0.09026069265707796,
                  "price": 2
            },
            {
                  "distance": 152,
                  "location": {
                        "address": "3234 Beaubien Rue E",
                        "country": "CA",
                        "formatted_address": "3234 Beaubien Rue E, Montreal QC H1Y 1H7",
                        "locality": "Montreal",
                        "postcode": "H1Y 1H7",
                        "region": "QC"
                  },
                  "name": "Taverne"
            },
            {
                  "distance": 204,
                  "location": {
                        "address": "3231 Beaubien Rue E",
                        "country": "CA",
                        "formatted_address": "3231 Beaubien Rue E, Montreal QC H1Y 1H6",
                        "locality": "Montreal",
                        "postcode": "H1Y 1H6",
                        "region": "QC"
                  },
                  "name": "Restaurant Famili"
            },
            {
                  "distance": 510,
                  "location": {
                        "address": "2534 Beaubien Rue E",
                        "country": "CA",
                        "formatted_address": "2534 Beaubien Rue E, Montreal QC H1Y 1G2",
                        "locality": "Montreal",
                        "postcode": "H1Y 1G2",
                        "region": "QC"
                  },
                  "name": "Pat' e Palo"
            },
            {
                  "distance": 545,
                  "location": {
                        "address": "2862 Rosemont Blvd",
                        "country": "CA",
                        "formatted_address": "2862 Rosemont Blvd, Montreal QC H1Y 1L7",
                        "locality": "Montreal",
                        "postcode": "H1Y 1L7",
                        "region": "QC"
                  },
                  "name": "Casse-Cro\u00fbte"
            },
            {
                  "distance": 612,
                  "location": {
                        "address": "3181 Belanger Rue",
                        "country": "CA",
                        "formatted_address": "3181 Belanger Rue, Montreal QC H1Y 1B6",
                        "locality": "Montreal",
                        "postcode": "H1Y 1B6",
                        "region": "QC"
                  },
                  "name": "Restaurant Pnt Inc"
            },
            {
                  "distance": 780,
                  "location": {
                        "address": "2555 Belanger Rue",
                        "country": "CA",
                        "formatted_address": "2555 Belanger Rue, Montreal QC H1Y 1A3",
                        "locality": "Montreal",
                        "postcode": "H1Y 1A3",
                        "region": "QC"
                  },
                  "name": "Pura Felicita Caf\u00e9 Traiteur"
            },
            {
                  "distance": 840,
                  "location": {
                        "address": "2490 Belanger Rue",
                        "country": "CA",
                        "formatted_address": "2490 Belanger Rue, Montreal QC H2G 1E5",
                        "locality": "Montreal",
                        "postcode": "H2G 1E5",
                        "region": "QC"
                  },
                  "name": "Restaurant Grill Tasqueria la Sharade"
            },
            {
                  "distance": 907,
                  "location": {
                        "address": "2215 Beaubien Rue E",
                        "country": "CA",
                        "formatted_address": "2215 Beaubien Rue E, Montreal QC H2G 1M8",
                        "locality": "Montreal",
                        "postcode": "H2G 1M8",
                        "region": "QC"
                  },
                  "name": "Sushi Shop Beaubien"
            }
      ],
      "context": {
            "geo_bounds": {
                  "circle": {
                        "center": {
                              "latitude": 45.55345685,
                              "longitude": -73.58784199
                        },
                        "radius": 1000
                  }
            }
      }
}