{
      "results": [
            {
                  "distance": 997,
                  "location": {
                        "address": "4255 Ontario Rue E",
                        "country": "CA",
                        "cross_street": "",
                        "formatted_address": "4255 Ontario Rue E, Montr\u00e9al QC H1V 1K4",
                        "locality": "Montreal",
                        "postcode": "H1V 1K4",
                        "region": "QC"
                  },
                  "name": "H\u00e9licopt\u00e8re",
                  "popularity": 0.910744700984103,
                  "price": 2,
                  "rating": 8.6
            },
            {
                  "distance": 952,
                  "location": {
                        "address": "4299 Ontario Rue E",
                        "country": "CA",
                        "cross_street": "coin Letourneux",
                        "formatted_address": "4299 Ontario Rue E (coin Letourneux), Montr\u00e9al QC H1V 1K4",
                        "locality": "Montreal",
                        "postcode": "H1V 1K4",
                        "region": "QC"
                  },
                  "name": "Hoche Caf\u00e9",
                  "popularity": 0.9021574564723694,
                  "price": 2,
                  "rating": 8.5
            },
            {
                  "distance": 978,
                  "location": {
                        "address": "4271 Ontario Rue E",
                        "country": "CA",
                        "formatted_address": "4271 Ontario Rue E, Montr\u00e9al QC H1V 1K4",
                        "locality": "Montreal",
                        "postcode": "H1V 1K4",
                        "region": "QC"
                  },
                  "name": "L'Olive Noire",
                  "popularity": 0.8508114118092355,
                  "price": 2,
                  "rating": 8.4
            },
            {
                  "distance": 939,
                  "location": {
                        "address": "4317 Ontario Rue E",
                        "country": "CA",
                        "cross_street": "Letourneux",
                        "formatted_address": "4317 Ontario Rue E (Letourneux), Montr\u00e9al QC H1V 1K5",
                        "locality": "Montreal",
                        "postcode": "H1V 1K5",
                        "region": "QC"
                  },
                  "name": "Les gourmandises de Marie-Antoinette",
                  "popularity": 0.9419828728236185,
                  "price": 2,
                  "rating": 8.3
            },
            {
                  "distance": 936,
                  "location": {
                        "address": "4323 Ontario Rue E",
                        "country": "CA",
                        "formatted_address": "4323 Ontario Rue E, Montr\u00e9al QC H1V 1K5",
                        "locality": "Montreal",
                        "postcode": "H1V 1K5",
                        "region": "QC"
                  },
                  "name": "Bagatelle Bistro",
                  "popularity": 0.9195093679031037,
                  "price": 3,
                  "rating": 8.3
            },
            {
                  "distance": 759,
                  "location": {
                        "address": "3974 Pierre de Coubertin Ave",
                        "country": "CA",
                        "cross_street": "",
                        "formatted_address": "3974 Pierre de Coubertin Ave, Montr\u00e9al QC H1W 1E7",
                        "locality": "Montreal",
                        "postcode": "H1W 1E7",
                        "region": "QC"
                  },
                  "name": "Fusion Express",
                  "popularity": 0.9321300151400455,
                  "price": 2,
                  "rating": 8.0
            },
            {
                  "distance": 847,
                  "location": {
                        "address": "3971 Hochelaga Rue",
                        "country": "CA",
                        "cross_street": "",
                        "formatted_address": "3971 Hochelaga Rue, Montr\u00e9al QC H1W 1K2",
                        "locality": "Montreal",
                        "postcode": "H1W 1K2",
                        "region": "QC"
                  },
                  "name": "Poutine Centrale",
                  "popularity": 0.9448807721423165,
                  "price": 2,
                  "rating": 7.9
            },
            {
                  "distance": 614,
                  "location": {
                        "address": "2225 Bennett Ave",
                        "country": "CA",
                        "cross_street": "",
                        "formatted_address": "2225 Bennett Ave, Montr\u00e9al QC H1V 2T4",
                        "locality": "Montreal",
                        "postcode": "H1V 2T4",
                        "region": "QC"
                  },
                  "name": "Hoche Glac\u00e9",
                  "popularity": 0.9444549583648751,
                  "price": 1,
                  "rating": 7.7
            },
            {
                  "distance": 771,
                  "location": {
                        "address": "4101 Sherbrooke Rue E",
                        "country": "CA",
                        "cross_street": "",
                        "formatted_address": "4101 Sherbrooke Rue E, Montr\u00e9al QC H1X 2B2",
                        "locality": "Montreal",
                        "postcode": "H1X 2B2",
                        "region": "QC"
                  },
                  "name": "Restaurant du Jardin Botanique",
                  "popularity": 0.9286880204390613,
                  "price": 2,
                  "rating": 7.4
            },
            {
                  "distance": 1009,
                  "location": {
                        "address": "4223 Ontario Rue E",
                        "country": "CA",
                        "cross_street": "coin Desjardins",
                        "formatted_address": "4223 Ontario Rue E (coin Desjardins), Montr\u00e9al QC H1V 1K2",
                        "locality": "Montreal",
                        "postcode": "H1V 1K2",
                        "region": "QC"
                  },
                  "name": "New Casa de la Pizza",
                  "popularity": 0.8993660105980318,
                  "price": 1,
                  "rating": 7.4
            },
            {
                  "distance": 969,
                  "location": {
                        "address": "2009 Ave de la Salle",
                        "country": "CA",
                        "cross_street": "",
                        "formatted_address": "2009 Ave de la Salle, Montr\u00e9al QC H1V 2K6",
                        "locality": "Montreal",
                        "postcode": "H1V 2K6",
                        "region": "QC"
                  },
                  "name": "H\u00e9lico",
                  "popularity": 0.9399366010598031,
                  "price": 1,
                  "rating": 6.9
            },
            {
                  "distance": 837,
                  "location": {
                        "address": "3929 Sherbrooke Rue E",
                        "country": "CA",
                        "cross_street": "Orleans",
                        "formatted_address": "3929 Sherbrooke Rue E (Orleans), Montr\u00e9al QC H1X 3E3",
                        "locality": "Montreal",
                        "postcode": "H1X 3E3",
                        "region": "QC"
                  },
                  "name": "Restaurant la Belle Province",
                  "popularity": 0.9721091975775927,
                  "price": 1,
                  "rating": 6.3
            },
            {
                  "distance": 940,
                  "location": {
                        "address": "3881 Sherbrooke Rue E",
                        "country": "CA",
                        "cross_street": "coin Av. Bourbonni\u00e8re",
                        "formatted_address": "3881 Sherbrooke Rue E (coin Av. Bourbonni\u00e8re), Montr\u00e9al QC H1X 2A5",
                        "locality": "Montreal",
                        "postcode": "H1X 2A5",
                        "region": "QC"
                  },
                  "name": "Tim Hortons",
                  "popularity": 0.9890116389099167,
                  "price": 1,
                  "rating": 6.2
            },
            {
                  "distance": 227,
                  "location": {
                        "address": "4825 Pierre de Coubertin Ave",
                        "country": "CA",
                        "cross_street": "Viau",
                        "formatted_address": "4825 Pierre de Coubertin Ave (Viau), Montr\u00e9al QC",
                        "locality": "Montreal",
                        "region": "QC"
                  },
                  "name": "Pizza Pizza",
                  "popularity": 0.611610522331567,
                  "price": 1,
                  "rating": 6.2
            },
            {
                  "distance": 898,
                  "location": {
                        "address": "3924 Hochelaga Rue",
                        "country": "CA",
                        "cross_street": "coin Orleans",
                        "formatted_address": "3924 Hochelaga Rue (coin Orleans), Montr\u00e9al QC H1W 1J9",
                        "locality": "Montreal",
                        "postcode": "H1W 1J9",
                        "region": "QC"
                  },
                  "name": "Jimmy Restaurant",
                  "popularity": 0.9504518357305072,
                  "price": 2,
                  "rating": 5.9
            },
            {
                  "distance": 860,
                  "location": {
                        "address": "5000 Sherbrooke Rue E",
                        "country": "CA",
                        "cross_street": "",
                        "formatted_address": "5000 Sherbrooke Rue E, Montr\u00e9al QC H1V 1A1",
                        "locality": "Montreal",
                        "postcode": "H1V 1A1",
                        "region": "QC"
                  },
                  "name": "Au Toit Rouge",
                  "popularity": 0.8107967448902347,
                  "price": 2,
                  "rating": 5.9
            },
            {
                  "distance": 559,
                  "location": {
                        "address": "4240 Hochelaga Rue",
                        "country": "CA",
                        "formatted_address": "4240 Hochelaga Rue, Montr\u00e9al QC H1V 1B7",
                        "locality": "Montreal",
                        "postcode": "H1V 1B7",
                        "region": "QC"
                  },
                  "name": "Brasserie 99",
                  "popularity": 0.9025596139288418,
                  "price": 1,
                  "rating": 5.6
            },
            {
                  "distance": 304,
                  "location": {
                        "address": "4743 Hochelaga Rue",
                        "country": "CA",
                        "cross_street": "Leclaire",
                        "formatted_address": "4743 Hochelaga Rue (Leclaire), Montr\u00e9al QC H1V 1E2",
                        "locality": "Montreal",
                        "postcode": "H1V 1E2",
                        "region": "QC"
                  },
                  "name": "Restaurant Pizzeria Hochelaga",
                  "popularity": 0.9084618660105981,
                  "price": 1
            },
            {
                  "distance": 563,
                  "location": {
                        "address": "4535 Rue de Rouen",
                        "country": "CA",
                        "cross_street": "",
                        "formatted_address": "4535 Rue de Rouen, Montr\u00e9al QC H1V 2W4",
                        "locality": "Montreal",
                        "postcode": "H1V 2W4",
                        "region": "QC"
                  },
                  "name": "Bocal",
                  "popularity": 0.9737533118849356,
                  "price": 1
            },
            {
                  "distance": 645,
                  "location": {
                        "address": "3055 Viau Rue",
                        "country": "CA",
                        "formatted_address": "3055 Viau Rue, Montr\u00e9al QC H1V 3J5",
                        "locality": "Montreal",
                        "postcode": "H1V 3J5",
                        "region": "QC"
                  },
                  "name": "Mondelez Internationale",
                  "popularity": 0.9218395155185466
            },
            {
                  "distance": 936,
                  "location": {
                        "address": "4315 Ontario Rue E",
                        "country": "CA",
                        "cross_street": "",
                        "formatted_address": "4315 Ontario Rue E, Montr\u00e9al QC H1V 1K5",
                        "locality": "Montreal",
                        "postcode": "H1V 1K5",
                        "region": "QC"
                  },
                  "name": "Pita Bar",
                  "popularity": 0.834145533686601,
                  "price": 2
            },
            {
                  "distance": 941,
                  "location": {
                        "address": "4850 Ontario Rue E",
                        "country": "CA",
                        "cross_street": "",
                        "formatted_address": "4850 Ontario Rue E, Montr\u00e9al QC H1V 1L7",
                        "locality": "Montreal",
                        "postcode": "H1V 1L7",
                        "region": "QC"
                  },
                  "name": "Services d'Or",
                  "popularity": 0.12290641559424678,
                  "price": 1
            },
            {
                  "distance": 942,
                  "location": {
                        "address": "4315 Ontario Rue E",
                        "country": "CA",
                        "cross_street": "",
                        "formatted_address": "4315 Ontario Rue E, Montr\u00e9al QC H1V 1K5",
                        "locality": "Montreal",
                        "postcode": "H1V 1K5",
                        "region": "QC"
                  },
                  "name": "Hoa Anh-D\u0101o",
                  "popularity": 0.1645415404996215,
                  "price": 2
            },
            {
                  "distance": 944,
                  "location": {
                        "address": "4850 Ontario Rue E",
                        "country": "CA",
                        "cross_street": "",
                        "formatted_address": "4850 Ontario Rue E, Montr\u00e9al QC H1V 1L7",
                        "locality": "Montreal",
                        "postcode": "H1V 1L7",
                        "region": "QC"
                  },
                  "name": "Domaine des 15 Lots",
                  "popularity": 0.9665972747918243,
                  "price": 1
            },
            {
                  "distance": 966,
                  "location": {
                        "address": "3881 Rachel Rue E",
                        "country": "CA",
                        "cross_street": "Bourbonni\u00e8re",
                        "formatted_address": "3881 Rachel Rue E (Bourbonni\u00e8re), Montr\u00e9al QC H1X 1Z2",
                        "locality": "Montreal",
                        "postcode": "H1X 1Z2",
                        "region": "QC"
                  },
                  "name": "Le Botocoin",
                  "popularity": 0.9011757191521574,
                  "price": 1
            },
            {
                  "distance": 987,
                  "location": {
                        "address": "4223 Ontario Rue E",
                        "country": "CA",
                        "formatted_address": "4223 Ontario Rue E, Montr\u00e9al QC H1V 1K2",
                        "locality": "Montreal",
                        "postcode": "H1V 1K2",
                        "region": "QC"
                  },
                  "name": "La Casa des Sp\u00e9cialt\u00e9s Grecques",
                  "popularity": 0.7474569454958365,
                  "price": 2
            },
            {
                  "distance": 342,
                  "location": {
                        "address": "4740 Hochelaga Rue",
                        "country": "CA",
                        "formatted_address": "4740 Hochelaga Rue, Montreal QC H1V 1E3",
                        "locality": "Montreal",
                        "postcode": "H1V 1E3",
                        "region": "QC"
                  },
                  "name": "Tok\u00e9"
            },
            {
                  "distance": 352,
                  "location": {
                        "address": "4141 Pierre-De Coubertin Ave",
                        "country": "CA",
                        "formatted_address": "4141 Pierre-De Coubertin Ave, Montreal QC H1V 3N7",
                        "locality": "Montreal",
                        "postcode": "H1V 3N7",
                        "region": "QC"
                  },
                  "name": "Restaurant de la Tour Olympique"
            },
            {
                  "distance": 480,
                  "location": {
                        "address": "4141 Pierre-De Coubertin Ave",
                        "country": "CA",
                        "formatted_address": "4141 Pierre-De Coubertin Ave, Montreal QC H1V 3N7",
                        "locality": "Montreal",
                        "postcode": "H1V 3N7",
                        "region": "QC"
                  },
                  "name": "Les Dimanches Salsa Folie"
            },
            {
                  "distance": 573,
                  "location": {
                        "address": "4240 Hochelaga Rue",
                        "country": "CA",
                        "formatted_address": "4240 Hochelaga Rue, Montreal QC H1V 1B7",
                        "locality": "Montreal",
                        "postcode": "H1V 1B7",
                        "region": "QC"
                  },
                  "name": "Brasserie Ninety Nine"
            },
            {
                  "distance": 590,
                  "location": {
                        "address": "4115 Pierre de Coubertin",
                        "country": "CA",
                        "formatted_address": "4115 Pierre de Coubertin, Montreal QC",
                        "locality": "Montreal",
                        "region": "QC"
                  },
                  "name": "Hivernale"
            },
            {
                  "distance": 614,
                  "location": {
                        "address": "2190 Aird Ave",
                        "country": "CA",
                        "formatted_address": "2190 Aird Ave, Montreal QC",
                        "locality": "Montreal",
                        "region": "QC"
                  },
                  "name": "Galette Soba"
            },
            {
                  "distance": 714,
                  "location": {
                        "address": "3055 Viau Rue",
                        "country": "CA",
                        "formatted_address": "3055 Viau Rue, Montreal QC H1V 3J5",
                        "locality": "Montreal",
                        "postcode": "H1V 3J5",
                        "region": "QC"
                  },
                  "name": "Compagnie Christie Brown"
            },
            {
                  "distance": 750,
                  "location": {
                        "address": "2063 Aird Ave",
                        "address_extended": "# 305",
                        "country": "CA",
                        "formatted_address": "2063 Aird Ave, Montreal QC H1V 2V9",
                        "locality": "Montreal",
                        "postcode": "H1V 2V9",
                        "region": "QC"
                  },
                  "name": "Bob, le Roi du Kitsch et du Vintage"
            },
            {
                  "distance": 820,
                  "location": {
                        "address": "2125 Letourneux Ave",
                        "country": "CA",
                        "formatted_address": "2125 Letourneux Ave, Montreal QC H1V 2N8",
                        "locality": "Montreal",
                        "postcode": "H1V 2N8",
                        "region": "QC"
                  },
                  "name": "Tambour"
            }
      ],
      "context": {
            "geo_bounds": {
                  "circle": {
                        "center": {
                              "latitude": 45.55892531,
                              "longitude": -73.54805732
                        },
                        "radius": 1000
                  }
            }
      }
}