{
      "results": [
            {
                  "distance": 547,
                  "location": {
                        "address": "110 Blvd de la Concorde Ouest",
                        "country": "CA",
                        "cross_street": "at 16e Rue",
                        "formatted_address": "110 Blvd de la Concorde Ouest (at 16e Rue), Laval QC H7N 1H9",
                        "locality": "Laval",
                        "postcode": "H7N 1H9",
                        "region": "QC"
                  },
                  "name": "Chez Gerard",
                  "popularity": 0.9650986342943855,
                  "price": 1,
                  "rating": 7.5
            },
            {
                  "distance": 969,
                  "location": {
                        "address": "500 Saint-Martin Blvd O",
                        "country": "CA",
                        "cross_street": "",
                        "formatted_address": "500 Saint-Martin Blvd O, Laval QC H7M 3Y2",
                        "locality": "Laval",
                        "postcode": "H7M 3Y2",
                        "region": "QC"
                  },
                  "name": "Ristorante Meridiana",
                  "popularity": 0.9133267874676426,
                  "price": 3,
                  "rating": 7.1
            },
            {
                  "distance": 839,
                  "location": {
                        "address": "802 des Laurentides Blvd",
                        "country": "CA",
                        "cross_street": "",
                        "formatted_address": "802 des Laurentides Blvd, Laval QC H7G 2V9",
                        "locality": "Laval",
                        "postcode": "H7G 2V9",
                        "region": "QC"
                  },
                  "name": "Restaurant le Pirate de Laval",
                  "popularity": 0.9817905918057663,
                  "price": 2,
                  "rating": 7.0
            },
            {
                  "distance": 995,
                  "location": {
                        "address": "350 Saint-Martin Blvd O",
                        "country": "CA",
                        "formatted_address": "350 Saint-Martin Blvd O, Laval QC H7M 3Y8",
                        "locality": "Laval",
                        "postcode": "H7M 3Y8",
                        "region": "QC"
                  },
                  "name": "Casa Grecque",
                  "popularity": 0.964652325270017,
                  "price": 2,
                  "rating": 7.0
            },
            {
                  "distance": 1006,
                  "location": {
                        "address": "380 Saint-Martin Blvd O",
                        "country": "CA",
                        "cross_street": "Rue Vallieres",
                        "formatted_address": "380 Saint-Martin Blvd O (Rue Vallieres), Laval QC H7M 3Y8",
                        "locality": "Laval",
                        "postcode": "H7M 3Y8",
                        "region": "QC"
                  },
                  "name": "Towne380",
                  "popularity": 0.9498348656609836,
                  "price": 4,
                  "rating": 7.0
            },
            {
                  "distance": 866,
                  "location": {
                        "address": "608 Blvd de la Concorde Ouest",
                        "country": "CA",
                        "cross_street": "coin Amp\u00e8re",
                        "formatted_address": "608 Blvd de la Concorde Ouest (coin Amp\u00e8re), Laval QC H7N 5R1",
                        "locality": "Laval",
                        "postcode": "H7N 5R1",
                        "region": "QC"
                  },
                  "name": "Boulangerie Patisserie",
                  "popularity": 0.9331429081496028,
                  "price": 1,
                  "rating": 6.9
            },
            {
                  "distance": 859,
                  "location": {
                        "address": "661 des Laurentides Blvd",
                        "country": "CA",
                        "cross_street": "",
                        "formatted_address": "661 des Laurentides Blvd, Laval QC H7G 2V8",
                        "locality": "Laval",
                        "postcode": "H7G 2V8",
                        "region": "QC"
                  },
                  "name": "Restaurant Vien Dong",
                  "popularity": 0.8900294563956083,
                  "price": 2,
                  "rating": 6.8
            },
            {
                  "distance": 884,
                  "location": {
                        "address": "1031 des Laurentides Blvd",
                        "country": "CA",
                        "cross_street": "coin Gianchetti",
                        "formatted_address": "1031 des Laurentides Blvd (coin Gianchetti), Laval QC H7G 2V8",
                        "locality": "Laval",
                        "postcode": "H7G 2V8",
                        "region": "QC"
                  },
                  "name": "Restaurant Chalutier M l M",
                  "popularity": 0.9672409176113541,
                  "price": 3,
                  "rating": 6.4
            },
            {
                  "distance": 852,
                  "location": {
                        "address": "662 des Laurentides Blvd",
                        "country": "CA",
                        "cross_street": "",
                        "formatted_address": "662 des Laurentides Blvd, Laval QC H7G 2V9",
                        "locality": "Laval",
                        "postcode": "H7G 2V9",
                        "region": "QC"
                  },
                  "name": "Pizza Pizza",
                  "popularity": 0.8395072748370972,
                  "price": 1,
                  "rating": 6.1,
                  "store_id": "309"
            },
            {
                  "distance": 842,
                  "location": {
                        "address": "650 des Laurentides Blvd",
                        "country": "CA",
                        "formatted_address": "650 des Laurentides Blvd, Laval QC H7G 2V9",
                        "locality": "Laval",
                        "postcode": "H7G 2V9",
                        "region": "QC"
                  },
                  "name": "Tim Hortons",
                  "popularity": 0.9957154333660626,
                  "price": 1,
                  "rating": 5.5
            },
            {
                  "distance": 516,
                  "location": {
                        "address": "103 de la Concorde W des Rapides",
                        "country": "CA",
                        "formatted_address": "103 de la Concorde W des Rapides, Laval QC H7N 1H8",
                        "locality": "Laval",
                        "postcode": "H7N 1H8",
                        "region": "QC"
                  },
                  "name": "Domino's Pizza",
                  "popularity": 0.9725966259037758,
                  "price": 1
            },
            {
                  "distance": 535,
                  "location": {
                        "address": "270 Blvd de la Concorde Ouest",
                        "country": "CA",
                        "cross_street": "",
                        "formatted_address": "270 Blvd de la Concorde Ouest, Laval QC H7N 1J1",
                        "locality": "Laval",
                        "postcode": "H7N 1J1",
                        "region": "QC"
                  },
                  "name": "Bar Bada Bing",
                  "popularity": 0.35606533964116754,
                  "price": 2
            },
            {
                  "distance": 547,
                  "location": {
                        "address": "180 Blvd de la Concorde Ouest",
                        "country": "CA",
                        "formatted_address": "180 Blvd de la Concorde Ouest, Laval QC H7N 1H9",
                        "locality": "Laval",
                        "postcode": "H7N 1H9",
                        "region": "QC"
                  },
                  "name": "Caf\u00e9 Bistro Il Momento",
                  "popularity": 0.24609479603677586,
                  "price": 1
            },
            {
                  "distance": 827,
                  "location": {
                        "address": "1040 des Laurentides Blvd",
                        "country": "CA",
                        "cross_street": "",
                        "formatted_address": "1040 des Laurentides Blvd, Laval QC H7G 2W1",
                        "locality": "Laval",
                        "postcode": "H7G 2W1",
                        "region": "QC"
                  },
                  "name": "Restaurant Basha",
                  "popularity": 0.8654824600553424,
                  "price": 1
            },
            {
                  "distance": 903,
                  "location": {
                        "address": "542 Amp\u00e8re",
                        "country": "CA",
                        "cross_street": "Concorde ouest",
                        "formatted_address": "542 Amp\u00e8re (Concorde ouest), Laval QC",
                        "locality": "Laval",
                        "region": "QC"
                  },
                  "name": "Pizza 2 Pour 1",
                  "popularity": 0.7119521556725877,
                  "price": 1
            },
            {
                  "distance": 960,
                  "location": {
                        "address": "1039 des Laurentides Blvd",
                        "country": "CA",
                        "cross_street": "",
                        "formatted_address": "1039 des Laurentides Blvd, Laval QC H7G 2W2",
                        "locality": "Laval",
                        "postcode": "H7G 2W2",
                        "region": "QC"
                  },
                  "name": "Restaurant Lavita",
                  "popularity": 0.9453717754172989,
                  "price": 2
            },
            {
                  "distance": 976,
                  "location": {
                        "address": "1091 des Laurentides Blvd",
                        "country": "CA",
                        "cross_street": "",
                        "formatted_address": "1091 des Laurentides Blvd, Laval QC H7G 2W2",
                        "locality": "Laval",
                        "postcode": "H7G 2W2",
                        "region": "QC"
                  },
                  "name": "LongJ Sushi",
                  "popularity": 0.5665446755333393,
                  "price": 2
            },
            {
                  "distance": 270,
                  "location": {
                        "address": "818 Ave de Bois-de-Boulogne",
                        "country": "CA",
                        "formatted_address": "818 Ave de Bois-de-Boulogne, Laval QC H7N 4E9",
                        "locality": "Laval",
                        "postcode": "H7N 4E9",
                        "region": "QC"
                  },
                  "name": "Cyn's Sugar Factory"
            },
            {
                  "distance": 523,
                  "location": {
                        "address": "101 Blvd de la Concorde O",
                        "country": "CA",
                        "formatted_address": "101 Blvd de la Concorde O, Laval QC H7N 1H8",
                        "locality": "Laval",
                        "postcode": "H7N 1H8",
                        "region": "QC"
                  },
                  "name": "Mon Verger en P\u00e2te d'Amandes"
            },
            {
                  "distance": 539,
                  "location": {
                        "address": "270 Blvd de la Concorde O",
                        "country": "CA",
                        "formatted_address": "270 Blvd de la Concorde O, Laval QC H7N 1J1",
                        "locality": "Laval",
                        "postcode": "H7N 1J1",
                        "region": "QC"
                  },
                  "name": "Bar Badabing"
            },
            {
                  "distance": 827,
                  "location": {
                        "address": "1040 des Laurentides Blvd",
                        "country": "CA",
                        "formatted_address": "1040 des Laurentides Blvd, Laval QC H7G 2W1",
                        "locality": "Laval",
                        "postcode": "H7G 2W1",
                        "region": "QC"
                  },
                  "name": "Beignes Pont Viau Inc"
            },
            {
                  "distance": 837,
                  "location": {
                        "address": "650 des Laurentides Blvd",
                        "country": "CA",
                        "formatted_address": "650 des Laurentides Blvd, Laval QC H7G 2V9",
                        "locality": "Laval",
                        "postcode": "H7G 2V9",
                        "region": "QC"
                  },
                  "name": "Restaurant Mikes, Laval-Rive Nord"
            },
            {
                  "distance": 838,
                  "location": {
                        "address": "650 des Laurentides Blvd",
                        "country": "CA",
                        "formatted_address": "650 des Laurentides Blvd, Laval QC H7G 2V9",
                        "locality": "Laval",
                        "postcode": "H7G 2V9",
                        "region": "QC"
                  },
                  "name": "Restaurant Mikes"
            },
            {
                  "distance": 873,
                  "location": {
                        "address": "661 des Laurentides Blvd",
                        "country": "CA",
                        "formatted_address": "661 des Laurentides Blvd, Laval QC H7G 2V8",
                        "locality": "Laval",
                        "postcode": "H7G 2V8",
                        "region": "QC"
                  },
                  "name": "Petit Carroussel"
            },
            {
                  "distance": 888,
                  "location": {
                        "address": "550 des Laurentides Blvd",
                        "country": "CA",
                        "formatted_address": "550 des Laurentides Blvd, Laval QC H7G 2V4",
                        "locality": "Laval",
                        "postcode": "H7G 2V4",
                        "region": "QC"
                  },
                  "name": "Lavalois Bar Salon"
            },
            {
                  "distance": 915,
                  "location": {
                        "address": "580 Saint-Martin Blvd O",
                        "country": "CA",
                        "formatted_address": "580 Saint-Martin Blvd O, Laval QC H7M 3Y2",
                        "locality": "Laval",
                        "postcode": "H7M 3Y2",
                        "region": "QC"
                  },
                  "name": "Barbies Resto Bar Grill"
            },
            {
                  "distance": 920,
                  "location": {
                        "address": "615 Robert-Elie Rue",
                        "country": "CA",
                        "formatted_address": "615 Robert-Elie Rue, Laval QC H7N 3Y9",
                        "locality": "Laval",
                        "postcode": "H7N 3Y9",
                        "region": "QC"
                  },
                  "name": "Outrageous Inc"
            },
            {
                  "distance": 938,
                  "location": {
                        "address": "545 des Laurentides Blvd",
                        "country": "CA",
                        "formatted_address": "545 des Laurentides Blvd, Laval QC H7G 2V3",
                        "locality": "Laval",
                        "postcode": "H7G 2V3",
                        "region": "QC"
                  },
                  "name": "Restaurant la Belle Province"
            },
            {
                  "distance": 945,
                  "location": {
                        "address": "1098 des Laurentides Blvd",
                        "country": "CA",
                        "formatted_address": "1098 des Laurentides Blvd, Laval QC H7G 2W3",
                        "locality": "Laval",
                        "postcode": "H7G 2W3",
                        "region": "QC"
                  },
                  "name": "Bistro 1098"
            },
            {
                  "distance": 948,
                  "location": {
                        "address": "545 des Laurentides Blvd",
                        "country": "CA",
                        "formatted_address": "545 des Laurentides Blvd, Laval QC H7G 2V3",
                        "locality": "Laval",
                        "postcode": "H7G 2V3",
                        "region": "QC"
                  },
                  "name": "Dolce & Santella"
            },
            {
                  "distance": 962,
                  "location": {
                        "address": "1405 Blvd du Souvenir",
                        "country": "CA",
                        "formatted_address": "1405 Blvd du Souvenir, Laval QC H7N 5X1",
                        "locality": "Laval",
                        "postcode": "H7N 5X1",
                        "region": "QC"
                  },
                  "name": "Distribution Caf\u00e9 Addison"
            },
            {
                  "distance": 994,
                  "location": {
                        "address": "1091 des Laurentides Blvd",
                        "country": "CA",
                        "formatted_address": "1091 des Laurentides Blvd, Laval QC H7G 2W2",
                        "locality": "Laval",
                        "postcode": "H7G 2W2",
                        "region": "QC"
                  },
                  "name": "Restaurant Japanese"
            }
      ],
      "context": {
            "geo_bounds": {
                  "circle": {
                        "center": {
                              "latitude": 45.56933906,
                              "longitude": -73.70472729
                        },
                        "radius": 1000
                  }
            }
      }
}