{
      "results": [
            {
                  "distance": 659,
                  "location": {
                        "address": "2110 Belanger Rue",
                        "country": "CA",
                        "cross_street": "",
                        "formatted_address": "2110 Belanger Rue, Montr\u00e9al QC H2G 1C2",
                        "locality": "Montreal",
                        "postcode": "H2G 1C2",
                        "region": "QC"
                  },
                  "name": "Paquebot",
                  "popularity": 0.9647520817562453,
                  "price": 1,
                  "rating": 9.2
            },
            {
                  "distance": 783,
                  "location": {
                        "address": "1360 Rosemont Blvd",
                        "country": "CA",
                        "cross_street": "",
                        "formatted_address": "1360 Rosemont Blvd, Montr\u00e9al QC H2G 1V4",
                        "locality": "Montreal",
                        "postcode": "H2G 1V4",
                        "region": "QC"
                  },
                  "name": "Caf\u00e9 Dei Campi",
                  "popularity": 0.9428108440575321,
                  "price": 1,
                  "rating": 9.1
            },
            {
                  "distance": 890,
                  "location": {
                        "address": "1039 Beaubien Rue E",
                        "country": "CA",
                        "cross_street": "Christophe-Colomb",
                        "formatted_address": "1039 Beaubien Rue E (Christophe-Colomb), Montr\u00e9al QC H2S 1T3",
                        "locality": "Montreal",
                        "postcode": "H2S 1T3",
                        "region": "QC"
                  },
                  "name": "Isle de Garde",
                  "popularity": 0.9462055261165784,
                  "price": 3,
                  "rating": 9.1
            },
            {
                  "distance": 809,
                  "location": {
                        "address": "1212 Saint-Zotique Rue E",
                        "country": "CA",
                        "cross_street": "",
                        "formatted_address": "1212 Saint-Zotique Rue E, Montr\u00e9al QC H2S 1N5",
                        "locality": "Montreal",
                        "postcode": "H2S 1N5",
                        "region": "QC"
                  },
                  "name": "Luciano Trattoria",
                  "popularity": 0.9558099924299773,
                  "price": 2,
                  "rating": 8.7
            },
            {
                  "distance": 870,
                  "location": {
                        "address": "6500 Christophe-Colomb Ave",
                        "country": "CA",
                        "cross_street": "Beaubien",
                        "formatted_address": "6500 Christophe-Colomb Ave (Beaubien), Montr\u00e9al QC H2S 2G8",
                        "locality": "Montreal",
                        "postcode": "H2S 2G8",
                        "region": "QC"
                  },
                  "name": "Automne Boulangerie",
                  "popularity": 0.9466431680545042,
                  "price": 1,
                  "rating": 8.7
            },
            {
                  "distance": 601,
                  "location": {
                        "address": "1290 Beaubien Rue E",
                        "country": "CA",
                        "cross_street": "",
                        "formatted_address": "1290 Beaubien Rue E, Montr\u00e9al QC H2S 1T9",
                        "locality": "Montreal",
                        "postcode": "H2S 1T9",
                        "region": "QC"
                  },
                  "name": "Vinvinvin",
                  "popularity": 0.9328751892505678,
                  "price": 2,
                  "rating": 8.4
            },
            {
                  "distance": 426,
                  "location": {
                        "address": "2350 Beaubien Rue E",
                        "country": "CA",
                        "cross_street": "Des \u00c9cores",
                        "formatted_address": "2350 Beaubien Rue E (Des \u00c9cores), Montr\u00e9al QC H2G 1N2",
                        "locality": "Montreal",
                        "postcode": "H2G 1N2",
                        "region": "QC"
                  },
                  "name": "L'Affaire est Chocolat",
                  "popularity": 0.8962078917486752,
                  "price": 1,
                  "rating": 8.4
            },
            {
                  "distance": 716,
                  "location": {
                        "address": "2440 Rosemont Blvd",
                        "country": "CA",
                        "cross_street": "",
                        "formatted_address": "2440 Rosemont Blvd, Montr\u00e9al QC H2G 1V2",
                        "locality": "Montreal",
                        "postcode": "H2G 1V2",
                        "region": "QC"
                  },
                  "name": "Pub Rosemont",
                  "popularity": 0.9464539174867524,
                  "price": 3,
                  "rating": 8.2
            },
            {
                  "distance": 634,
                  "location": {
                        "address": "1309 Saint-Zotique Rue E",
                        "country": "CA",
                        "cross_street": "coin Chambord",
                        "formatted_address": "1309 Saint-Zotique Rue E (coin Chambord), Montr\u00e9al QC H2G 1G6",
                        "locality": "Montreal",
                        "postcode": "H2G 1G6",
                        "region": "QC"
                  },
                  "name": "Bar le Jockey",
                  "popularity": 0.9420538417865254,
                  "price": 2,
                  "rating": 8.2
            },
            {
                  "distance": 959,
                  "location": {
                        "address": "1950 Jean-Talon Rue E",
                        "country": "CA",
                        "cross_street": "Chabot",
                        "formatted_address": "1950 Jean-Talon Rue E (Chabot), Montr\u00e9al QC H2E 1T8",
                        "locality": "Montreal",
                        "postcode": "H2E 1T8",
                        "region": "QC"
                  },
                  "name": "Boulangerie & Charcuterie San Pietro",
                  "popularity": 0.953763720666162,
                  "price": 1,
                  "rating": 8.2
            },
            {
                  "distance": 6,
                  "location": {
                        "address": "1898 Beaubien Rue E",
                        "country": "CA",
                        "cross_street": "Chabot",
                        "formatted_address": "1898 Beaubien Rue E (Chabot), Montr\u00e9al QC H2G 1L9",
                        "locality": "Montreal",
                        "postcode": "H2G 1L9",
                        "region": "QC"
                  },
                  "name": "Sushi Itamea",
                  "popularity": 0.9421366389099167,
                  "price": 2,
                  "rating": 8.0
            },
            {
                  "distance": 437,
                  "location": {
                        "address": "2355 Beaubien Rue E",
                        "country": "CA",
                        "formatted_address": "2355 Beaubien Rue E, Montr\u00e9al QC H2G 1N3",
                        "locality": "Montreal",
                        "postcode": "H2G 1N3",
                        "region": "QC"
                  },
                  "name": "Froment et de S\u00e8ve",
                  "popularity": 0.9245008516275549,
                  "price": 1,
                  "rating": 7.8
            },
            {
                  "distance": 441,
                  "location": {
                        "address": "6505 des Ecores Rue",
                        "country": "CA",
                        "cross_street": "Beaubien Est",
                        "formatted_address": "6505 des Ecores Rue (Beaubien Est), Montr\u00e9al QC H2G 2J8",
                        "locality": "Montreal",
                        "postcode": "H2G 2J8",
                        "region": "QC"
                  },
                  "name": "Randolph Pub Ludique",
                  "popularity": 0.9249148372445117,
                  "price": 1,
                  "rating": 7.8
            },
            {
                  "distance": 296,
                  "location": {
                        "address": "2224 Beaubien Rue E",
                        "country": "CA",
                        "formatted_address": "2224 Beaubien Rue E, Montr\u00e9al QC H2G 1M7",
                        "locality": "Montreal",
                        "postcode": "H2G 1M7",
                        "region": "QC"
                  },
                  "name": "Marconi Pizzeria",
                  "popularity": 0.8903529523088569,
                  "price": 1,
                  "rating": 7.7
            },
            {
                  "distance": 354,
                  "location": {
                        "address": "2316 Beaubien Rue E",
                        "country": "CA",
                        "cross_street": "Louis-H\u00e9mon",
                        "formatted_address": "2316 Beaubien Rue E (Louis-H\u00e9mon), Montr\u00e9al QC H2G 1M9",
                        "locality": "Montreal",
                        "postcode": "H2G 1M9",
                        "region": "QC"
                  },
                  "name": "Bistro Chez Roger",
                  "popularity": 0.9417817940953823,
                  "price": 2,
                  "rating": 7.7
            },
            {
                  "distance": 602,
                  "location": {
                        "address": "2500 Beaubien Rue E",
                        "country": "CA",
                        "cross_street": "coin d'Iberville",
                        "formatted_address": "2500 Beaubien Rue E (coin d'Iberville), Montr\u00e9al QC H1Y 1G2",
                        "locality": "Montreal",
                        "postcode": "H1Y 1G2",
                        "region": "QC"
                  },
                  "name": "Resto la Grand-M\u00e8re Poule",
                  "popularity": 0.9470926381529144,
                  "price": 1,
                  "rating": 7.6
            },
            {
                  "distance": 409,
                  "location": {
                        "address": "1404 Beaubien Rue E",
                        "country": "CA",
                        "cross_street": "",
                        "formatted_address": "1404 Beaubien Rue E, Montr\u00e9al QC H2G 1K9",
                        "locality": "Montreal",
                        "postcode": "H2G 1K9",
                        "region": "QC"
                  },
                  "name": "Caf\u00e9 Chiado28",
                  "popularity": 0.9532551097653293,
                  "price": 1,
                  "rating": 7.5
            },
            {
                  "distance": 971,
                  "location": {
                        "address": "5800 rue de la Roche",
                        "country": "CA",
                        "cross_street": "coin Rosemont",
                        "formatted_address": "5800 rue de la Roche (coin Rosemont), Montr\u00e9al QC H2S 2C7",
                        "locality": "Montreal",
                        "postcode": "H2S 2C7",
                        "region": "QC"
                  },
                  "name": "Le North End",
                  "popularity": 0.8863077214231643,
                  "price": 3,
                  "rating": 7.2
            },
            {
                  "distance": 247,
                  "location": {
                        "address": "2200 Beaubien Rue E",
                        "country": "CA",
                        "cross_street": "At Des Erables",
                        "formatted_address": "2200 Beaubien Rue E (At Des Erables), Montr\u00e9al QC H2G 1M7",
                        "locality": "Montreal",
                        "postcode": "H2G 1M7",
                        "region": "QC"
                  },
                  "name": "Nouveau Canada",
                  "popularity": 0.9369677327781983,
                  "price": 1,
                  "rating": 7.1
            },
            {
                  "distance": 59,
                  "location": {
                        "address": "1991 Beaubien Rue E",
                        "country": "CA",
                        "cross_street": "Bordeaux",
                        "formatted_address": "1991 Beaubien Rue E (Bordeaux), Montr\u00e9al QC H2G 1M2",
                        "locality": "Montreal",
                        "postcode": "H2G 1M2",
                        "region": "QC"
                  },
                  "name": "Caf\u00e9 l'\u00c9tincelle",
                  "popularity": 0.9640660484481454,
                  "price": 1,
                  "rating": 6.9
            },
            {
                  "distance": 862,
                  "location": {
                        "address": "1275 Rosemont Blvd",
                        "country": "CA",
                        "formatted_address": "1275 Rosemont Blvd, Montr\u00e9al QC H2S 3L9",
                        "locality": "Montreal",
                        "postcode": "H2S 3L9",
                        "region": "QC"
                  },
                  "name": "McDonald's",
                  "popularity": 0.9897449848599545,
                  "price": 1,
                  "rating": 5.4,
                  "store_id": "2964"
            },
            {
                  "distance": 162,
                  "location": {
                        "address": "6442 Papineau Ave",
                        "country": "CA",
                        "cross_street": "Beaubien",
                        "formatted_address": "6442 Papineau Ave (Beaubien), Montr\u00e9al QC H2G 2W9",
                        "locality": "Montreal",
                        "postcode": "H2G 2W9",
                        "region": "QC"
                  },
                  "name": "Bar Paspebiac",
                  "popularity": 0.8786549015897047,
                  "price": 2
            },
            {
                  "distance": 302,
                  "location": {
                        "address": "2040 Beaubien Rue E",
                        "country": "CA",
                        "cross_street": "",
                        "formatted_address": "2040 Beaubien Rue E, Montr\u00e9al QC H2G 1M4",
                        "locality": "Montreal",
                        "postcode": "H2G 1M4",
                        "region": "QC"
                  },
                  "name": "Calaveras",
                  "popularity": 0.9169071725965178,
                  "price": 1
            },
            {
                  "distance": 315,
                  "location": {
                        "address": "1951 Beaubien Rue E",
                        "country": "CA",
                        "cross_street": "Chabot",
                        "formatted_address": "1951 Beaubien Rue E (Chabot), Montr\u00e9al QC H2G 1M2",
                        "locality": "Montreal",
                        "postcode": "H2G 1M2",
                        "region": "QC"
                  },
                  "name": "Du Pain et des Roses",
                  "popularity": 0.8573050719152158,
                  "price": 1
            },
            {
                  "distance": 517,
                  "location": {
                        "address": "5885 Papineau Ave",
                        "country": "CA",
                        "cross_street": "De Lorimier",
                        "formatted_address": "5885 Papineau Ave (De Lorimier), Montr\u00e9al QC H2G 2W5",
                        "locality": "Montreal",
                        "postcode": "H2G 2W5",
                        "region": "QC"
                  },
                  "name": "Grozepa Brasserie Urbaine",
                  "popularity": 0.969708080999243,
                  "price": 2
            },
            {
                  "distance": 519,
                  "location": {
                        "address": "1335 Beaubien Rue E",
                        "country": "CA",
                        "cross_street": "",
                        "formatted_address": "1335 Beaubien Rue E, Montr\u00e9al QC H2G 1K7",
                        "locality": "Montreal",
                        "postcode": "H2G 1K7",
                        "region": "QC"
                  },
                  "name": "La Belle Tonki",
                  "popularity": 0.9382806585919757,
                  "price": 2
            },
            {
                  "distance": 666,
                  "location": {
                        "address": "2522 Beaubien Rue E",
                        "country": "CA",
                        "cross_street": "Rue d'Iberville",
                        "formatted_address": "2522 Beaubien Rue E (Rue d'Iberville), Montr\u00e9al QC H1Y 1G2",
                        "locality": "Montreal",
                        "postcode": "H1Y 1G2",
                        "region": "QC"
                  },
                  "name": "La Brass\u00e9e",
                  "popularity": 0.9355483535200606,
                  "price": 1
            },
            {
                  "distance": 671,
                  "location": {
                        "address": "1253 Beaubien Rue E",
                        "country": "CA",
                        "cross_street": "Rue De Normandville",
                        "formatted_address": "1253 Beaubien Rue E (Rue De Normandville), Montr\u00e9al QC H2S 1V1",
                        "locality": "Montreal",
                        "postcode": "H2S 1V1",
                        "region": "QC"
                  },
                  "name": "Poissonnerie Fou des Iles",
                  "popularity": 0.8730128690386071
            },
            {
                  "distance": 746,
                  "location": {
                        "address": "1251 St Zotique",
                        "country": "CA",
                        "cross_street": "De Normanville",
                        "formatted_address": "1251 St Zotique (De Normanville), Montr\u00e9al QC",
                        "locality": "Montreal",
                        "region": "QC"
                  },
                  "name": "Le Norman Zotique",
                  "popularity": 0.7669615821347464,
                  "price": 1
            },
            {
                  "distance": 870,
                  "location": {
                        "address": "2548 Belanger Rue",
                        "country": "CA",
                        "cross_street": "Belanger",
                        "formatted_address": "2548 Belanger Rue (Belanger), Montr\u00e9al QC H1Y 1A1",
                        "locality": "Montreal",
                        "postcode": "H1Y 1A1",
                        "region": "QC"
                  },
                  "name": "Bar Excel",
                  "popularity": 0.9128974261922785,
                  "price": 3
            },
            {
                  "distance": 924,
                  "location": {
                        "address": "1251 Belanger Rue",
                        "country": "CA",
                        "cross_street": "Normanville",
                        "formatted_address": "1251 Belanger Rue (Normanville), Montr\u00e9al QC H2S 1J1",
                        "locality": "Montreal",
                        "postcode": "H2S 1J1",
                        "region": "QC"
                  },
                  "name": "Sushi Futago",
                  "popularity": 0.8934755866767601,
                  "price": 2
            },
            {
                  "distance": 965,
                  "location": {
                        "address": "1840 Jean Talon Rue E",
                        "country": "CA",
                        "cross_street": "Papineau",
                        "formatted_address": "1840 Jean Talon Rue E (Papineau), Montr\u00e9al QC H2E 1T5",
                        "locality": "Montreal",
                        "postcode": "H2E 1T5",
                        "region": "QC"
                  },
                  "name": "Dilallo Burger et Bar",
                  "popularity": 0.9578207797123391,
                  "price": 2
            },
            {
                  "distance": 1010,
                  "location": {
                        "address": "1190 Belanger Rue",
                        "country": "CA",
                        "cross_street": "",
                        "formatted_address": "1190 Belanger Rue, Montr\u00e9al QC H2S 1H4",
                        "locality": "Montreal",
                        "postcode": "H2S 1H4",
                        "region": "QC"
                  },
                  "name": "Restaurant Larimar",
                  "popularity": 0.17660626419379258,
                  "price": 2
            },
            {
                  "distance": 258,
                  "location": {
                        "address": "2200 Beaubien Rue E",
                        "country": "CA",
                        "formatted_address": "2200 Beaubien Rue E, Montreal QC H2G 1M7",
                        "locality": "Montreal",
                        "postcode": "H2G 1M7",
                        "region": "QC"
                  },
                  "name": "New Canada Hot-Dog"
            },
            {
                  "distance": 270,
                  "location": {
                        "address": "2215 Beaubien Rue E",
                        "country": "CA",
                        "formatted_address": "2215 Beaubien Rue E, Montreal QC H2G 1M8",
                        "locality": "Montreal",
                        "postcode": "H2G 1M8",
                        "region": "QC"
                  },
                  "name": "Sushi Shop Beaubien"
            }
      ],
      "context": {
            "geo_bounds": {
                  "circle": {
                        "center": {
                              "latitude": 45.54437555,
                              "longitude": -73.59564453
                        },
                        "radius": 1000
                  }
            }
      }
}