{
      "results": [
            {
                  "distance": 179,
                  "location": {
                        "address": "608 Blvd de la Concorde Ouest",
                        "country": "CA",
                        "cross_street": "coin Amp\u00e8re",
                        "formatted_address": "608 Blvd de la Concorde Ouest (coin Amp\u00e8re), Laval QC H7N 5R1",
                        "locality": "Laval",
                        "postcode": "H7N 5R1",
                        "region": "QC"
                  },
                  "name": "Boulangerie Patisserie",
                  "popularity": 0.9331429081496028,
                  "price": 1,
                  "rating": 6.9
            },
            {
                  "distance": 144,
                  "location": {
                        "address": "542 Amp\u00e8re",
                        "country": "CA",
                        "cross_street": "Concorde ouest",
                        "formatted_address": "542 Amp\u00e8re (Concorde ouest), Laval QC",
                        "locality": "Laval",
                        "region": "QC"
                  },
                  "name": "Pizza 2 Pour 1",
                  "popularity": 0.7119521556725877,
                  "price": 1
            },
            {
                  "distance": 330,
                  "location": {
                        "address": "1323 Blvd de la Concorde O",
                        "country": "CA",
                        "cross_street": "Boul Concorde",
                        "formatted_address": "1323 Blvd de la Concorde O (Boul Concorde), Laval QC H7N 5Y4",
                        "locality": "Laval",
                        "postcode": "H7N 5Y4",
                        "region": "QC"
                  },
                  "name": "Resto-Bar 1323",
                  "popularity": 0.07381951263054538,
                  "price": 1
            },
            {
                  "distance": 805,
                  "location": {
                        "address": "319 Cartier Blvd O",
                        "country": "CA",
                        "cross_street": "Amp\u00e8re",
                        "formatted_address": "319 Cartier Blvd O (Amp\u00e8re), Laval QC H7N 2J4",
                        "locality": "Laval",
                        "postcode": "H7N 2J4",
                        "region": "QC"
                  },
                  "name": "Restaurant le Cartier",
                  "popularity": 0.9811657591716505,
                  "price": 1
            },
            {
                  "distance": 845,
                  "location": {
                        "address": "270 Blvd de la Concorde Ouest",
                        "country": "CA",
                        "cross_street": "",
                        "formatted_address": "270 Blvd de la Concorde Ouest, Laval QC H7N 1J1",
                        "locality": "Laval",
                        "postcode": "H7N 1J1",
                        "region": "QC"
                  },
                  "name": "Bar Bada Bing",
                  "popularity": 0.35606533964116754,
                  "price": 2
            },
            {
                  "distance": 953,
                  "location": {
                        "address": "1700 rue Jacques-T\u00e9treault",
                        "country": "CA",
                        "cross_street": "Universit\u00e9 de Montr\u00e9al \u00e0 Laval",
                        "formatted_address": "1700 rue Jacques-T\u00e9treault (Universit\u00e9 de Montr\u00e9al \u00e0 Laval), Laval QC H7N 0B6",
                        "locality": "Laval",
                        "postcode": "H7N 0B6",
                        "region": "QC"
                  },
                  "name": "Van Houtte",
                  "popularity": 0.876104614835312,
                  "price": 1
            },
            {
                  "distance": 958,
                  "location": {
                        "address": "555 Lucien-Paiement Rue",
                        "country": "CA",
                        "cross_street": "",
                        "formatted_address": "555 Lucien-Paiement Rue, Laval QC H7N 0A5",
                        "locality": "Laval",
                        "postcode": "H7N 0A5",
                        "region": "QC"
                  },
                  "name": "Caf\u00e9 D\u00e9p\u00f4t",
                  "popularity": 0.10595376238507542,
                  "price": 1
            },
            {
                  "distance": 977,
                  "location": {
                        "address": "180 Blvd de la Concorde Ouest",
                        "country": "CA",
                        "formatted_address": "180 Blvd de la Concorde Ouest, Laval QC H7N 1H9",
                        "locality": "Laval",
                        "postcode": "H7N 1H9",
                        "region": "QC"
                  },
                  "name": "Caf\u00e9 Bistro Il Momento",
                  "popularity": 0.24609479603677586,
                  "price": 1
            },
            {
                  "distance": 385,
                  "location": {
                        "address": "1323 Blvd de la Concorde O",
                        "country": "CA",
                        "formatted_address": "1323 Blvd de la Concorde O, Laval QC H7N 5Y4",
                        "locality": "Laval",
                        "postcode": "H7N 5Y4",
                        "region": "QC"
                  },
                  "name": "Les Gestions I.p.m.b. Cardinal Inc"
            },
            {
                  "distance": 501,
                  "location": {
                        "address": "615 Robert-Elie Rue",
                        "country": "CA",
                        "formatted_address": "615 Robert-Elie Rue, Laval QC H7N 3Y9",
                        "locality": "Laval",
                        "postcode": "H7N 3Y9",
                        "region": "QC"
                  },
                  "name": "Outrageous Inc"
            },
            {
                  "distance": 735,
                  "location": {
                        "address": "1405 Blvd du Souvenir",
                        "country": "CA",
                        "formatted_address": "1405 Blvd du Souvenir, Laval QC H7N 5X1",
                        "locality": "Laval",
                        "postcode": "H7N 5X1",
                        "region": "QC"
                  },
                  "name": "Distribution Caf\u00e9 Addison"
            },
            {
                  "distance": 738,
                  "location": {
                        "address": "475 de l'Avenir",
                        "country": "CA",
                        "formatted_address": "475 de l'Avenir, Laval QC H7N 5H9",
                        "locality": "Laval",
                        "postcode": "H7N 5H9",
                        "region": "QC"
                  },
                  "name": "Subway",
                  "store_id": "Restaurant #65426"
            },
            {
                  "distance": 813,
                  "location": {
                        "address": "317 Cartier Blvd O",
                        "country": "CA",
                        "formatted_address": "317 Cartier Blvd O, Laval QC H7N 2J3",
                        "locality": "Laval",
                        "postcode": "H7N 2J3",
                        "region": "QC"
                  },
                  "name": "Dallas Resto Pub"
            },
            {
                  "distance": 879,
                  "location": {
                        "address": "270 Blvd de la Concorde O",
                        "country": "CA",
                        "formatted_address": "270 Blvd de la Concorde O, Laval QC H7N 1J1",
                        "locality": "Laval",
                        "postcode": "H7N 1J1",
                        "region": "QC"
                  },
                  "name": "Bar Badabing"
            },
            {
                  "distance": 905,
                  "location": {
                        "address": "293A Cartier Blvd O",
                        "country": "CA",
                        "formatted_address": "293A Cartier Blvd O, Laval QC H7N 2J1",
                        "locality": "Laval",
                        "postcode": "H7N 2J1",
                        "region": "QC"
                  },
                  "name": "Allo Pizza"
            }
      ],
      "context": {
            "geo_bounds": {
                  "circle": {
                        "center": {
                              "latitude": 45.56048985,
                              "longitude": -73.70918512
                        },
                        "radius": 1000
                  }
            }
      }
}