{
      "results": [
            {
                  "distance": 459,
                  "location": {
                        "address": "6531 Baldwin Ave",
                        "country": "CA",
                        "cross_street": "Chaumont",
                        "formatted_address": "6531 Baldwin Ave (Chaumont), Montr\u00e9al QC H1K 3C4",
                        "locality": "Montreal",
                        "postcode": "H1K 3C4",
                        "region": "QC"
                  },
                  "name": "Benny&Co",
                  "popularity": 0.961747728993187,
                  "price": 2,
                  "rating": 8.2,
                  "store_id": "BC_02"
            },
            {
                  "distance": 629,
                  "location": {
                        "address": "7655 Roi-Rene Blvd",
                        "country": "CA",
                        "cross_street": "Chateauneuf",
                        "formatted_address": "7655 Roi-Rene Blvd (Chateauneuf), Anjou QC H1K 3G7",
                        "locality": "Anjou",
                        "postcode": "H1K 3G7",
                        "region": "QC"
                  },
                  "name": "Restaurant Bouf-Vit Enr",
                  "popularity": 0.19173448145344435,
                  "price": 1,
                  "rating": 6.3
            },
            {
                  "distance": 134,
                  "location": {
                        "address": "8640 Chaumont Pl",
                        "country": "CA",
                        "cross_street": "",
                        "formatted_address": "8640 Chaumont Pl, Montreal QC H1K 1W5",
                        "locality": "Montreal",
                        "postcode": "H1K 1W5",
                        "region": "QC"
                  },
                  "name": "3 Coeurs",
                  "popularity": 0.9355246971990916,
                  "price": 2
            },
            {
                  "distance": 191,
                  "location": {
                        "address": "6361 Roi Rene",
                        "country": "CA",
                        "cross_street": "",
                        "formatted_address": "6361 Roi Rene, Anjou QC",
                        "locality": "Anjou",
                        "region": "QC"
                  },
                  "name": "Restaurant Melina",
                  "popularity": 0.9668811506434519,
                  "price": 1
            },
            {
                  "distance": 750,
                  "location": {
                        "address": "7771 Roi-Rene Blvd",
                        "country": "CA",
                        "cross_street": "",
                        "formatted_address": "7771 Roi-Rene Blvd, Anjou QC H1K 3G9",
                        "locality": "Anjou",
                        "postcode": "H1K 3G9",
                        "region": "QC"
                  },
                  "name": "Sushi Quynh Anh",
                  "popularity": 0.3225066237698713,
                  "price": 2
            },
            {
                  "distance": 751,
                  "location": {
                        "address": "7751 Roi-Rene Blvd",
                        "country": "CA",
                        "cross_street": "Chateauneuf",
                        "formatted_address": "7751 Roi-Rene Blvd (Chateauneuf), Anjou QC H1K 3G9",
                        "locality": "Anjou",
                        "postcode": "H1K 3G9",
                        "region": "QC"
                  },
                  "name": "Restaurant Il Puntino",
                  "popularity": 0.9443721612414837,
                  "price": 2
            },
            {
                  "distance": 785,
                  "location": {
                        "address": "6740 Joseph-Renaud Blvd",
                        "country": "CA",
                        "cross_street": "",
                        "formatted_address": "6740 Joseph-Renaud Blvd, Anjou QC H1K 3V4",
                        "locality": "Anjou",
                        "postcode": "H1K 3V4",
                        "region": "QC"
                  },
                  "name": "Restaurant Memphis",
                  "popularity": 0.9430947199091597,
                  "price": 2
            },
            {
                  "distance": 945,
                  "location": {
                        "address": "4545 Ste",
                        "country": "CA",
                        "cross_street": "",
                        "formatted_address": "4545 Ste, Montr\u00e9al QC H1V 1Y7",
                        "locality": "Montreal",
                        "postcode": "H1V 1Y7",
                        "region": "QC"
                  },
                  "name": "Dairy Queen",
                  "popularity": 0.047619047619047616,
                  "price": 1
            },
            {
                  "distance": 954,
                  "location": {
                        "address": "7999 des Galeries d'Anjou Blvd",
                        "country": "CA",
                        "cross_street": "Les Galeries d'Anjou",
                        "formatted_address": "7999 des Galeries d'Anjou Blvd (Les Galeries d'Anjou), Anjou QC H1M 1W9",
                        "locality": "Anjou",
                        "postcode": "H1M 1W9",
                        "region": "QC"
                  },
                  "name": "Restaurant Saint-Cinnamon",
                  "popularity": 0.5556041824375473,
                  "price": 1
            },
            {
                  "distance": 1013,
                  "location": {
                        "address": "8622 Chaumont Ave",
                        "country": "CA",
                        "cross_street": "Roi-rene",
                        "formatted_address": "8622 Chaumont Ave (Roi-rene), Anjou QC H1K 1N2",
                        "locality": "Anjou",
                        "postcode": "H1K 1N2",
                        "region": "QC"
                  },
                  "name": "Kaido Resto Inc",
                  "popularity": 0.0572719530658592,
                  "price": 2
            },
            {
                  "distance": 109,
                  "location": {
                        "address": "8652 Ave de Chaumont",
                        "country": "CA",
                        "formatted_address": "8652 Ave de Chaumont, Anjou QC H1K 1N5",
                        "locality": "Anjou",
                        "postcode": "H1K 1N5",
                        "region": "QC"
                  },
                  "name": "Resto Chair de Poule"
            },
            {
                  "distance": 116,
                  "location": {
                        "address": "8644 Ave de Chaumont",
                        "country": "CA",
                        "formatted_address": "8644 Ave de Chaumont, Anjou QC H1K 1N5",
                        "locality": "Anjou",
                        "postcode": "H1K 1N5",
                        "region": "QC"
                  },
                  "name": "Rose Caf\u00e9 Restaurant Patisserie"
            },
            {
                  "distance": 120,
                  "location": {
                        "address": "8640 Ave de Chaumont",
                        "country": "CA",
                        "formatted_address": "8640 Ave de Chaumont, Anjou QC H1K 1N5",
                        "locality": "Anjou",
                        "postcode": "H1K 1N5",
                        "region": "QC"
                  },
                  "name": "Restaurant Trois Coeurs Enr"
            },
            {
                  "distance": 149,
                  "location": {
                        "address": "8630 Ave de Chaumont",
                        "country": "CA",
                        "formatted_address": "8630 Ave de Chaumont, Anjou QC",
                        "locality": "Anjou",
                        "region": "QC"
                  },
                  "name": "Shockolat"
            },
            {
                  "distance": 164,
                  "location": {
                        "address": "8621 Ave de Chaumont",
                        "country": "CA",
                        "formatted_address": "8621 Ave de Chaumont, Anjou QC H1K 1N3",
                        "locality": "Anjou",
                        "postcode": "H1K 1N3",
                        "region": "QC"
                  },
                  "name": "Restaurant Chaumont"
            },
            {
                  "distance": 188,
                  "location": {
                        "address": "6381 Roi-Rene Blvd",
                        "country": "CA",
                        "formatted_address": "6381 Roi-Rene Blvd, Anjou QC H1K 3G4",
                        "locality": "Anjou",
                        "postcode": "H1K 3G4",
                        "region": "QC"
                  },
                  "name": "Restaurant LuLu"
            },
            {
                  "distance": 823,
                  "location": {
                        "address": "6700 Joseph Renaud Blvd",
                        "country": "CA",
                        "formatted_address": "6700 Joseph Renaud Blvd, Anjou QC H1K 3V4",
                        "locality": "Anjou",
                        "postcode": "H1K 3V4",
                        "region": "QC"
                  },
                  "name": "La Fraicheur Tropicale"
            }
      ],
      "context": {
            "geo_bounds": {
                  "circle": {
                        "center": {
                              "latitude": 45.61092663,
                              "longitude": -73.54673445
                        },
                        "radius": 1000
                  }
            }
      }
}