{
      "results": [
            {
                  "distance": 730,
                  "location": {
                        "address": "5185 Rue de Charleroi",
                        "country": "CA",
                        "cross_street": "",
                        "formatted_address": "5185 Rue de Charleroi, Montreal-Nord QC H1G 3A2",
                        "locality": "Montr\u00e9al-Nord",
                        "postcode": "H1G 3A2",
                        "region": "QC"
                  },
                  "name": "Da Bologna",
                  "popularity": 0.9846588758516276,
                  "price": 2,
                  "rating": 7.5
            },
            {
                  "distance": 266,
                  "location": {
                        "address": "H1G MONTR\u00e9AL",
                        "country": "CA",
                        "formatted_address": "H1G MONTR\u00e9AL, Montr\u00e9al QC H1G 2T1",
                        "locality": "Montreal",
                        "postcode": "H1G 2T1",
                        "region": "QC"
                  },
                  "name": "Buona Sera",
                  "popularity": 0.9930805261165784,
                  "price": 2,
                  "rating": 7.3
            },
            {
                  "distance": 854,
                  "location": {
                        "address": "5601 Leger Blvd",
                        "country": "CA",
                        "cross_street": "",
                        "formatted_address": "5601 Leger Blvd, Montr\u00e9al QC H1G 1K4",
                        "locality": "Montreal",
                        "postcode": "H1G 1K4",
                        "region": "QC"
                  },
                  "name": "KFC",
                  "popularity": 0.8959476722180166,
                  "price": 1,
                  "rating": 6.4,
                  "store_id": "1245"
            },
            {
                  "distance": 269,
                  "location": {
                        "address": "5195 Henri-Bourassa Blvd E",
                        "country": "CA",
                        "cross_street": "",
                        "formatted_address": "5195 Henri-Bourassa Blvd E, Montr\u00e9al QC H1G 2S7",
                        "locality": "Montreal",
                        "postcode": "H1G 2S7",
                        "region": "QC"
                  },
                  "name": "Queues de Castor",
                  "popularity": 0.2775359576078728,
                  "price": 1
            },
            {
                  "distance": 542,
                  "location": {
                        "address": "4972 Leger Blvd",
                        "country": "CA",
                        "cross_street": "",
                        "formatted_address": "4972 Leger Blvd, Montr\u00e9al QC H1G 1J6",
                        "locality": "Montreal",
                        "postcode": "H1G 1J6",
                        "region": "QC"
                  },
                  "name": "Restaurant Mamina",
                  "popularity": 0.9608961014383043,
                  "price": 2
            },
            {
                  "distance": 575,
                  "location": {
                        "address": "5626 Henri-Bourassa Blvd E",
                        "country": "CA",
                        "cross_street": "",
                        "formatted_address": "5626 Henri-Bourassa Blvd E, Montr\u00e9al QC H1G 2T2",
                        "locality": "Montreal",
                        "postcode": "H1G 2T2",
                        "region": "QC"
                  },
                  "name": "Centrale Bergham",
                  "popularity": 0.9781179031037093,
                  "price": 1
            },
            {
                  "distance": 856,
                  "location": {
                        "address": "11245 Lacordaire Blvd",
                        "country": "CA",
                        "cross_street": "Boul Lacordaire",
                        "formatted_address": "11245 Lacordaire Blvd (Boul Lacordaire), Montreal-Nord QC H1G 4J7",
                        "locality": "Montr\u00e9al-Nord",
                        "postcode": "H1G 4J7",
                        "region": "QC"
                  },
                  "name": "Harvey's",
                  "popularity": 0.9366247161241483,
                  "price": 2,
                  "store_id": "2675"
            },
            {
                  "distance": 891,
                  "location": {
                        "address": "4960 Rue de Charleroi",
                        "country": "CA",
                        "cross_street": "",
                        "formatted_address": "4960 Rue de Charleroi, Montr\u00e9al QC H1G 2Z1",
                        "locality": "Montreal",
                        "postcode": "H1G 2Z1",
                        "region": "QC"
                  },
                  "name": "Double Pizza",
                  "popularity": 0.9755157077971234,
                  "price": 1
            },
            {
                  "distance": 911,
                  "location": {
                        "address": "6033 Henri-Bourassa Blvd E",
                        "country": "CA",
                        "cross_street": "",
                        "formatted_address": "6033 Henri-Bourassa Blvd E, Montr\u00e9al QC H1G 2V2",
                        "locality": "Montreal",
                        "postcode": "H1G 2V2",
                        "region": "QC"
                  },
                  "name": "Patisserie la Saveur",
                  "popularity": 0.6260527062831188,
                  "price": 1
            },
            {
                  "distance": 948,
                  "location": {
                        "address": "6061 Henri-Bourassa Blvd E",
                        "country": "CA",
                        "cross_street": "at Blvd. Rolland",
                        "formatted_address": "6061 Henri-Bourassa Blvd E (at Blvd. Rolland), Montr\u00e9al QC H1G 2V2",
                        "locality": "Montreal",
                        "postcode": "H1G 2V2",
                        "region": "QC"
                  },
                  "name": "Yori Sushi",
                  "popularity": 0.9793598599545799,
                  "price": 2
            },
            {
                  "distance": 977,
                  "location": {
                        "address": "4880 rue de Charleroi",
                        "country": "CA",
                        "cross_street": "",
                        "formatted_address": "4880 rue de Charleroi, Montreal-Nord QC H1G 2Y7",
                        "locality": "Montr\u00e9al-Nord",
                        "postcode": "H1G 2Y7",
                        "region": "QC"
                  },
                  "name": "Trattoria Del Sud",
                  "popularity": 0.8094956472369417,
                  "price": 2
            },
            {
                  "distance": 981,
                  "location": {
                        "address": "6057 Henri-Bourassa Blvd E",
                        "country": "CA",
                        "cross_street": "Henri-Bourassa",
                        "formatted_address": "6057 Henri-Bourassa Blvd E (Henri-Bourassa), Montreal-Nord QC H1G 2V2",
                        "locality": "Montr\u00e9al-Nord",
                        "postcode": "H1G 2V2",
                        "region": "QC"
                  },
                  "name": "Domino's Pizza",
                  "popularity": 0.9616412755488266,
                  "price": 1,
                  "store_id": "10716"
            },
            {
                  "distance": 244,
                  "location": {
                        "address": "5337 Henri-Bourassa Blvd E",
                        "country": "CA",
                        "formatted_address": "5337 Henri-Bourassa Blvd E, Montreal-Nord QC H1G 2T1",
                        "locality": "Montreal-Nord",
                        "postcode": "H1G 2T1",
                        "region": "QC"
                  },
                  "name": "Restaurant Buona Sera Pizza Restrnt"
            },
            {
                  "distance": 306,
                  "location": {
                        "address": "5158 Henri-Bourassa Blvd E",
                        "country": "CA",
                        "formatted_address": "5158 Henri-Bourassa Blvd E, Montreal-Nord QC H1G 2S6",
                        "locality": "Montreal-Nord",
                        "postcode": "H1G 2S6",
                        "region": "QC"
                  },
                  "name": "Phat Grill Resto-Bar"
            },
            {
                  "distance": 319,
                  "location": {
                        "address": "5158 Henri-Bourassa Blvd E",
                        "country": "CA",
                        "formatted_address": "5158 Henri-Bourassa Blvd E, Montreal-Nord QC",
                        "locality": "Montreal-Nord",
                        "region": "QC"
                  },
                  "name": "Restaurant Trouvaille Creole"
            },
            {
                  "distance": 391,
                  "location": {
                        "address": "5047 Henri-Bourassa Blvd E",
                        "country": "CA",
                        "formatted_address": "5047 Henri-Bourassa Blvd E, Montreal-Nord QC H1G 2S1",
                        "locality": "Montreal-Nord",
                        "postcode": "H1G 2S1",
                        "region": "QC"
                  },
                  "name": "Restaurant Nouveau Kum Mon Inc"
            },
            {
                  "distance": 506,
                  "location": {
                        "address": "11442 Lamoureux Ave",
                        "country": "CA",
                        "formatted_address": "11442 Lamoureux Ave, Montreal-Nord QC H1G 5M2",
                        "locality": "Montreal-Nord",
                        "postcode": "H1G 5M2",
                        "region": "QC"
                  },
                  "name": "Faivre Italian Restaurant"
            },
            {
                  "distance": 616,
                  "location": {
                        "address": "5626 Henri-Bourassa Blvd E",
                        "country": "CA",
                        "formatted_address": "5626 Henri-Bourassa Blvd E, Montreal-Nord QC H1G 2T2",
                        "locality": "Montreal-Nord",
                        "postcode": "H1G 2T2",
                        "region": "QC"
                  },
                  "name": "Belle Province"
            },
            {
                  "distance": 727,
                  "location": {
                        "address": "5185 Rue de Charleroi -Nord",
                        "country": "CA",
                        "formatted_address": "5185 Rue de Charleroi -Nord, Montreal-Nord QC H1G 3A2",
                        "locality": "Montreal-Nord",
                        "postcode": "H1G 3A2",
                        "region": "QC"
                  },
                  "name": "Pizzeria Da Bologna"
            },
            {
                  "distance": 758,
                  "location": {
                        "address": "5815 Henri-Bourassa Blvd E",
                        "country": "CA",
                        "formatted_address": "5815 Henri-Bourassa Blvd E, Montreal-Nord QC H1G 2V1",
                        "locality": "Montreal-Nord",
                        "postcode": "H1G 2V1",
                        "region": "QC"
                  },
                  "name": "Harvey's"
            },
            {
                  "distance": 855,
                  "location": {
                        "address": "5608 Leger Blvd",
                        "country": "CA",
                        "formatted_address": "5608 Leger Blvd, Montreal-Nord QC H1G 1K3",
                        "locality": "Montreal-Nord",
                        "postcode": "H1G 1K3",
                        "region": "QC"
                  },
                  "name": "Rolando Resto Bar Sportif"
            },
            {
                  "distance": 869,
                  "location": {
                        "address": "4979 rue de Charleroi",
                        "country": "CA",
                        "formatted_address": "4979 rue de Charleroi, Montreal-Nord QC H1G 2Z2",
                        "locality": "Montreal-Nord",
                        "postcode": "H1G 2Z2",
                        "region": "QC"
                  },
                  "name": "Caf\u00e9 et P\u00e2tisserie Guloglu Baklava"
            },
            {
                  "distance": 888,
                  "location": {
                        "address": "6000 Henri-Bourassa Blvd E",
                        "address_extended": "# 106",
                        "country": "CA",
                        "formatted_address": "6000 Henri-Bourassa Blvd E, Montreal-Nord QC H1G 2T6",
                        "locality": "Montreal-Nord",
                        "postcode": "H1G 2T6",
                        "region": "QC"
                  },
                  "name": "Pizza 7 Etoiles"
            },
            {
                  "distance": 906,
                  "location": {
                        "address": "4956 rue de Charleroi",
                        "country": "CA",
                        "formatted_address": "4956 rue de Charleroi, Montreal-Nord QC H1G 2Z1",
                        "locality": "Montreal-Nord",
                        "postcode": "H1G 2Z1",
                        "region": "QC"
                  },
                  "name": "Poissonnerie Fish & Chips Inc"
            },
            {
                  "distance": 927,
                  "location": {
                        "address": "6057 Henri-Bourassa Blvd E",
                        "country": "CA",
                        "formatted_address": "6057 Henri-Bourassa Blvd E, Montreal-Nord QC H1G 2V2",
                        "locality": "Montreal-Nord",
                        "postcode": "H1G 2V2",
                        "region": "QC"
                  },
                  "name": "9318-4232Quebec Inc"
            },
            {
                  "distance": 939,
                  "location": {
                        "address": "5812 Pascal Rue",
                        "country": "CA",
                        "formatted_address": "5812 Pascal Rue, Montreal-Nord QC",
                        "locality": "Montreal-Nord",
                        "region": "QC"
                  },
                  "name": "OSEZ Caf\u00e9"
            },
            {
                  "distance": 962,
                  "location": {
                        "address": "6047 Henri-Bourassa Blvd E",
                        "country": "CA",
                        "formatted_address": "6047 Henri-Bourassa Blvd E, Montreal-Nord QC H1G 2V2",
                        "locality": "Montreal-Nord",
                        "postcode": "H1G 2V2",
                        "region": "QC"
                  },
                  "name": "French Takos"
            }
      ],
      "context": {
            "geo_bounds": {
                  "circle": {
                        "center": {
                              "latitude": 45.6062348,
                              "longitude": -73.6287838
                        },
                        "radius": 1000
                  }
            }
      }
}