{
      "results": [
            {
                  "distance": 5609,
                  "location": {
                        "address": "208 Monde des Petits la Ronde Ile",
                        "country": "CA",
                        "cross_street": "Beaumont",
                        "formatted_address": "208 Monde des Petits la Ronde Ile (Beaumont), Montr\u00e9al QC H3C 1A9",
                        "locality": "Montreal",
                        "postcode": "H3C 1A9",
                        "region": "QC"
                  },
                  "name": "McDonald's",
                  "popularity": 0.9483819076457229,
                  "price": 1,
                  "rating": 5.8
            },
            {
                  "distance": 185,
                  "location": {
                        "address": "262 Laronde Ile",
                        "country": "CA",
                        "cross_street": "",
                        "formatted_address": "262 Laronde Ile, Montr\u00e9al QC H3C 6A3",
                        "locality": "Montreal",
                        "postcode": "H3C 6A3",
                        "region": "QC"
                  },
                  "name": "Subway",
                  "popularity": 0.8447553936411809,
                  "price": 1,
                  "store_id": "19723"
            },
            {
                  "distance": 295,
                  "location": {
                        "address": "22 MacDonald Ch",
                        "country": "CA",
                        "cross_street": "La Ronde",
                        "formatted_address": "22 MacDonald Ch (La Ronde), Montr\u00e9al QC H3C 6A3",
                        "locality": "Montreal",
                        "postcode": "H3C 6A3",
                        "region": "QC"
                  },
                  "name": "Queues de Castor",
                  "popularity": 0.20269918622255867,
                  "price": 1
            },
            {
                  "distance": 297,
                  "location": {
                        "address": "22 MacDonald Ch",
                        "country": "CA",
                        "cross_street": "",
                        "formatted_address": "22 MacDonald Ch, Montr\u00e9al QC H3C 6A3",
                        "locality": "Montreal",
                        "postcode": "H3C 6A3",
                        "region": "QC"
                  },
                  "name": "Moozoo",
                  "popularity": 0.25590225208175627,
                  "price": 1
            },
            {
                  "distance": 730,
                  "location": {
                        "address": "200 Ch du Tour-de-d'\u00eesle",
                        "country": "CA",
                        "cross_street": "",
                        "formatted_address": "200 Ch du Tour-de-d'\u00eesle, Montr\u00e9al QC H3C 4G8",
                        "locality": "Montreal",
                        "postcode": "H3C 4G8",
                        "region": "QC"
                  },
                  "name": "Restaurant H\u00e9l\u00e8ne de Champlain",
                  "popularity": 0.840852100681302,
                  "price": 2
            },
            {
                  "distance": 83,
                  "location": {
                        "address": "22 MacDonald Ch",
                        "address_extended": "Ile Sainte-Helene La Ronde Amusement Park",
                        "country": "CA",
                        "formatted_address": "22 MacDonald Ch, Montreal QC H3C 6A3",
                        "locality": "Montreal",
                        "postcode": "H3C 6A3",
                        "region": "QC"
                  },
                  "name": "Subway",
                  "store_id": "Restaurant #19723"
            },
            {
                  "distance": 83,
                  "location": {
                        "address": "22 MacDonald Rd Ile Sainte Helene",
                        "country": "CA",
                        "formatted_address": "22 MacDonald Rd Ile Sainte Helene, Montreal QC H3C 6A3",
                        "locality": "Montreal",
                        "postcode": "H3C 6A3",
                        "region": "QC"
                  },
                  "name": "Subway",
                  "store_id": "19723"
            },
            {
                  "distance": 139,
                  "location": {
                        "address": "22 MacDonald Ch",
                        "country": "CA",
                        "formatted_address": "22 MacDonald Ch, Montreal QC H3C 6A3",
                        "locality": "Montreal",
                        "postcode": "H3C 6A3",
                        "region": "QC"
                  },
                  "name": "Parc Six Flags Montr\u00e9al Inc"
            },
            {
                  "distance": 306,
                  "location": {
                        "address": "22 MacDonald Ch",
                        "country": "CA",
                        "formatted_address": "22 MacDonald Ch, Montreal QC H3C 6A3",
                        "locality": "Montreal",
                        "postcode": "H3C 6A3",
                        "region": "QC"
                  },
                  "name": "Valentine"
            },
            {
                  "distance": 544,
                  "location": {
                        "address": "124 Ch du Chenal le Moyne",
                        "country": "CA",
                        "formatted_address": "124 Ch du Chenal le Moyne, Montreal QC H3C 6J6",
                        "locality": "Montreal",
                        "postcode": "H3C 6J6",
                        "region": "QC"
                  },
                  "name": "Festin du Gouverneur"
            },
            {
                  "distance": 978,
                  "location": {
                        "address": "1001 Rue de Serigny",
                        "country": "CA",
                        "formatted_address": "1001 Rue de Serigny, Longueuil QC J4K 1A2",
                        "locality": "Longueuil",
                        "postcode": "J4K 1A2",
                        "region": "QC"
                  },
                  "name": "Terminus Longueuil"
            }
      ],
      "context": {
            "geo_bounds": {
                  "circle": {
                        "center": {
                              "latitude": 45.52156537,
                              "longitude": -73.53533238
                        },
                        "radius": 1000
                  }
            }
      }
}