{
      "results": [
            {
                  "distance": 198,
                  "location": {
                        "address": "7573 Newman Blvd",
                        "country": "CA",
                        "cross_street": "Lapierre",
                        "formatted_address": "7573 Newman Blvd (Lapierre), Lasalle QC H8N 1X3",
                        "locality": "Lasalle",
                        "postcode": "H8N 1X3",
                        "region": "QC"
                  },
                  "name": "Chez Cora",
                  "popularity": 0.9589799394398183,
                  "price": 1,
                  "rating": 7.7
            },
            {
                  "distance": 940,
                  "location": {
                        "address": "8390 Newman Blvd",
                        "country": "CA",
                        "formatted_address": "8390 Newman Blvd, Lasalle QC H8N 1X9",
                        "locality": "Lasalle",
                        "postcode": "H8N 1X9",
                        "region": "QC"
                  },
                  "name": "Tim Hortons",
                  "popularity": 0.9935654806964421,
                  "price": 1,
                  "rating": 7.2
            },
            {
                  "distance": 191,
                  "location": {
                        "address": "7660 Newman Blvd",
                        "country": "CA",
                        "cross_street": "",
                        "formatted_address": "7660 Newman Blvd, Montr\u00e9al QC H8N 1X8",
                        "locality": "Montreal",
                        "postcode": "H8N 1X8",
                        "region": "QC"
                  },
                  "name": "Kyomi",
                  "popularity": 0.9192491483724451,
                  "price": 2,
                  "rating": 7.2
            },
            {
                  "distance": 857,
                  "location": {
                        "address": "8195 Newman Blvd",
                        "country": "CA",
                        "cross_street": "Rue Lise",
                        "formatted_address": "8195 Newman Blvd (Rue Lise), Lasalle QC H8N 1Y1",
                        "locality": "Lasalle",
                        "postcode": "H8N 1Y1",
                        "region": "QC"
                  },
                  "name": "Shish Poulet",
                  "popularity": 0.8894185276305829,
                  "price": 2,
                  "rating": 6.7
            },
            {
                  "distance": 336,
                  "location": {
                        "address": "7745 Newman Blvd",
                        "country": "CA",
                        "cross_street": "",
                        "formatted_address": "7745 Newman Blvd, Lasalle QC H8N 1X7",
                        "locality": "Lasalle",
                        "postcode": "H8N 1X7",
                        "region": "QC"
                  },
                  "name": "Pizza Pizza",
                  "popularity": 0.968454295987888,
                  "price": 1,
                  "rating": 6.7
            },
            {
                  "distance": 844,
                  "location": {
                        "address": "8300 Newman Blvd",
                        "country": "CA",
                        "cross_street": "Rue Lise",
                        "formatted_address": "8300 Newman Blvd (Rue Lise), Lasalle QC H8N 1X9",
                        "locality": "Lasalle",
                        "postcode": "H8N 1X9",
                        "region": "QC"
                  },
                  "name": "McDonald's",
                  "popularity": 0.9986397615442847,
                  "price": 1,
                  "rating": 6.4,
                  "store_id": "2379"
            },
            {
                  "distance": 582,
                  "location": {
                        "address": "7979 Newman Blvd",
                        "country": "CA",
                        "cross_street": "",
                        "formatted_address": "7979 Newman Blvd, Lasalle QC H8N 2N9",
                        "locality": "Lasalle",
                        "postcode": "H8N 2N9",
                        "region": "QC"
                  },
                  "name": "R\u00f4tisserie St-Hubert",
                  "popularity": 0.9909632853898561,
                  "price": 2,
                  "rating": 6.4,
                  "store_id": "100089"
            },
            {
                  "distance": 2333532,
                  "location": {
                        "address": "7610 Newman Blvd",
                        "country": "CA",
                        "cross_street": "",
                        "formatted_address": "7610 Newman Blvd, Lasalle QC H8N 1X8",
                        "locality": "Lasalle",
                        "postcode": "H8N 1X8",
                        "region": "QC"
                  },
                  "name": "A&W Restaurant",
                  "popularity": 0.9333333333333333,
                  "price": 1,
                  "rating": 6.4
            },
            {
                  "distance": 214,
                  "location": {
                        "address": "7401 Newman Blvd",
                        "country": "CA",
                        "cross_street": "L\u00e9ger",
                        "formatted_address": "7401 Newman Blvd (L\u00e9ger), Lasalle QC H8N 1X3",
                        "locality": "Lasalle",
                        "postcode": "H8N 1X3",
                        "region": "QC"
                  },
                  "name": "Restaurant Eggsquis",
                  "popularity": 0.9301073996971991,
                  "price": 1,
                  "rating": 6.3
            },
            {
                  "distance": 697,
                  "location": {
                        "address": "7165 Newman Blvd",
                        "country": "CA",
                        "cross_street": "Rue Senkus",
                        "formatted_address": "7165 Newman Blvd (Rue Senkus), Lasalle QC H8N 2K3",
                        "locality": "Lasalle",
                        "postcode": "H8N 2K3",
                        "region": "QC"
                  },
                  "name": "Fu Lam",
                  "popularity": 0.3757333459500378,
                  "rating": 6.2
            },
            {
                  "distance": 863,
                  "location": {
                        "address": "1551 Shevchenko Blvd",
                        "country": "CA",
                        "cross_street": "",
                        "formatted_address": "1551 Shevchenko Blvd, Lasalle QC H8N 1P3",
                        "locality": "Lasalle",
                        "postcode": "H8N 1P3",
                        "region": "QC"
                  },
                  "name": "KFC",
                  "popularity": 0.9971967259651779,
                  "price": 1,
                  "rating": 6.0,
                  "store_id": "1264"
            },
            {
                  "distance": 534,
                  "location": {
                        "address": "7218 Newman Blvd",
                        "country": "CA",
                        "cross_street": "L\u00e9ger",
                        "formatted_address": "7218 Newman Blvd (L\u00e9ger), Lasalle QC H8N 1X2",
                        "locality": "Lasalle",
                        "postcode": "H8N 1X2",
                        "region": "QC"
                  },
                  "name": "Casa Grecque",
                  "popularity": 0.9855933005299016,
                  "price": 2,
                  "rating": 5.8
            },
            {
                  "distance": 469,
                  "location": {
                        "address": "7881 Newman Blvd",
                        "country": "CA",
                        "cross_street": "Thierry",
                        "formatted_address": "7881 Newman Blvd (Thierry), Lasalle QC H8N 1X7",
                        "locality": "Lasalle",
                        "postcode": "H8N 1X7",
                        "region": "QC"
                  },
                  "name": "Harvey's",
                  "popularity": 0.9896148750946253,
                  "price": 1,
                  "rating": 5.6
            },
            {
                  "distance": 133,
                  "location": {
                        "address": "1715 Thierry Rue",
                        "country": "CA",
                        "cross_street": "Dollard",
                        "formatted_address": "1715 Thierry Rue (Dollard), Lasalle QC H8N 1H6",
                        "locality": "Lasalle",
                        "postcode": "H8N 1H6",
                        "region": "QC"
                  },
                  "name": "Marchigiani",
                  "popularity": 0.22067799015897047,
                  "price": 2
            },
            {
                  "distance": 146,
                  "location": {
                        "address": "7610 Newman Blvd",
                        "country": "CA",
                        "cross_street": "",
                        "formatted_address": "7610 Newman Blvd, Lasalle QC H8N 1X8",
                        "locality": "Lasalle",
                        "postcode": "H8N 1X8",
                        "region": "QC"
                  },
                  "name": "A&W Restaurant",
                  "popularity": 0.9892482021196064,
                  "price": 1,
                  "store_id": "5721"
            },
            {
                  "distance": 365,
                  "location": {
                        "address": "7757 Newman Blvd",
                        "country": "CA",
                        "cross_street": "",
                        "formatted_address": "7757 Newman Blvd, Lasalle QC H8N 1X7",
                        "locality": "Lasalle",
                        "postcode": "H8N 1X7",
                        "region": "QC"
                  },
                  "name": "Restaurant Boustan",
                  "popularity": 0.9763318508705526
            },
            {
                  "distance": 380,
                  "location": {
                        "address": "7763 Newman Blvd",
                        "country": "CA",
                        "cross_street": "",
                        "formatted_address": "7763 Newman Blvd, Montr\u00e9al QC",
                        "locality": "Montreal",
                        "region": "QC"
                  },
                  "name": "Sushi Newman",
                  "popularity": 0.6568414080242241,
                  "price": 2
            },
            {
                  "distance": 411,
                  "location": {
                        "address": "1719 Thierry Rue",
                        "country": "CA",
                        "formatted_address": "1719 Thierry Rue, Lasalle QC H8N 1H6",
                        "locality": "Lasalle",
                        "postcode": "H8N 1H6",
                        "region": "QC"
                  },
                  "name": "Caffe Riccia",
                  "popularity": 0.9832868092354277,
                  "price": 1
            },
            {
                  "distance": 414,
                  "location": {
                        "address": "1715 Thierry Rue",
                        "country": "CA",
                        "formatted_address": "1715 Thierry Rue, Lasalle QC H8N 1H6",
                        "locality": "Lasalle",
                        "postcode": "H8N 1H6",
                        "region": "QC"
                  },
                  "name": "Boucherie Marchigiani",
                  "popularity": 0.9712102573807722,
                  "price": 2
            },
            {
                  "distance": 421,
                  "location": {
                        "address": "7401 Newman Blvd",
                        "country": "CA",
                        "cross_street": "",
                        "formatted_address": "7401 Newman Blvd, Montr\u00e9al QC H8N 1X3",
                        "locality": "Montreal",
                        "postcode": "H8N 1X3",
                        "region": "QC"
                  },
                  "name": "Chez Ping",
                  "popularity": 0.9434495647236941,
                  "price": 2
            },
            {
                  "distance": 459,
                  "location": {
                        "address": "2046 Lapierre Rue",
                        "country": "CA",
                        "cross_street": "",
                        "formatted_address": "2046 Lapierre Rue, Lasalle QC H8N 2S2",
                        "locality": "Lasalle",
                        "postcode": "H8N 2S2",
                        "region": "QC"
                  },
                  "name": "Sous le Palmier",
                  "popularity": 0.6252365632096897,
                  "price": 2
            },
            {
                  "distance": 578,
                  "location": {
                        "address": "2000 Lapierre Rue",
                        "country": "CA",
                        "cross_street": "",
                        "formatted_address": "2000 Lapierre Rue, Lasalle QC H8N 1A9",
                        "locality": "Lasalle",
                        "postcode": "H8N 1A9",
                        "region": "QC"
                  },
                  "name": "Agence de Q-Bec Service a Cafe",
                  "popularity": 0.48881056018168056
            },
            {
                  "distance": 643,
                  "location": {
                        "address": "8051 Newman Blvd",
                        "country": "CA",
                        "cross_street": "",
                        "formatted_address": "8051 Newman Blvd, Lasalle QC H8N 2N9",
                        "locality": "Lasalle",
                        "postcode": "H8N 2N9",
                        "region": "QC"
                  },
                  "name": "Arahova Souvlaki",
                  "popularity": 0.9331354087812264,
                  "price": 2
            },
            {
                  "distance": 650,
                  "location": {
                        "address": "8061 Newman Blvd",
                        "country": "CA",
                        "cross_street": "",
                        "formatted_address": "8061 Newman Blvd, Lasalle QC H8N 2N9",
                        "locality": "Lasalle",
                        "postcode": "H8N 2N9",
                        "region": "QC"
                  },
                  "name": "Sushi Shop",
                  "popularity": 0.9585186411809236,
                  "price": 2
            },
            {
                  "distance": 662,
                  "location": {
                        "address": "1701 Lapierre Rue",
                        "country": "CA",
                        "cross_street": "at Jean-Chevalier",
                        "formatted_address": "1701 Lapierre Rue (at Jean-Chevalier), Lasalle QC H8N 2M4",
                        "locality": "Lasalle",
                        "postcode": "H8N 2M4",
                        "region": "QC"
                  },
                  "name": "Caf\u00e9 Pete'S Bar",
                  "popularity": 0.01359055639666919,
                  "price": 1
            },
            {
                  "distance": 702,
                  "location": {
                        "address": "8071 Newman Blvd",
                        "country": "CA",
                        "cross_street": "",
                        "formatted_address": "8071 Newman Blvd, Lasalle QC H8N 2N9",
                        "locality": "Lasalle",
                        "postcode": "H8N 2N9",
                        "region": "QC"
                  },
                  "name": "Thai Express",
                  "popularity": 0.9266417486752461,
                  "price": 2
            },
            {
                  "distance": 806,
                  "location": {
                        "address": "1443 Shevchenko Blvd",
                        "country": "CA",
                        "cross_street": "",
                        "formatted_address": "1443 Shevchenko Blvd, Lasalle QC H8N 1P2",
                        "locality": "Lasalle",
                        "postcode": "H8N 1P2",
                        "region": "QC"
                  },
                  "name": "Restaurant Nouveau Lasalle",
                  "popularity": 0.8653245647236941,
                  "price": 1
            },
            {
                  "distance": 835,
                  "location": {
                        "address": "1475 Shevchenko Blvd",
                        "country": "CA",
                        "cross_street": "",
                        "formatted_address": "1475 Shevchenko Blvd, Lasalle QC H8N 1P2",
                        "locality": "Lasalle",
                        "postcode": "H8N 1P2",
                        "region": "QC"
                  },
                  "name": "New Lasalle Restaurant Pizzeria",
                  "popularity": 0.9550766464799394,
                  "price": 1
            },
            {
                  "distance": 838,
                  "location": {
                        "address": "8171 Newman Blvd",
                        "country": "CA",
                        "cross_street": "",
                        "formatted_address": "8171 Newman Blvd, Lasalle QC H8N 1Y1",
                        "locality": "Lasalle",
                        "postcode": "H8N 1Y1",
                        "region": "QC"
                  },
                  "name": "Chez Lien",
                  "popularity": 0.9402796177138532,
                  "price": 2
            },
            {
                  "distance": 871,
                  "location": {
                        "address": "8201 Newman Blvd",
                        "country": "CA",
                        "cross_street": "Rue Lise",
                        "formatted_address": "8201 Newman Blvd (Rue Lise), Lasalle QC H8N 1Y1",
                        "locality": "Lasalle",
                        "postcode": "H8N 1Y1",
                        "region": "QC"
                  },
                  "name": "Restaurant la Belle Province",
                  "popularity": 0.9881008705526116,
                  "price": 1
            },
            {
                  "distance": 164,
                  "location": {
                        "address": "7500 Newman Blvd",
                        "country": "CA",
                        "formatted_address": "7500 Newman Blvd, Lasalle QC H8N 1X2",
                        "locality": "Lasalle",
                        "postcode": "H8N 1X2",
                        "region": "QC"
                  },
                  "name": "Restaurant Peddlers"
            },
            {
                  "distance": 230,
                  "location": {
                        "address": "7077 Newman Blvd",
                        "address_extended": "Carrefour Angrignon",
                        "country": "CA",
                        "formatted_address": "7077 Newman Blvd, Montreal QC H8N 1X1",
                        "locality": "Montreal",
                        "postcode": "H8N 1X1",
                        "region": "QC"
                  },
                  "name": "La Cage \u2013 Brasserie Sportive"
            },
            {
                  "distance": 249,
                  "location": {
                        "address": "7569 Newman Blvd",
                        "country": "CA",
                        "formatted_address": "7569 Newman Blvd, Lasalle QC H8N 1X3",
                        "locality": "Lasalle",
                        "postcode": "H8N 1X3",
                        "region": "QC"
                  },
                  "name": "Maison Wok"
            },
            {
                  "distance": 316,
                  "location": {
                        "address": "7761 Newman Blvd",
                        "country": "CA",
                        "formatted_address": "7761 Newman Blvd, Lasalle QC H8N 1X7",
                        "locality": "Lasalle",
                        "postcode": "H8N 1X7",
                        "region": "QC"
                  },
                  "name": "Domino's Pizza"
            },
            {
                  "distance": 359,
                  "location": {
                        "address": "7763 Newman Blvd",
                        "country": "CA",
                        "formatted_address": "7763 Newman Blvd, Lasalle QC H8N 1X7",
                        "locality": "Lasalle",
                        "postcode": "H8N 1X7",
                        "region": "QC"
                  },
                  "name": "Sushi Newman"
            }
      ],
      "context": {
            "geo_bounds": {
                  "circle": {
                        "center": {
                              "latitude": 45.43854405,
                              "longitude": -73.62021625
                        },
                        "radius": 1000
                  }
            }
      }
}