{
      "results": [
            {
                  "distance": 454,
                  "location": {
                        "address": "2373 Marcel-Laurin Blvd",
                        "country": "CA",
                        "cross_street": "Laval",
                        "formatted_address": "2373 Marcel-Laurin Blvd (Laval), Montr\u00e9al QC H4R 1K4",
                        "locality": "Montreal",
                        "postcode": "H4R 1K4",
                        "region": "QC"
                  },
                  "name": "Restaurant Daou",
                  "popularity": 0.9962623012869039,
                  "price": 2,
                  "rating": 8.7
            },
            {
                  "distance": 323,
                  "location": {
                        "address": "1625 Marcel-Laurin Blvd",
                        "country": "CA",
                        "cross_street": "",
                        "formatted_address": "1625 Marcel-Laurin Blvd, Saint-Laurent QC H4R 0B7",
                        "locality": "Saint-Laurent",
                        "postcode": "H4R 0B7",
                        "region": "QC"
                  },
                  "name": "Lylac",
                  "popularity": 0.9968182248296745,
                  "price": 1,
                  "rating": 8.5
            },
            {
                  "distance": 118,
                  "location": {
                        "address": "1676 Poirier Rue",
                        "country": "CA",
                        "cross_street": "Crevier",
                        "formatted_address": "1676 Poirier Rue (Crevier), Saint-Laurent QC H4L 1J3",
                        "locality": "Saint-Laurent",
                        "postcode": "H4L 1J3",
                        "region": "QC"
                  },
                  "name": "Restaurant Asie Moderne",
                  "popularity": 0.9916848031794095,
                  "price": 1,
                  "rating": 8.2
            },
            {
                  "distance": 826,
                  "location": {
                        "address": "1928 Thimens Blvd",
                        "country": "CA",
                        "cross_street": "Marcel-Laurin",
                        "formatted_address": "1928 Thimens Blvd (Marcel-Laurin), Montr\u00e9al QC H4R 1K2",
                        "locality": "Montreal",
                        "postcode": "H4R 1K2",
                        "region": "QC"
                  },
                  "name": "Ben & Florentine",
                  "popularity": 0.9675908402725208,
                  "price": 1,
                  "rating": 7.3,
                  "store_id": "004"
            },
            {
                  "distance": 353,
                  "location": {
                        "address": "1555 Marcel-Laurin Blvd",
                        "country": "CA",
                        "formatted_address": "1555 Marcel-Laurin Blvd, Saint-Laurent QC H4R 0B7",
                        "locality": "Saint-Laurent",
                        "postcode": "H4R 0B7",
                        "region": "QC"
                  },
                  "name": "Second Cup CAF\u00c9 & Cie",
                  "popularity": 0.9503690386071159,
                  "price": 1,
                  "rating": 7.2
            },
            {
                  "distance": 852,
                  "location": {
                        "address": "1300 Marcel-Laurin Blvd",
                        "country": "CA",
                        "cross_street": "",
                        "formatted_address": "1300 Marcel-Laurin Blvd, Saint-Laurent QC H4R 1J9",
                        "locality": "Saint-Laurent",
                        "postcode": "H4R 1J9",
                        "region": "QC"
                  },
                  "name": "St-Hubert Express",
                  "popularity": 0.9805899886449659,
                  "price": 2,
                  "rating": 6.5,
                  "store_id": "100288"
            },
            {
                  "distance": 168,
                  "location": {
                        "address": "1997 Marcel-Laurin Blvd",
                        "country": "CA",
                        "cross_street": "",
                        "formatted_address": "1997 Marcel-Laurin Blvd, Saint-Laurent QC H4R 1K4",
                        "locality": "Saint-Laurent",
                        "postcode": "H4R 1K4",
                        "region": "QC"
                  },
                  "name": "Restaurant Au Vieux Duluth",
                  "popularity": 0.9025714420893263,
                  "price": 2,
                  "rating": 5.9
            },
            {
                  "distance": 114,
                  "location": {
                        "address": "1995 Marcel-Laurin Blvd",
                        "country": "CA",
                        "cross_street": "Poirier",
                        "formatted_address": "1995 Marcel-Laurin Blvd (Poirier), Saint-Laurent QC H4R 1K4",
                        "locality": "Saint-Laurent",
                        "postcode": "H4R 1K4",
                        "region": "QC"
                  },
                  "name": "Thai Express",
                  "popularity": 0.8191237698713096,
                  "price": 2,
                  "rating": 5.8,
                  "store_id": "95"
            },
            {
                  "distance": 431,
                  "location": {
                        "address": "2323 Marcel-Laurin Blvd",
                        "country": "CA",
                        "cross_street": "",
                        "formatted_address": "2323 Marcel-Laurin Blvd, Saint-Laurent QC H4R 1K4",
                        "locality": "Saint-Laurent",
                        "postcode": "H4R 1K4",
                        "region": "QC"
                  },
                  "name": "Tim Hortons",
                  "popularity": 0.9874621498864496,
                  "price": 1,
                  "rating": 5.4
            },
            {
                  "distance": 102,
                  "location": {
                        "address": "1991 Marcel-Laurin Blvd",
                        "country": "CA",
                        "cross_street": "",
                        "formatted_address": "1991 Marcel-Laurin Blvd, Saint-Laurent QC H4R 1K4",
                        "locality": "Saint-Laurent",
                        "postcode": "H4R 1K4",
                        "region": "QC"
                  },
                  "name": "Nickels Deli - Saint-Laurent",
                  "popularity": 0.9041564155942468,
                  "price": 2,
                  "rating": 5.3
            },
            {
                  "distance": 55,
                  "location": {
                        "address": "1771 Grenet Rue",
                        "country": "CA",
                        "cross_street": "",
                        "formatted_address": "1771 Grenet Rue, Saint-Laurent QC H4L 2R6",
                        "locality": "Saint-Laurent",
                        "postcode": "H4L 2R6",
                        "region": "QC"
                  },
                  "name": "Restaurant Amara",
                  "popularity": 0.7435063398940197,
                  "price": 2
            },
            {
                  "distance": 68,
                  "location": {
                        "address": "1803 Poirier Rue",
                        "country": "CA",
                        "cross_street": "",
                        "formatted_address": "1803 Poirier Rue, Montr\u00e9al QC H4R 1K4",
                        "locality": "Montreal",
                        "postcode": "H4R 1K4",
                        "region": "QC"
                  },
                  "name": "Restaurant Miran",
                  "popularity": 0.8331164837244511,
                  "price": 2
            },
            {
                  "distance": 87,
                  "location": {
                        "address": "1775 Grenet Rue",
                        "country": "CA",
                        "cross_street": "Poirier",
                        "formatted_address": "1775 Grenet Rue (Poirier), Cartierville QC H4L 2R6",
                        "locality": "Cartierville",
                        "postcode": "H4L 2R6",
                        "region": "QC"
                  },
                  "name": "Express Pizza & Poulet",
                  "popularity": 0.5642505677517032,
                  "price": 1
            },
            {
                  "distance": 150,
                  "location": {
                        "address": "1995 Marcel-Laurin Blvd",
                        "country": "CA",
                        "cross_street": "",
                        "formatted_address": "1995 Marcel-Laurin Blvd, Saint-Laurent QC H4R 1K4",
                        "locality": "Saint-Laurent",
                        "postcode": "H4R 1K4",
                        "region": "QC"
                  },
                  "name": "Villa Madina",
                  "popularity": 0.2170822293716881,
                  "price": 2
            },
            {
                  "distance": 286,
                  "location": {
                        "address": "2135 Marcel Laurin Blvd",
                        "country": "CA",
                        "cross_street": "",
                        "formatted_address": "2135 Marcel Laurin Blvd, Montr\u00e9al QC H4R 1K4",
                        "locality": "Montreal",
                        "postcode": "H4R 1K4",
                        "region": "QC"
                  },
                  "name": "Hibi Korean BBQ",
                  "popularity": 0.36023845571536717,
                  "price": 2
            },
            {
                  "distance": 373,
                  "location": {
                        "address": "2245 Marcel-Laurin Blvd",
                        "address_extended": "Galeries St Laurent",
                        "country": "CA",
                        "formatted_address": "2245 Marcel-Laurin Blvd, Saint-Laurent QC H4R 1K4",
                        "locality": "Saint-Laurent",
                        "postcode": "H4R 1K4",
                        "region": "QC"
                  },
                  "name": "Sushi Shop",
                  "popularity": 0.9704414269492808,
                  "price": 2
            },
            {
                  "distance": 379,
                  "location": {
                        "address": "1709 Poirier Rue",
                        "country": "CA",
                        "cross_street": "",
                        "formatted_address": "1709 Poirier Rue, Saint-Laurent QC H4L 1J4",
                        "locality": "Saint-Laurent",
                        "postcode": "H4L 1J4",
                        "region": "QC"
                  },
                  "name": "Domino's Pizza",
                  "popularity": 0.9292794284632854,
                  "price": 1,
                  "store_id": "10722"
            },
            {
                  "distance": 396,
                  "location": {
                        "address": "1720 d'Oxford Rue",
                        "country": "CA",
                        "formatted_address": "1720 d'Oxford Rue, Montr\u00e9al QC H4L 1B6",
                        "locality": "Montreal",
                        "postcode": "H4L 1B6",
                        "region": "QC"
                  },
                  "name": "Restaurant Tandoor Plus",
                  "popularity": 0.9103188872066617,
                  "price": 2
            },
            {
                  "distance": 732,
                  "location": {
                        "address": "1805 O'Brien Ave",
                        "country": "CA",
                        "cross_street": "",
                        "formatted_address": "1805 O'Brien Ave, Montr\u00e9al QC H4L 3W6",
                        "locality": "Montreal",
                        "postcode": "H4L 3W6",
                        "region": "QC"
                  },
                  "name": "Mamma's Restaurant Pizzeria",
                  "popularity": 0.5918929788039364,
                  "price": 2
            },
            {
                  "distance": 819,
                  "location": {
                        "address": "1898 Thimens Blvd",
                        "country": "CA",
                        "cross_street": "Marcel-Laurin",
                        "formatted_address": "1898 Thimens Blvd (Marcel-Laurin), Montr\u00e9al QC H4R 2K2",
                        "locality": "Montreal",
                        "postcode": "H4R 2K2",
                        "region": "QC"
                  },
                  "name": "Trattoria la Villetta",
                  "popularity": 0.9578799205147616,
                  "price": 3
            },
            {
                  "distance": 823,
                  "location": {
                        "address": "1320 Marcel-Laurin Blvd",
                        "country": "CA",
                        "cross_street": "",
                        "formatted_address": "1320 Marcel-Laurin Blvd, Montr\u00e9al QC H4R 1J9",
                        "locality": "Montreal",
                        "postcode": "H4R 1J9",
                        "region": "QC"
                  },
                  "name": "Premi\u00e8re Fondue",
                  "popularity": 0.9437925813777441
            },
            {
                  "distance": 1004,
                  "location": {
                        "address": "5291 Henri-Bourassa Blvd O",
                        "country": "CA",
                        "formatted_address": "5291 Henri-Bourassa Blvd O, Saint-Laurent QC H4R 1B7",
                        "locality": "Saint-Laurent",
                        "postcode": "H4R 1B7",
                        "region": "QC"
                  },
                  "name": "Ristorante Vino Rosso",
                  "popularity": 0.9803770817562453,
                  "price": 3
            },
            {
                  "distance": 109,
                  "location": {
                        "address": "1991 Marcel-Laurin Blvd",
                        "country": "CA",
                        "formatted_address": "1991 Marcel-Laurin Blvd, Saint-Laurent QC H4R 1K4",
                        "locality": "Saint-Laurent",
                        "postcode": "H4R 1K4",
                        "region": "QC"
                  },
                  "name": "Nickels Deli & Bar"
            },
            {
                  "distance": 132,
                  "location": {
                        "address": "1771 Grenet Rue",
                        "country": "CA",
                        "formatted_address": "1771 Grenet Rue, Saint-Laurent QC H4L 2R6",
                        "locality": "Saint-Laurent",
                        "postcode": "H4L 2R6",
                        "region": "QC"
                  },
                  "name": "Domino's Pizza"
            },
            {
                  "distance": 141,
                  "location": {
                        "address": "H4L MONTR\u00e9AL",
                        "country": "CA",
                        "formatted_address": "H4L MONTR\u00e9AL, Montreal QC",
                        "locality": "Montreal",
                        "region": "QC"
                  },
                  "name": "Restaurant Au Vieux Duluth"
            },
            {
                  "distance": 153,
                  "location": {
                        "address": "2167 Marcel Laurin Blvd",
                        "country": "CA",
                        "formatted_address": "2167 Marcel Laurin Blvd, Montreal QC H4R 1K4",
                        "locality": "Montreal",
                        "postcode": "H4R 1K4",
                        "region": "QC"
                  },
                  "name": "Dagwoods"
            },
            {
                  "distance": 175,
                  "location": {
                        "address": "1991 Marcel-Laurin Blvd",
                        "country": "CA",
                        "formatted_address": "1991 Marcel-Laurin Blvd, Saint-Laurent QC H4R 1K4",
                        "locality": "Saint-Laurent",
                        "postcode": "H4R 1K4",
                        "region": "QC"
                  },
                  "name": "Nickels Resto Bar St-Laurent"
            },
            {
                  "distance": 175,
                  "location": {
                        "address": "1991 Marcel-Laurin Blvd",
                        "country": "CA",
                        "formatted_address": "1991 Marcel-Laurin Blvd, Saint-Laurent QC",
                        "locality": "Saint-Laurent",
                        "region": "QC"
                  },
                  "name": "Nickels Deli & Grillade"
            },
            {
                  "distance": 218,
                  "location": {
                        "address": "2015 Marcel-Laurin Blvd",
                        "country": "CA",
                        "formatted_address": "2015 Marcel-Laurin Blvd, Saint-Laurent QC H4R 1K4",
                        "locality": "Saint-Laurent",
                        "postcode": "H4R 1K4",
                        "region": "QC"
                  },
                  "name": "Dagwoods Sandwichs et Salades"
            },
            {
                  "distance": 365,
                  "location": {
                        "address": "2167 Marcel Laurin Blvd",
                        "country": "CA",
                        "formatted_address": "2167 Marcel Laurin Blvd, Saint-Laurent QC H4R 1K4",
                        "locality": "Saint-Laurent",
                        "postcode": "H4R 1K4",
                        "region": "QC"
                  },
                  "name": "Cafe la Gourmandise"
            },
            {
                  "distance": 386,
                  "location": {
                        "address": "1700 d'Oxford Rue",
                        "country": "CA",
                        "formatted_address": "1700 d'Oxford Rue, Saint-Laurent QC H4L 1B6",
                        "locality": "Saint-Laurent",
                        "postcode": "H4L 1B6",
                        "region": "QC"
                  },
                  "name": "Wifi Pizza"
            },
            {
                  "distance": 400,
                  "location": {
                        "address": "2275 Marcel-Laurin Blvd",
                        "country": "CA",
                        "formatted_address": "2275 Marcel-Laurin Blvd, Saint-Laurent QC H4R 1K4",
                        "locality": "Saint-Laurent",
                        "postcode": "H4R 1K4",
                        "region": "QC"
                  },
                  "name": "Rotisserie Ebal"
            },
            {
                  "distance": 418,
                  "location": {
                        "address": "2245 Marcel-Laurin Blvd",
                        "country": "CA",
                        "formatted_address": "2245 Marcel-Laurin Blvd, Saint-Laurent QC H4R 1K4",
                        "locality": "Saint-Laurent",
                        "postcode": "H4R 1K4",
                        "region": "QC"
                  },
                  "name": "Sushi Shop Saint Laurent"
            },
            {
                  "distance": 591,
                  "location": {
                        "address": "1555 Marcel Laurin",
                        "country": "CA",
                        "formatted_address": "1555 Marcel Laurin, Saint-Laurent QC H4R 0B7",
                        "locality": "Saint-Laurent",
                        "postcode": "H4R 0B7",
                        "region": "QC"
                  },
                  "name": "Second Cup Caf\u00e9"
            },
            {
                  "distance": 846,
                  "location": {
                        "address": "1375 Grenet Rue",
                        "country": "CA",
                        "formatted_address": "1375 Grenet Rue, Saint-Laurent QC H4L 5K3",
                        "locality": "Saint-Laurent",
                        "postcode": "H4L 5K3",
                        "region": "QC"
                  },
                  "name": "Cafe Mauro"
            }
      ],
      "context": {
            "geo_bounds": {
                  "circle": {
                        "center": {
                              "latitude": 45.51871925,
                              "longitude": -73.69875401
                        },
                        "radius": 1000
                  }
            }
      }
}