{
      "results": [
            {
                  "distance": 874,
                  "location": {
                        "address": "45 Mozart Ave O",
                        "country": "CA",
                        "cross_street": "",
                        "formatted_address": "45 Mozart Ave O, Montr\u00e9al QC H2S 1C1",
                        "locality": "Montreal",
                        "postcode": "H2S 1C1",
                        "region": "QC"
                  },
                  "name": "Marconi",
                  "popularity": 0.9417699659348978,
                  "price": 2,
                  "rating": 9.2
            },
            {
                  "distance": 979,
                  "location": {
                        "address": "6840 Saint-Laurent Blvd",
                        "country": "CA",
                        "formatted_address": "6840 Saint-Laurent Blvd, Montr\u00e9al QC H2S 3C7",
                        "locality": "Montreal",
                        "postcode": "H2S 3C7",
                        "region": "QC"
                  },
                  "name": "Cafe Italia",
                  "popularity": 0.9526163890991673,
                  "price": 1,
                  "rating": 9.1
            },
            {
                  "distance": 700,
                  "location": {
                        "address": "7032 Waverly Rue",
                        "country": "CA",
                        "cross_street": "",
                        "formatted_address": "7032 Waverly Rue, Montr\u00e9al QC H2S 3J2",
                        "locality": "Montreal",
                        "postcode": "H2S 3J2",
                        "region": "QC"
                  },
                  "name": "D\u00e9panneur le Pick Up",
                  "popularity": 0.9210233724451173,
                  "price": 1,
                  "rating": 9.0
            },
            {
                  "distance": 787,
                  "location": {
                        "address": "95 Jean-Talon Rue O",
                        "country": "CA",
                        "cross_street": "Saint-Urbain",
                        "formatted_address": "95 Jean-Talon Rue O (Saint-Urbain), Montr\u00e9al QC H2R 2W8",
                        "locality": "Montreal",
                        "postcode": "H2R 2W8",
                        "region": "QC"
                  },
                  "name": "Brasserie Harricana",
                  "popularity": 0.95985522331567,
                  "rating": 8.8
            },
            {
                  "distance": 967,
                  "location": {
                        "address": "6704 Clark Rue",
                        "country": "CA",
                        "cross_street": "coin St-Zotique",
                        "formatted_address": "6704 Clark Rue (coin St-Zotique), Montr\u00e9al QC H2S 3E9",
                        "locality": "Montreal",
                        "postcode": "H2S 3E9",
                        "region": "QC"
                  },
                  "name": "Dinette Triple Crown",
                  "popularity": 0.9051618092354277,
                  "price": 2,
                  "rating": 8.7
            },
            {
                  "distance": 923,
                  "location": {
                        "address": "7129 Saint-Laurent Blvd",
                        "address_extended": "Coin avenue Shamrock",
                        "country": "CA",
                        "cross_street": "Coin avenue Shamrock",
                        "formatted_address": "7129 Saint-Laurent Blvd (Coin avenue Shamrock), Montr\u00e9al QC H2S 0B2",
                        "locality": "Montreal",
                        "postcode": "H2S 0B2",
                        "region": "QC"
                  },
                  "name": "Birra",
                  "popularity": 0.9695779712339136,
                  "price": 2,
                  "rating": 8.6
            },
            {
                  "distance": 339,
                  "location": {
                        "address": "1001 Jean-Talon Rue O",
                        "country": "CA",
                        "cross_street": "at Birnam",
                        "formatted_address": "1001 Jean-Talon Rue O (at Birnam), Montr\u00e9al QC H3N 1T2",
                        "locality": "Montreal",
                        "postcode": "H3N 1T2",
                        "region": "QC"
                  },
                  "name": "Restaurant Bombay Mahal",
                  "popularity": 0.9612864307342922,
                  "price": 2,
                  "rating": 8.6
            },
            {
                  "distance": 8,
                  "location": {
                        "address": "654 Jean-Talon Rue O",
                        "country": "CA",
                        "cross_street": "",
                        "formatted_address": "654 Jean-Talon Rue O, Montr\u00e9al QC H3N 1R7",
                        "locality": "Montreal",
                        "postcode": "H3N 1R7",
                        "region": "QC"
                  },
                  "name": "Restaurant Village Grecque Inc",
                  "popularity": 0.9827663701741105,
                  "price": 2,
                  "rating": 8.1
            },
            {
                  "distance": 322,
                  "location": {
                        "address": "996 Jean-Talon Rue O",
                        "country": "CA",
                        "cross_street": "Brinam",
                        "formatted_address": "996 Jean-Talon Rue O (Brinam), Montr\u00e9al QC H3N 1S8",
                        "locality": "Montreal",
                        "postcode": "H3N 1S8",
                        "region": "QC"
                  },
                  "name": "Indian Curry House",
                  "popularity": 0.9859244890234671,
                  "price": 1,
                  "rating": 8.1
            },
            {
                  "distance": 465,
                  "location": {
                        "address": "386 Beaumont Ave",
                        "country": "CA",
                        "cross_street": "",
                        "formatted_address": "386 Beaumont Ave, Montr\u00e9al QC H3N 1T4",
                        "locality": "Montreal",
                        "postcode": "H3N 1T4",
                        "region": "QC"
                  },
                  "name": "Denise",
                  "popularity": 0.9686553747161242,
                  "price": 2,
                  "rating": 7.9
            },
            {
                  "distance": 531,
                  "location": {
                        "address": "7335 Rue du Mile-End",
                        "country": "CA",
                        "cross_street": "Rue de Castelnau",
                        "formatted_address": "7335 Rue du Mile-End (Rue de Castelnau), Montr\u00e9al QC H2R 2Z7",
                        "locality": "Montreal",
                        "postcode": "H2R 2Z7",
                        "region": "QC"
                  },
                  "name": "Caf\u00e9 St-Henri HQ",
                  "popularity": 0.9647993943981832,
                  "price": 1,
                  "rating": 7.7
            },
            {
                  "distance": 1004,
                  "location": {
                        "address": "550 Jarry Rue O",
                        "country": "CA",
                        "cross_street": "Qurbes",
                        "formatted_address": "550 Jarry Rue O (Qurbes), Montr\u00e9al QC H3N 1E9",
                        "locality": "Montreal",
                        "postcode": "H3N 1E9",
                        "region": "QC"
                  },
                  "name": "Restaurant Elatos Souvlaki",
                  "popularity": 0.9974569454958365,
                  "price": 2,
                  "rating": 7.6
            },
            {
                  "distance": 475,
                  "location": {
                        "address": "679 Saint-Roch Rue",
                        "country": "CA",
                        "cross_street": "Bloomfield",
                        "formatted_address": "679 Saint-Roch Rue (Bloomfield), Montr\u00e9al QC H3N 1L2",
                        "locality": "Montreal",
                        "postcode": "H3N 1L2",
                        "region": "QC"
                  },
                  "name": "Tripoli Restaurant",
                  "popularity": 0.860676097653293,
                  "price": 2,
                  "rating": 7.2
            },
            {
                  "distance": 227,
                  "location": {
                        "address": "414 Jean-Talon Rue O",
                        "country": "CA",
                        "cross_street": "",
                        "formatted_address": "414 Jean-Talon Rue O, Montr\u00e9al QC H3N 1R2",
                        "locality": "Montreal",
                        "postcode": "H3N 1R2",
                        "region": "QC"
                  },
                  "name": "Pizza Pizza",
                  "popularity": 0.8882120552611658,
                  "price": 1,
                  "rating": 7.0,
                  "store_id": "310"
            },
            {
                  "distance": 240,
                  "location": {
                        "address": "431 Jean-Talon Rue O",
                        "country": "CA",
                        "cross_street": "entre Hutchison & Durocher",
                        "formatted_address": "431 Jean-Talon Rue O (entre Hutchison & Durocher), Montr\u00e9al QC H3N 1P9",
                        "locality": "Montreal",
                        "postcode": "H3N 1P9",
                        "region": "QC"
                  },
                  "name": "Restaurant Lyla",
                  "popularity": 0.9708908970476912,
                  "price": 2,
                  "rating": 6.8
            },
            {
                  "distance": 866,
                  "location": {
                        "address": "5660 Cote-Des-Neiges",
                        "country": "CA",
                        "cross_street": "Cote st catherine",
                        "formatted_address": "5660 Cote-Des-Neiges (Cote st catherine), Montr\u00e9al QC H3T 2A8",
                        "locality": "Montreal",
                        "postcode": "H3T 2A8",
                        "region": "QC"
                  },
                  "name": "Thai Express",
                  "popularity": 0.308987036336109,
                  "price": 2,
                  "rating": 6.3
            },
            {
                  "distance": 1001,
                  "location": {
                        "address": "790 Jarry Rue O",
                        "country": "CA",
                        "cross_street": "",
                        "formatted_address": "790 Jarry Rue O, Montr\u00e9al QC H3N 1G6",
                        "locality": "Montreal",
                        "postcode": "H3N 1G6",
                        "region": "QC"
                  },
                  "name": "Dera Restaurant",
                  "popularity": 0.8873840840272521,
                  "price": 2,
                  "rating": 5.3
            },
            {
                  "distance": 788,
                  "location": {
                        "address": "1300 Beaumont Ave",
                        "country": "CA",
                        "formatted_address": "1300 Beaumont Ave, Montr\u00e9al QC H3P 3E5",
                        "locality": "Montreal",
                        "postcode": "H3P 3E5",
                        "region": "QC"
                  },
                  "name": "McDonald's",
                  "popularity": 0.9923708364875095,
                  "price": 1,
                  "rating": 4.8,
                  "store_id": "5095"
            },
            {
                  "distance": 980,
                  "location": {
                        "address": "7275 Saint Laurent Blvd",
                        "country": "CA",
                        "cross_street": "coin De Castelnau",
                        "formatted_address": "7275 Saint Laurent Blvd (coin De Castelnau), Montr\u00e9al QC H2R 1W5",
                        "locality": "Montreal",
                        "postcode": "H2R 1W5",
                        "region": "QC"
                  },
                  "name": "McDonald's",
                  "popularity": 0.9951504542013626,
                  "price": 1,
                  "rating": 4.8,
                  "store_id": "7956"
            },
            {
                  "distance": 222,
                  "location": {
                        "address": "650 Beaumont Ave",
                        "country": "CA",
                        "cross_street": "",
                        "formatted_address": "650 Beaumont Ave, Montr\u00e9al QC H3N 1V5",
                        "locality": "Montreal",
                        "postcode": "H3N 1V5",
                        "region": "QC"
                  },
                  "name": "Palmyra",
                  "popularity": 0.47532645722937167,
                  "price": 1
            },
            {
                  "distance": 226,
                  "location": {
                        "address": "901 Jean-Talon Rue O",
                        "country": "CA",
                        "formatted_address": "901 Jean-Talon Rue O, Montr\u00e9al QC H3N 1S7",
                        "locality": "Montreal",
                        "postcode": "H3N 1S7",
                        "region": "QC"
                  },
                  "name": "Miss Jean Talon Restaurant",
                  "popularity": 0.8740300908402725,
                  "price": 2
            },
            {
                  "distance": 278,
                  "location": {
                        "address": "7238 Hutchison Rue",
                        "country": "CA",
                        "cross_street": "",
                        "formatted_address": "7238 Hutchison Rue, Montr\u00e9al QC H3N 1Z1",
                        "locality": "Montreal",
                        "postcode": "H3N 1Z1",
                        "region": "QC"
                  },
                  "name": "Cafe Vesuvio",
                  "popularity": 0.9779404806964421,
                  "price": 1
            },
            {
                  "distance": 301,
                  "location": {
                        "address": "975 Jean-Talon Rue O",
                        "country": "CA",
                        "cross_street": "",
                        "formatted_address": "975 Jean-Talon Rue O, Montr\u00e9al QC H3N 1S9",
                        "locality": "Montreal",
                        "postcode": "H3N 1S9",
                        "region": "QC"
                  },
                  "name": "Punjab Sweet",
                  "popularity": 0.9590154239212718,
                  "price": 2
            },
            {
                  "distance": 382,
                  "location": {
                        "address": "950 Beaumont Ave",
                        "address_extended": "Suite 105",
                        "country": "CA",
                        "cross_street": "L'Acadie Boulevard",
                        "formatted_address": "950 Beaumont Ave (L'Acadie Boulevard), Montr\u00e9al QC H3N 1V5",
                        "locality": "Montreal",
                        "postcode": "H3N 1V5",
                        "region": "QC"
                  },
                  "name": "Beau Mont",
                  "popularity": 0.9565433383800152,
                  "price": 3
            },
            {
                  "distance": 469,
                  "location": {
                        "address": "690 Saint-Roch Rue",
                        "country": "CA",
                        "cross_street": "Champagneur",
                        "formatted_address": "690 Saint-Roch Rue (Champagneur), Montr\u00e9al QC H3N 1L1",
                        "locality": "Montreal",
                        "postcode": "H3N 1L1",
                        "region": "QC"
                  },
                  "name": "CaffeNeo",
                  "popularity": 0.9985687925813778,
                  "price": 1
            },
            {
                  "distance": 481,
                  "location": {
                        "address": "1100 Beaumont Ave",
                        "country": "CA",
                        "cross_street": "Acadie",
                        "formatted_address": "1100 Beaumont Ave (Acadie), Montr\u00e9al QC H3P 3H5",
                        "locality": "Montreal",
                        "postcode": "H3P 3H5",
                        "region": "QC"
                  },
                  "name": "Cartier Caf\u00e9 BIstro",
                  "popularity": 0.9433076267978804,
                  "price": 1
            },
            {
                  "distance": 710,
                  "location": {
                        "address": "149 Jean-Talon Rue O",
                        "country": "CA",
                        "cross_street": "",
                        "formatted_address": "149 Jean-Talon Rue O, Montr\u00e9al QC H2R 2W9",
                        "locality": "Montreal",
                        "postcode": "H2R 2W9",
                        "region": "QC"
                  },
                  "name": "Restaurant Mui Mui",
                  "popularity": 0.8902938115064345,
                  "price": 2
            },
            {
                  "distance": 838,
                  "location": {
                        "address": "6512 Ave du Parc",
                        "country": "CA",
                        "cross_street": "Beaubien",
                        "formatted_address": "6512 Ave du Parc (Beaubien), Montr\u00e9al QC",
                        "locality": "Montreal",
                        "region": "QC"
                  },
                  "name": "Taverne Atlantic",
                  "popularity": 0.9683005299015897,
                  "price": 2
            },
            {
                  "distance": 886,
                  "location": {
                        "address": "6666 Saint-Urbain Rue",
                        "address_extended": "# 500",
                        "country": "CA",
                        "cross_street": "Saint-Zotique",
                        "formatted_address": "6666 Saint-Urbain Rue (Saint-Zotique), Montr\u00e9al QC H2S 3H1",
                        "locality": "Montreal",
                        "postcode": "H2S 3H1",
                        "region": "QC"
                  },
                  "name": "Bestro",
                  "popularity": 0.6648845571536715,
                  "price": 2
            },
            {
                  "distance": 962,
                  "location": {
                        "address": "6961 Saint-Laurent Blvd",
                        "country": "CA",
                        "cross_street": "Rue Belanger",
                        "formatted_address": "6961 Saint-Laurent Blvd (Rue Belanger), Montr\u00e9al QC H2S 3E1",
                        "locality": "Montreal",
                        "postcode": "H2S 3E1",
                        "region": "QC"
                  },
                  "name": "Signorvino",
                  "popularity": 0.03477479182437547,
                  "price": 2
            },
            {
                  "distance": 980,
                  "location": {
                        "address": "6778 Saint-Laurent Blvd",
                        "country": "CA",
                        "cross_street": "",
                        "formatted_address": "6778 Saint-Laurent Blvd, Montr\u00e9al QC H2S 3C7",
                        "locality": "Montreal",
                        "postcode": "H2S 3C7",
                        "region": "QC"
                  },
                  "name": "Ratafia",
                  "popularity": 0.9337268168054504,
                  "price": 1
            },
            {
                  "distance": 983,
                  "location": {
                        "address": "6660 Clark Rue",
                        "country": "CA",
                        "cross_street": "Saint-Zotique",
                        "formatted_address": "6660 Clark Rue (Saint-Zotique), Montr\u00e9al QC H2S 3E7",
                        "locality": "Montreal",
                        "postcode": "H2S 3E7",
                        "region": "QC"
                  },
                  "name": "Umami Ramen",
                  "popularity": 0.9242051476154428
            },
            {
                  "distance": 232,
                  "location": {
                        "address": "439 Jean-Talon Rue O",
                        "country": "CA",
                        "formatted_address": "439 Jean-Talon Rue O, Montreal QC H3N 1P9",
                        "locality": "Montreal",
                        "postcode": "H3N 1P9",
                        "region": "QC"
                  },
                  "name": "Salateen Restaurant"
            },
            {
                  "distance": 338,
                  "location": {
                        "address": "991 Ogilvy Ave",
                        "country": "CA",
                        "formatted_address": "991 Ogilvy Ave, Montreal QC H3N 1P3",
                        "locality": "Montreal",
                        "postcode": "H3N 1P3",
                        "region": "QC"
                  },
                  "name": "Taverne Portara"
            },
            {
                  "distance": 377,
                  "location": {
                        "address": "7000 Ave du Parc",
                        "country": "CA",
                        "formatted_address": "7000 Ave du Parc, Montreal QC H3N 1X1",
                        "locality": "Montreal",
                        "postcode": "H3N 1X1",
                        "region": "QC"
                  },
                  "name": "Caf\u00e9 Coop in Montr\u00e9al"
            }
      ],
      "context": {
            "geo_bounds": {
                  "circle": {
                        "center": {
                              "latitude": 45.52745655,
                              "longitude": -73.62411618
                        },
                        "radius": 1000
                  }
            }
      }
}