{
      "results": [
            {
                  "distance": 637,
                  "location": {
                        "address": "6128 Ave de Monkland",
                        "country": "CA",
                        "cross_street": "Beaconsfield",
                        "formatted_address": "6128 Ave de Monkland (Beaconsfield), Montr\u00e9al QC H4A 1H4",
                        "locality": "Montreal",
                        "postcode": "H4A 1H4",
                        "region": "QC"
                  },
                  "name": "Caf\u00e9 de' Mercanti",
                  "popularity": 0.9613573996971991,
                  "price": 1,
                  "rating": 9.1
            },
            {
                  "distance": 799,
                  "location": {
                        "address": "5456 Sherbrooke Rue O",
                        "country": "CA",
                        "cross_street": "at Addington",
                        "formatted_address": "5456 Sherbrooke Rue O (at Addington), Montr\u00e9al QC H4A 1V9",
                        "locality": "Montreal",
                        "postcode": "H4A 1V9",
                        "region": "QC"
                  },
                  "name": "Chalet Bar B-Q",
                  "popularity": 0.9907385503406511,
                  "price": 2,
                  "rating": 8.8
            },
            {
                  "distance": 344,
                  "location": {
                        "address": "5732 Sherbrooke Rue O",
                        "address_extended": "Wilson",
                        "country": "CA",
                        "cross_street": "Wilson",
                        "formatted_address": "5732 Sherbrooke Rue O (Wilson), Montr\u00e9al QC H4A 1W8",
                        "locality": "Montreal",
                        "postcode": "H4A 1W8",
                        "region": "QC"
                  },
                  "name": "Notre Boeuf de Gr\u00e2ce",
                  "popularity": 0.9811459121877366,
                  "price": 1,
                  "rating": 8.7
            },
            {
                  "distance": 988,
                  "location": {
                        "address": "5338 Sherbrooke Rue O",
                        "country": "CA",
                        "cross_street": "Decarie",
                        "formatted_address": "5338 Sherbrooke Rue O (Decarie), Montr\u00e9al QC H4A 1V5",
                        "locality": "Montreal",
                        "postcode": "H4A 1V5",
                        "region": "QC"
                  },
                  "name": "Boulangerie Chez Fred",
                  "popularity": 0.9809684897804694,
                  "price": 1,
                  "rating": 8.5
            },
            {
                  "distance": 236,
                  "location": {
                        "address": "6135 Sherbrooke Rue O",
                        "country": "CA",
                        "cross_street": "Grand Boulevard",
                        "formatted_address": "6135 Sherbrooke Rue O (Grand Boulevard), Montr\u00e9al QC H4A 1Y4",
                        "locality": "Montreal",
                        "postcode": "H4A 1Y4",
                        "region": "QC"
                  },
                  "name": "Dawa",
                  "popularity": 0.9545325510976533,
                  "price": 2,
                  "rating": 8.1
            },
            {
                  "distance": 878,
                  "location": {
                        "address": "5500 Ave de Monkland",
                        "country": "CA",
                        "formatted_address": "5500 Ave de Monkland, Montr\u00e9al QC H4A 1C7",
                        "locality": "Montreal",
                        "postcode": "H4A 1C7",
                        "region": "QC"
                  },
                  "name": "Boulangerie Premi\u00e8re Moisson",
                  "popularity": 0.9813351627554883,
                  "price": 1,
                  "rating": 8.1
            },
            {
                  "distance": 755,
                  "location": {
                        "address": "5626 Ave de Monkland",
                        "country": "CA",
                        "cross_street": "at av. Marcil",
                        "formatted_address": "5626 Ave de Monkland (at av. Marcil), Montr\u00e9al QC H4A 1E3",
                        "locality": "Montreal",
                        "postcode": "H4A 1E3",
                        "region": "QC"
                  },
                  "name": "Lucille's Oyster Dive",
                  "popularity": 0.9606358819076457,
                  "price": 3,
                  "rating": 8.0
            },
            {
                  "distance": 838,
                  "location": {
                        "address": "5555 Ave de Monkland",
                        "country": "CA",
                        "cross_street": "",
                        "formatted_address": "5555 Ave de Monkland, Montr\u00e9al QC H4A 1E1",
                        "locality": "Montreal",
                        "postcode": "H4A 1E1",
                        "region": "QC"
                  },
                  "name": "Monkland Taverne",
                  "popularity": 0.8456425056775171,
                  "price": 3,
                  "rating": 7.8
            },
            {
                  "distance": 160,
                  "location": {
                        "address": "5837 Sherbrooke Rue O",
                        "country": "CA",
                        "cross_street": "Regent",
                        "formatted_address": "5837 Sherbrooke Rue O (Regent), Montr\u00e9al QC H4A 1X4",
                        "locality": "Montreal",
                        "postcode": "H4A 1X4",
                        "region": "QC"
                  },
                  "name": "Mate Latte",
                  "popularity": 0.9714704769114307,
                  "price": 1,
                  "rating": 7.8
            },
            {
                  "distance": 665,
                  "location": {
                        "address": "6151 Ave de Monkland",
                        "country": "CA",
                        "cross_street": "",
                        "formatted_address": "6151 Ave de Monkland, Montr\u00e9al QC H4B 1G3",
                        "locality": "Montreal",
                        "postcode": "H4B 1G3",
                        "region": "QC"
                  },
                  "name": "La Meunerie Urbaine",
                  "popularity": 0.9667155563966692,
                  "price": 1,
                  "rating": 7.8
            },
            {
                  "distance": 133,
                  "location": {
                        "address": "5860 Sherbrooke Rue W",
                        "country": "CA",
                        "cross_street": "btwn Regent & Clifton",
                        "formatted_address": "5860 Sherbrooke Rue W (btwn Regent & Clifton), Montr\u00e9al QC H4A 1X5",
                        "locality": "Montreal",
                        "postcode": "H4A 1X5",
                        "region": "QC"
                  },
                  "name": "Star of India",
                  "popularity": 0.8855507191521574,
                  "price": 2,
                  "rating": 7.6
            },
            {
                  "distance": 886,
                  "location": {
                        "address": "3373 Cavendish Blvd",
                        "country": "CA",
                        "cross_street": "",
                        "formatted_address": "3373 Cavendish Blvd, Montr\u00e9al QC H4B 2L7",
                        "locality": "Montreal",
                        "postcode": "H4B 2L7",
                        "region": "QC"
                  },
                  "name": "The Wheel Club",
                  "popularity": 0.9835943414080243,
                  "rating": 7.5
            },
            {
                  "distance": 819,
                  "location": {
                        "address": "5557 Ave de Monkland",
                        "country": "CA",
                        "formatted_address": "5557 Ave de Monkland, Montr\u00e9al QC H4A 1E1",
                        "locality": "Montreal",
                        "postcode": "H4A 1E1",
                        "region": "QC"
                  },
                  "name": "Rockaberry Franchising",
                  "popularity": 0.9117619227857684,
                  "price": 1,
                  "rating": 7.4
            },
            {
                  "distance": 820,
                  "location": {
                        "address": "5563 Ave de Monkland",
                        "country": "CA",
                        "cross_street": "Old Orchard",
                        "formatted_address": "5563 Ave de Monkland (Old Orchard), Montr\u00e9al QC H4A 1E1",
                        "locality": "Montreal",
                        "postcode": "H4A 1E1",
                        "region": "QC"
                  },
                  "name": "Ye Olde Orchard Pub & Grill",
                  "popularity": 0.9567917297501892,
                  "price": 2,
                  "rating": 7.4
            },
            {
                  "distance": 155,
                  "location": {
                        "address": "6079 Sherbrooke Rue O",
                        "country": "CA",
                        "formatted_address": "6079 Sherbrooke Rue O, Montr\u00e9al QC H4A 1Y2",
                        "locality": "Montreal",
                        "postcode": "H4A 1Y2",
                        "region": "QC"
                  },
                  "name": "Ganges Restaurant",
                  "popularity": 0.866377271006813,
                  "price": 2,
                  "rating": 7.3
            },
            {
                  "distance": 635,
                  "location": {
                        "address": "5766 Ave de Monkland",
                        "country": "CA",
                        "cross_street": "",
                        "formatted_address": "5766 Ave de Monkland, Montr\u00e9al QC H4A 1E9",
                        "locality": "Montreal",
                        "postcode": "H4A 1E9",
                        "region": "QC"
                  },
                  "name": "Gia Ba",
                  "popularity": 0.8727763058289175,
                  "rating": 7.3
            },
            {
                  "distance": 645,
                  "location": {
                        "address": "6127 Ave de Monkland",
                        "country": "CA",
                        "cross_street": "",
                        "formatted_address": "6127 Ave de Monkland, Montr\u00e9al QC H4A 1H5",
                        "locality": "Montreal",
                        "postcode": "H4A 1H5",
                        "region": "QC"
                  },
                  "name": "Bistro Amerigo",
                  "popularity": 0.9265944360333082,
                  "rating": 7.3
            },
            {
                  "distance": 67,
                  "location": {
                        "address": "5916 Sherbrooke Rue O",
                        "country": "CA",
                        "cross_street": "",
                        "formatted_address": "5916 Sherbrooke Rue O, Montr\u00e9al QC H4A 1X7",
                        "locality": "Montreal",
                        "postcode": "H4A 1X7",
                        "region": "QC"
                  },
                  "name": "Honey Martin",
                  "popularity": 0.9609670704012112,
                  "price": 1,
                  "rating": 6.8
            },
            {
                  "distance": 870,
                  "location": {
                        "address": "5563 Upper-Lachine Ch",
                        "country": "CA",
                        "cross_street": "",
                        "formatted_address": "5563 Upper-Lachine Ch, Montr\u00e9al QC H4A 2A6",
                        "locality": "Montreal",
                        "postcode": "H4A 2A6",
                        "region": "QC"
                  },
                  "name": "Restaurant Yas",
                  "popularity": 0.8623202119606359,
                  "rating": 6.7
            },
            {
                  "distance": 811,
                  "location": {
                        "address": "5550 Monkland Ave",
                        "country": "CA",
                        "formatted_address": "5550 Monkland Ave, Montr\u00e9al QC H4A 1C9",
                        "locality": "Montreal",
                        "postcode": "H4A 1C9",
                        "region": "QC"
                  },
                  "name": "Second Cup Coffee Co",
                  "popularity": 0.9391322861468584,
                  "price": 1,
                  "rating": 6.3
            },
            {
                  "distance": 811,
                  "location": {
                        "address": "6495 St Jacques Rue",
                        "country": "CA",
                        "cross_street": "Cavendish",
                        "formatted_address": "6495 St Jacques Rue (Cavendish), Montr\u00e9al QC H4B 1V1",
                        "locality": "Montreal",
                        "postcode": "H4B 1V1",
                        "region": "QC"
                  },
                  "name": "Tim Hortons",
                  "popularity": 0.9952923921271764,
                  "price": 1,
                  "rating": 6.3
            },
            {
                  "distance": 680,
                  "location": {
                        "address": "6390 Sherbrooke Rue O",
                        "country": "CA",
                        "cross_street": "",
                        "formatted_address": "6390 Sherbrooke Rue O, Montr\u00e9al QC H4B 1M9",
                        "locality": "Montreal",
                        "postcode": "H4B 1M9",
                        "region": "QC"
                  },
                  "name": "Pizza Pizza",
                  "popularity": 0.9750189250567751,
                  "price": 1,
                  "rating": 6.3,
                  "store_id": "302"
            },
            {
                  "distance": 776,
                  "location": {
                        "address": "5582 Ave Monkland",
                        "country": "CA",
                        "cross_street": "",
                        "formatted_address": "5582 Ave Monkland, Montr\u00e9al QC H4A 1C9",
                        "locality": "Montreal",
                        "postcode": "H4A 1C9",
                        "region": "QC"
                  },
                  "name": "La Diperie",
                  "popularity": 0.9214255299015897,
                  "price": 1,
                  "rating": 6.3
            },
            {
                  "distance": 159,
                  "location": {
                        "address": "5850 Sherbrooke Rue O",
                        "country": "CA",
                        "cross_street": "Regent",
                        "formatted_address": "5850 Sherbrooke Rue O (Regent), Montr\u00e9al QC H4A 1X5",
                        "locality": "Montreal",
                        "postcode": "H4A 1X5",
                        "region": "QC"
                  },
                  "name": "La Louisiane",
                  "popularity": 0.8622137585162756,
                  "price": 2,
                  "rating": 6.0
            },
            {
                  "distance": 642,
                  "location": {
                        "address": "5752 Ave de Monkland",
                        "country": "CA",
                        "cross_street": "coin Wilson",
                        "formatted_address": "5752 Ave de Monkland (coin Wilson), Montr\u00e9al QC H4A 1E9",
                        "locality": "Montreal",
                        "postcode": "H4A 1E9",
                        "region": "QC"
                  },
                  "name": "Typhoon Lounge",
                  "popularity": 0.9507830242240727,
                  "price": 2,
                  "rating": 6.0
            },
            {
                  "distance": 628,
                  "location": {
                        "address": "6180 Saint-Jacques Rue",
                        "country": "CA",
                        "formatted_address": "6180 Saint-Jacques Rue, Montr\u00e9al QC H4B 1T6",
                        "locality": "Montreal",
                        "postcode": "H4B 1T6",
                        "region": "QC"
                  },
                  "name": "Restaurant Shabu Shabu",
                  "popularity": 0.9392623959121877,
                  "price": 2,
                  "rating": 5.9
            },
            {
                  "distance": 664,
                  "location": {
                        "address": "5737 Ave de Monkland",
                        "country": "CA",
                        "cross_street": "Avenue Wilson",
                        "formatted_address": "5737 Ave de Monkland (Avenue Wilson), Montr\u00e9al QC H4A 1E7",
                        "locality": "Montreal",
                        "postcode": "H4A 1E7",
                        "region": "QC"
                  },
                  "name": "Le Petit Tokebi",
                  "popularity": 0.9233416919000756,
                  "price": 2,
                  "rating": 5.8
            },
            {
                  "distance": 577,
                  "location": {
                        "address": "5950 Ave de Monkland",
                        "country": "CA",
                        "cross_street": "",
                        "formatted_address": "5950 Ave de Monkland, Montr\u00e9al QC H4A 1G8",
                        "locality": "Montreal",
                        "postcode": "H4A 1G8",
                        "region": "QC"
                  },
                  "name": "Bacaro Pizzeria",
                  "popularity": 0.8862604087812264,
                  "price": 1,
                  "rating": 5.4
            },
            {
                  "distance": 39,
                  "location": {
                        "address": "5899 Sherbrooke Rue O",
                        "country": "CA",
                        "cross_street": "",
                        "formatted_address": "5899 Sherbrooke Rue O, Montr\u00e9al QC H4A 1X6",
                        "locality": "Montreal",
                        "postcode": "H4A 1X6",
                        "region": "QC"
                  },
                  "name": "Crusty's",
                  "popularity": 0.8394090651021953,
                  "price": 1
            },
            {
                  "distance": 54,
                  "location": {
                        "address": "5914 Sherbrooke Rue O",
                        "country": "CA",
                        "cross_street": "rue Clifton",
                        "formatted_address": "5914 Sherbrooke Rue O (rue Clifton), Montreal QC H4A 1X7",
                        "locality": "Montreal",
                        "postcode": "H4A 1X7",
                        "region": "QC"
                  },
                  "name": "Jean's Trinidad Foods",
                  "popularity": 0.7059164458743377,
                  "price": 2
            },
            {
                  "distance": 65,
                  "location": {
                        "address": "5893 Sherbrooke Rue O",
                        "country": "CA",
                        "cross_street": "",
                        "formatted_address": "5893 Sherbrooke Rue O, Montr\u00e9al QC H4A 1X6",
                        "locality": "Montreal",
                        "postcode": "H4A 1X6",
                        "region": "QC"
                  },
                  "name": "East Africa",
                  "popularity": 0.617997728993187,
                  "price": 2
            },
            {
                  "distance": 66,
                  "location": {
                        "address": "5942 Sherbrooke Rue O",
                        "address_extended": "Belgrave",
                        "country": "CA",
                        "cross_street": "Belgrave",
                        "formatted_address": "5942 Sherbrooke Rue O (Belgrave), Montr\u00e9al QC H4A 1X7",
                        "locality": "Montreal",
                        "postcode": "H4A 1X7",
                        "region": "QC"
                  },
                  "name": "L'Gros Luxe NDG",
                  "popularity": 0.9426925624526874,
                  "price": 2
            },
            {
                  "distance": 211,
                  "location": {
                        "address": "5828 Sherbrooke St W",
                        "country": "CA",
                        "cross_street": "",
                        "formatted_address": "5828 Sherbrooke St W, Montr\u00e9al QC H4A 1X3",
                        "locality": "Montreal",
                        "postcode": "H4A 1X3",
                        "region": "QC"
                  },
                  "name": "Babylon",
                  "popularity": 0.9101296366389099,
                  "price": 1
            },
            {
                  "distance": 224,
                  "location": {
                        "address": "5800 Sherbrooke Rue O",
                        "country": "CA",
                        "cross_street": "",
                        "formatted_address": "5800 Sherbrooke Rue O, Montr\u00e9al QC H4A 1X3",
                        "locality": "Montreal",
                        "postcode": "H4A 1X3",
                        "region": "QC"
                  },
                  "name": "Bombay Mahal",
                  "popularity": 0.8857399697199092,
                  "price": 2
            },
            {
                  "distance": 230,
                  "location": {
                        "address": "5791 Sherbrooke Rue O",
                        "country": "CA",
                        "cross_street": "Melrose",
                        "formatted_address": "5791 Sherbrooke Rue O (Melrose), Montr\u00e9al QC H4A 1X2",
                        "locality": "Montreal",
                        "postcode": "H4A 1X2",
                        "region": "QC"
                  },
                  "name": "Cafe Toranj",
                  "popularity": 0.9556325700227101,
                  "price": 1
            }
      ],
      "context": {
            "geo_bounds": {
                  "circle": {
                        "center": {
                              "latitude": 45.46892698,
                              "longitude": -73.61987025
                        },
                        "radius": 1000
                  }
            }
      }
}