{
      "results": [
            {
                  "distance": 560,
                  "location": {
                        "address": "2912 Rue de Salaberry",
                        "country": "CA",
                        "cross_street": "Autoroute 15",
                        "formatted_address": "2912 Rue de Salaberry (Autoroute 15), Montr\u00e9al QC H3M 1L3",
                        "locality": "Montreal",
                        "postcode": "H3M 1L3",
                        "region": "QC"
                  },
                  "name": "Tim Hortons",
                  "popularity": 0.9921224451173354,
                  "price": 1,
                  "rating": 5.6
            },
            {
                  "distance": 616,
                  "location": {
                        "address": "2920 Rue de Salaberry",
                        "country": "CA",
                        "formatted_address": "2920 Rue de Salaberry, Montr\u00e9al QC H3M 1L3",
                        "locality": "Montreal",
                        "postcode": "H3M 1L3",
                        "region": "QC"
                  },
                  "name": "McDonald's",
                  "popularity": 0.9963214420893263,
                  "price": 1,
                  "rating": 5.1,
                  "store_id": "29151"
            },
            {
                  "distance": 495,
                  "location": {
                        "address": "2860 Salaberry",
                        "country": "CA",
                        "cross_street": "",
                        "formatted_address": "2860 Salaberry, Montr\u00e9al QC",
                        "locality": "Montreal",
                        "region": "QC"
                  },
                  "name": "Nouilles Orientales",
                  "popularity": 0.9914127554882665,
                  "price": 1
            },
            {
                  "distance": 497,
                  "location": {
                        "address": "2864 rue de Salaberry",
                        "country": "CA",
                        "cross_street": "Galeries Normandie",
                        "formatted_address": "2864 rue de Salaberry (Galeries Normandie), Montr\u00e9al QC H3M 1L3",
                        "locality": "Montreal",
                        "postcode": "H3M 1L3",
                        "region": "QC"
                  },
                  "name": "Cafe de la Presse",
                  "popularity": 0.9428581566994702,
                  "price": 1
            },
            {
                  "distance": 565,
                  "location": {
                        "address": "2910 Rue de Salaberry",
                        "address_extended": "Les Galeries Normandie",
                        "country": "CA",
                        "cross_street": "",
                        "formatted_address": "2910 Rue de Salaberry, Montr\u00e9al QC H3M 1L3",
                        "locality": "Montreal",
                        "postcode": "H3M 1L3",
                        "region": "QC"
                  },
                  "name": "Thai Express",
                  "popularity": 0.9848836109008327,
                  "price": 2,
                  "store_id": "193"
            },
            {
                  "distance": 690,
                  "location": {
                        "address": "2733 Rue de Salaberry",
                        "country": "CA",
                        "cross_street": "",
                        "formatted_address": "2733 Rue de Salaberry, Montreal QC H3M 1L4",
                        "locality": "Montreal",
                        "postcode": "H3M 1L4",
                        "region": "QC"
                  },
                  "name": "DO-Re-MI Pizza",
                  "popularity": 0.650820874337623,
                  "price": 2
            },
            {
                  "distance": 1084,
                  "location": {
                        "address": "1575 Dudemaine Rue",
                        "country": "CA",
                        "cross_street": "coin Bois-de-Boulogne",
                        "formatted_address": "1575 Dudemaine Rue (coin Bois-de-Boulogne), Montr\u00e9al QC H3M 1R2",
                        "locality": "Montreal",
                        "postcode": "H3M 1R2",
                        "region": "QC"
                  },
                  "name": "Restaurant Dima",
                  "popularity": 0.23692988266464798,
                  "price": 2
            },
            {
                  "distance": 431,
                  "location": {
                        "address": "2774 Rue de Salaberry",
                        "country": "CA",
                        "formatted_address": "2774 Rue de Salaberry, Montreal QC H3M 1L3",
                        "locality": "Montreal",
                        "postcode": "H3M 1L3",
                        "region": "QC"
                  },
                  "name": "Nouille Orientale"
            },
            {
                  "distance": 447,
                  "location": {
                        "address": "2838 rue de Salaberry",
                        "country": "CA",
                        "formatted_address": "2838 rue de Salaberry, Montreal QC H3M 1L3",
                        "locality": "Montreal",
                        "postcode": "H3M 1L3",
                        "region": "QC"
                  },
                  "name": "Double Pizza"
            },
            {
                  "distance": 701,
                  "location": {
                        "address": "2525 rue de Salaberry",
                        "country": "CA",
                        "formatted_address": "2525 rue de Salaberry, Montreal QC H3M 1L1",
                        "locality": "Montreal",
                        "postcode": "H3M 1L1",
                        "region": "QC"
                  },
                  "name": "Nouveau Felix Pizza & Deli"
            },
            {
                  "distance": 704,
                  "location": {
                        "address": "2525 Rue de Salaberry",
                        "country": "CA",
                        "formatted_address": "2525 Rue de Salaberry, Montreal QC H3M 1L1",
                        "locality": "Montreal",
                        "postcode": "H3M 1L1",
                        "region": "QC"
                  },
                  "name": "Yum Yum Chicken Restaurant"
            },
            {
                  "distance": 728,
                  "location": {
                        "address": "2727 de Blvd",
                        "country": "CA",
                        "formatted_address": "2727 de Blvd, Montreal QC H3M 1L4",
                        "locality": "Montreal",
                        "postcode": "H3M 1L4",
                        "region": "QC"
                  },
                  "name": "Subway"
            },
            {
                  "distance": 803,
                  "location": {
                        "address": "4400 rue de Salaberry",
                        "country": "CA",
                        "formatted_address": "4400 rue de Salaberry, Montreal QC H4J 1H4",
                        "locality": "Montreal",
                        "postcode": "H4J 1H4",
                        "region": "QC"
                  },
                  "name": "Harmony Entertainment"
            },
            {
                  "distance": 922,
                  "location": {
                        "address": "1855 Rue de Salaberry",
                        "country": "CA",
                        "formatted_address": "1855 Rue de Salaberry, Montreal QC H3M 1K5",
                        "locality": "Montreal",
                        "postcode": "H3M 1K5",
                        "region": "QC"
                  },
                  "name": "Falafel Damas"
            }
      ],
      "context": {
            "geo_bounds": {
                  "circle": {
                        "center": {
                              "latitude": 45.53308032,
                              "longitude": -73.69459659
                        },
                        "radius": 1000
                  }
            }
      }
}