{
      "results": [
            {
                  "distance": 856,
                  "location": {
                        "address": "12580 Sherbrooke Rue E",
                        "country": "CA",
                        "cross_street": "",
                        "formatted_address": "12580 Sherbrooke Rue E, Montr\u00e9al QC H1B 1C9",
                        "locality": "Montreal",
                        "postcode": "H1B 1C9",
                        "region": "QC"
                  },
                  "name": "Chez Cora",
                  "popularity": 0.9416043716881151,
                  "price": 1,
                  "rating": 8.1
            },
            {
                  "distance": 871,
                  "location": {
                        "address": "12585 Sherbrooke Rue E",
                        "country": "CA",
                        "cross_street": "Tricentenaire",
                        "formatted_address": "12585 Sherbrooke Rue E (Tricentenaire), Pointe-Aux-Trembles QC H1B 1C8",
                        "locality": "Pointe-aux-Trembles",
                        "postcode": "H1B 1C8",
                        "region": "QC"
                  },
                  "name": "Tomate Basilic",
                  "popularity": 0.9705478803936411,
                  "price": 2,
                  "rating": 6.9
            },
            {
                  "distance": 912,
                  "location": {
                        "address": "12575 Sherbrooke Rue E",
                        "country": "CA",
                        "cross_street": "",
                        "formatted_address": "12575 Sherbrooke Rue E, Montr\u00e9al QC H1B 1C8",
                        "locality": "Montreal",
                        "postcode": "H1B 1C8",
                        "region": "QC"
                  },
                  "name": "R\u00f4tisserie St-Hubert",
                  "popularity": 0.9784254352763059,
                  "price": 2,
                  "rating": 6.9,
                  "store_id": "100158"
            },
            {
                  "distance": 964,
                  "location": {
                        "address": "12995 Sherbrooke Rue E",
                        "country": "CA",
                        "formatted_address": "12995 Sherbrooke Rue E, Pointe-Aux-Trembles QC H1A 1B9",
                        "locality": "Pointe-aux-Trembles",
                        "postcode": "H1A 1B9",
                        "region": "QC"
                  },
                  "name": "R\u00f4tisserie Scores",
                  "popularity": 0.9347913512490538,
                  "price": 2,
                  "rating": 6.9
            },
            {
                  "distance": 770,
                  "location": {
                        "address": "12882 Sherbrooke Rue E",
                        "country": "CA",
                        "cross_street": "Boul. Tricentenaire",
                        "formatted_address": "12882 Sherbrooke Rue E (Boul. Tricentenaire), Pointe-Aux-Trembles QC H1A 4Y3",
                        "locality": "Pointe-aux-Trembles",
                        "postcode": "H1A 4Y3",
                        "region": "QC"
                  },
                  "name": "Thai Express",
                  "popularity": 0.9304622445117335,
                  "price": 2,
                  "rating": 6.6,
                  "store_id": "214"
            },
            {
                  "distance": 884,
                  "location": {
                        "address": "12775 Sherbrooke Rue E",
                        "country": "CA",
                        "cross_street": "Tricentenaire",
                        "formatted_address": "12775 Sherbrooke Rue E (Tricentenaire), Pointe-Aux-Trembles QC H1A 3V9",
                        "locality": "Pointe-aux-Trembles",
                        "postcode": "H1A 3V9",
                        "region": "QC"
                  },
                  "name": "Tim Hortons",
                  "popularity": 0.9915783497350492,
                  "price": 1,
                  "rating": 6.3
            },
            {
                  "distance": 751,
                  "location": {
                        "address": "12836 Sherbrooke Rue E",
                        "country": "CA",
                        "cross_street": "Tricentenaire",
                        "formatted_address": "12836 Sherbrooke Rue E (Tricentenaire), Montr\u00e9al QC H1A 4Y3",
                        "locality": "Montreal",
                        "postcode": "H1A 4Y3",
                        "region": "QC"
                  },
                  "name": "Subway",
                  "popularity": 0.8837883232399697,
                  "price": 1
            },
            {
                  "distance": 797,
                  "location": {
                        "address": "12804 Sherbrooke Rue E",
                        "country": "CA",
                        "formatted_address": "12804 Sherbrooke Rue E, Pointe-Aux-Trembles QC H1A 4Y3",
                        "locality": "Pointe-aux-Trembles",
                        "postcode": "H1A 4Y3",
                        "region": "QC"
                  },
                  "name": "Belle Pro's",
                  "popularity": 0.819797975018925,
                  "price": 1
            },
            {
                  "distance": 807,
                  "location": {
                        "address": "12910 Sherbrooke Rue E",
                        "country": "CA",
                        "formatted_address": "12910 Sherbrooke Rue E, Pointe-Aux-Trembles QC H1A 4Y3",
                        "locality": "Pointe-aux-Trembles",
                        "postcode": "H1A 4Y3",
                        "region": "QC"
                  },
                  "name": "Restaurant la Popessa",
                  "popularity": 0.9831803557910673,
                  "price": 2
            },
            {
                  "distance": 816,
                  "location": {
                        "address": "12908 Sherbrooke Rue E",
                        "country": "CA",
                        "cross_street": "",
                        "formatted_address": "12908 Sherbrooke Rue E, Montr\u00e9al QC H1A 4Y3",
                        "locality": "Montreal",
                        "postcode": "H1A 4Y3",
                        "region": "QC"
                  },
                  "name": "Pizza Pizza",
                  "popularity": 0.7288630772142316,
                  "price": 1,
                  "store_id": "338"
            },
            {
                  "distance": 860,
                  "location": {
                        "address": "12920 Sherbrooke Rue E",
                        "country": "CA",
                        "cross_street": "rue Robert-Chevalier",
                        "formatted_address": "12920 Sherbrooke Rue E (rue Robert-Chevalier), Montr\u00e9al QC H1A 3W2",
                        "locality": "Montreal",
                        "postcode": "H1A 3W2",
                        "region": "QC"
                  },
                  "name": "All\u00f4! Mon Coco",
                  "popularity": 0.9421721233913701,
                  "price": 1
            },
            {
                  "distance": 902,
                  "location": {
                        "address": "13076 Sherbrooke Rue E",
                        "country": "CA",
                        "cross_street": "",
                        "formatted_address": "13076 Sherbrooke Rue E, Pointe-Aux-Trembles QC H1A 3W2",
                        "locality": "Pointe-Aux-Trembles",
                        "postcode": "H1A 3W2",
                        "region": "QC"
                  },
                  "name": "Mariepain",
                  "popularity": 0.8139785200605602,
                  "price": 1
            },
            {
                  "distance": 915,
                  "location": {
                        "address": "12575 Sherbrooke Rue E",
                        "country": "CA",
                        "cross_street": "",
                        "formatted_address": "12575 Sherbrooke Rue E, Pointe-Aux-Trembles QC H1B 1C8",
                        "locality": "Pointe-aux-Trembles",
                        "postcode": "H1B 1C8",
                        "region": "QC"
                  },
                  "name": "Harvey's",
                  "popularity": 0.528671461014383,
                  "price": 2,
                  "store_id": "2686"
            },
            {
                  "distance": 927,
                  "location": {
                        "address": "12500 Sherbrooke Rue E",
                        "country": "CA",
                        "cross_street": "",
                        "formatted_address": "12500 Sherbrooke Rue E, Montr\u00e9al QC H1B 1C9",
                        "locality": "Montreal",
                        "postcode": "H1B 1C9",
                        "region": "QC"
                  },
                  "name": "Toujours Mikes",
                  "popularity": 0.9389312074186222,
                  "price": 2
            },
            {
                  "distance": 933,
                  "location": {
                        "address": "12450 Sherbrooke Rue E",
                        "country": "CA",
                        "cross_street": "",
                        "formatted_address": "12450 Sherbrooke Rue E, Montr\u00e9al QC H1B 1C9",
                        "locality": "Montreal",
                        "postcode": "H1B 1C9",
                        "region": "QC"
                  },
                  "name": "Benny&Co",
                  "popularity": 0.8153505866767601,
                  "price": 2,
                  "store_id": "BC_27"
            },
            {
                  "distance": 958,
                  "location": {
                        "address": "13120 Sherbrooke Rue E",
                        "country": "CA",
                        "cross_street": "",
                        "formatted_address": "13120 Sherbrooke Rue E, Montr\u00e9al QC H1A 3W2",
                        "locality": "Montreal",
                        "postcode": "H1A 3W2",
                        "region": "QC"
                  },
                  "name": "Centre de service Desjardins - Caisse de Pointe-aux-Trembles",
                  "popularity": 0.9911761922785768
            },
            {
                  "distance": 977,
                  "location": {
                        "address": "13045 Sherbrooke Rue E",
                        "country": "CA",
                        "cross_street": "",
                        "formatted_address": "13045 Sherbrooke Rue E, Pointe-Aux-Trembles QC H1A 1B9",
                        "locality": "Pointe-Aux-Trembles",
                        "postcode": "H1A 1B9",
                        "region": "QC"
                  },
                  "name": "Amir",
                  "popularity": 0.14963805828917487,
                  "price": 1
            },
            {
                  "distance": 136,
                  "location": {
                        "address": "12700 Rue de Montigny",
                        "country": "CA",
                        "formatted_address": "12700 Rue de Montigny, Montreal QC H1A 0A1",
                        "locality": "Montreal",
                        "postcode": "H1A 0A1",
                        "region": "QC"
                  },
                  "name": "Karaoke Maniac"
            },
            {
                  "distance": 148,
                  "location": {
                        "address": "1329 Suite",
                        "country": "CA",
                        "formatted_address": "1329 Suite, Montreal QC H1A 0A1",
                        "locality": "Montreal",
                        "postcode": "H1A 0A1",
                        "region": "QC"
                  },
                  "name": "Restaurant Tabla"
            },
            {
                  "distance": 752,
                  "location": {
                        "address": "H1A MONTR\u00e9AL",
                        "country": "CA",
                        "formatted_address": "H1A MONTR\u00e9AL, Montreal QC",
                        "locality": "Montreal",
                        "region": "QC"
                  },
                  "name": "Subway"
            },
            {
                  "distance": 785,
                  "location": {
                        "address": "52-C Rue de la Gaucheti\u00e8re O",
                        "country": "CA",
                        "formatted_address": "52-C Rue de la Gaucheti\u00e8re O, Montreal QC H2Z 1C1",
                        "locality": "Montreal",
                        "postcode": "H2Z 1C1",
                        "region": "QC"
                  },
                  "name": "Chatime"
            },
            {
                  "distance": 793,
                  "location": {
                        "address": "12910 Sherbrooke Rue E",
                        "country": "CA",
                        "formatted_address": "12910 Sherbrooke Rue E, Pointe-Aux-Trembles QC H1A 4Y3",
                        "locality": "Pointe-Aux-Trembles",
                        "postcode": "H1A 4Y3",
                        "region": "QC"
                  },
                  "name": "Villa Pasta"
            },
            {
                  "distance": 800,
                  "location": {
                        "address": "12886 Sherbrooke Rue E",
                        "country": "CA",
                        "formatted_address": "12886 Sherbrooke Rue E, Pointe-Aux-Trembles QC H1A 4Y3",
                        "locality": "Pointe-Aux-Trembles",
                        "postcode": "H1A 4Y3",
                        "region": "QC"
                  },
                  "name": "Mr. Puffs"
            },
            {
                  "distance": 800,
                  "location": {
                        "address": "12804 Sherbrooke Rue E",
                        "country": "CA",
                        "formatted_address": "12804 Sherbrooke Rue E, Pointe-Aux-Trembles QC H1A 4Y3",
                        "locality": "Pointe-Aux-Trembles",
                        "postcode": "H1A 4Y3",
                        "region": "QC"
                  },
                  "name": "Harvey's"
            },
            {
                  "distance": 930,
                  "location": {
                        "address": "12450 Sherbrooke Rue E",
                        "country": "CA",
                        "formatted_address": "12450 Sherbrooke Rue E, Pointe-Aux-Trembles QC H1B 1C9",
                        "locality": "Pointe-Aux-Trembles",
                        "postcode": "H1B 1C9",
                        "region": "QC"
                  },
                  "name": "R\u00f4tisserie le Pointelier Inc"
            },
            {
                  "distance": 958,
                  "location": {
                        "address": "12820 Notre Dame Rue E",
                        "country": "CA",
                        "formatted_address": "12820 Notre Dame Rue E, Pointe-Aux-Trembles QC H1A 1R9",
                        "locality": "Pointe-Aux-Trembles",
                        "postcode": "H1A 1R9",
                        "region": "QC"
                  },
                  "name": "Bistro du Jardin"
            },
            {
                  "distance": 962,
                  "location": {
                        "address": "12820 Notre Dame Rue E",
                        "country": "CA",
                        "formatted_address": "12820 Notre Dame Rue E, Pointe-Aux-Trembles QC H1A 1R9",
                        "locality": "Pointe-Aux-Trembles",
                        "postcode": "H1A 1R9",
                        "region": "QC"
                  },
                  "name": "Bistro Jardin"
            },
            {
                  "distance": 995,
                  "location": {
                        "address": "13035 Sherbrooke Rue E",
                        "country": "CA",
                        "formatted_address": "13035 Sherbrooke Rue E, Pointe-Aux-Trembles QC H1A 1B9",
                        "locality": "Pointe-Aux-Trembles",
                        "postcode": "H1A 1B9",
                        "region": "QC"
                  },
                  "name": "Restaurant le Nouveau Paradis"
            }
      ],
      "context": {
            "geo_bounds": {
                  "circle": {
                        "center": {
                              "latitude": 45.65140584,
                              "longitude": -73.5004127
                        },
                        "radius": 1000
                  }
            }
      }
}