{
      "results": [
            {
                  "distance": 851,
                  "location": {
                        "address": "10400 Pie-Ix Blvd",
                        "country": "CA",
                        "cross_street": "",
                        "formatted_address": "10400 Pie-Ix Blvd, Montreal-Nord QC H1H 3Z8",
                        "locality": "Montr\u00e9al-Nord",
                        "postcode": "H1H 3Z8",
                        "region": "QC"
                  },
                  "name": "Pizza Hut",
                  "popularity": 0.9418882475397427,
                  "price": 1,
                  "rating": 6.3,
                  "store_id": "R29606"
            },
            {
                  "distance": 944,
                  "location": {
                        "address": "10333 Pie-Ix Blvd",
                        "country": "CA",
                        "cross_street": "Fleury",
                        "formatted_address": "10333 Pie-Ix Blvd (Fleury), Montreal-Nord QC H1H 3Z7",
                        "locality": "Montr\u00e9al-Nord",
                        "postcode": "H1H 3Z7",
                        "region": "QC"
                  },
                  "name": "McDonald's",
                  "popularity": 0.9984859954579863,
                  "price": 1,
                  "rating": 6.3,
                  "store_id": "5464"
            },
            {
                  "distance": 810,
                  "location": {
                        "address": "10433 Pie-Ix Blvd",
                        "country": "CA",
                        "cross_street": "Denomm\u00e9e",
                        "formatted_address": "10433 Pie-Ix Blvd (Denomm\u00e9e), Montreal-Nord QC H1H 3Z9",
                        "locality": "Montr\u00e9al-Nord",
                        "postcode": "H1H 3Z9",
                        "region": "QC"
                  },
                  "name": "Tim Hortons",
                  "popularity": 0.9913417865253595,
                  "price": 1,
                  "rating": 6.2
            },
            {
                  "distance": 736,
                  "location": {
                        "address": "10495 Pie-Ix Blvd",
                        "country": "CA",
                        "cross_street": "",
                        "formatted_address": "10495 Pie-Ix Blvd, Montreal-Nord QC H1H 4A3",
                        "locality": "Montr\u00e9al-Nord",
                        "postcode": "H1H 4A3",
                        "region": "QC"
                  },
                  "name": "R\u00f4tisserie St-Hubert",
                  "popularity": 0.9386236752460257,
                  "price": 2,
                  "rating": 6.1,
                  "store_id": "100088"
            },
            {
                  "distance": 861,
                  "location": {
                        "address": "3611 Henri-Bourassa Blvd E",
                        "country": "CA",
                        "cross_street": "Saint-Vital",
                        "formatted_address": "3611 Henri-Bourassa Blvd E (Saint-Vital), Montreal-Nord QC H1H 1J5",
                        "locality": "Montr\u00e9al-Nord",
                        "postcode": "H1H 1J5",
                        "region": "QC"
                  },
                  "name": "Tim Hortons",
                  "popularity": 0.9898750946252839,
                  "price": 1,
                  "rating": 5.3
            },
            {
                  "distance": 474,
                  "location": {
                        "address": "4031 Henri-Bourassa Blvd E",
                        "country": "CA",
                        "cross_street": "",
                        "formatted_address": "4031 Henri-Bourassa Blvd E, Montreal-Nord QC H1H 1L2",
                        "locality": "Montreal-Nord",
                        "postcode": "H1H 1L2",
                        "region": "QC"
                  },
                  "name": "Vincent Sous Marin Inc",
                  "popularity": 0.995848315669947,
                  "price": 1
            },
            {
                  "distance": 484,
                  "location": {
                        "address": "4500 Henri-Bourassa Blvd E",
                        "country": "CA",
                        "cross_street": "",
                        "formatted_address": "4500 Henri-Bourassa Blvd E, Montreal-Nord QC H1H 0A6",
                        "locality": "Montr\u00e9al-Nord",
                        "postcode": "H1H 0A6",
                        "region": "QC"
                  },
                  "name": "Restaurant Max Rupp",
                  "popularity": 0.9922643830431491,
                  "price": 3
            },
            {
                  "distance": 512,
                  "location": {
                        "address": "4304 Henri-Bourassa Blvd E",
                        "country": "CA",
                        "cross_street": "",
                        "formatted_address": "4304 Henri-Bourassa Blvd E, Montr\u00e9al QC H1H 1L8",
                        "locality": "Montreal",
                        "postcode": "H1H 1L8",
                        "region": "QC"
                  },
                  "name": "P\u00e2tisserie le Savoir-Faire",
                  "popularity": 0.8727526495079485,
                  "price": 1
            },
            {
                  "distance": 557,
                  "location": {
                        "address": "4741 rue de Charleroi",
                        "country": "CA",
                        "formatted_address": "4741 rue de Charleroi, Montreal-Nord QC H1H 1V3",
                        "locality": "Montr\u00e9al-Nord",
                        "postcode": "H1H 1V3",
                        "region": "QC"
                  },
                  "name": "Bar Lindberg",
                  "popularity": 0.907551097653293,
                  "price": 2
            },
            {
                  "distance": 604,
                  "location": {
                        "address": "10660 Pie-Ix Blvd",
                        "country": "CA",
                        "cross_street": "",
                        "formatted_address": "10660 Pie-Ix Blvd, Montreal-Nord QC H1H 4A6",
                        "locality": "Montr\u00e9al-Nord",
                        "postcode": "H1H 4A6",
                        "region": "QC"
                  },
                  "name": "Restaurant Chez Lien",
                  "popularity": 0.6618092354277063,
                  "price": 2
            },
            {
                  "distance": 702,
                  "location": {
                        "address": "10 550 Blvd Pie Ix",
                        "country": "CA",
                        "formatted_address": "10 550 Blvd Pie Ix, Montreal-Nord QC H1H 4A2",
                        "locality": "Montr\u00e9al-Nord",
                        "postcode": "H1H 4A2",
                        "region": "QC"
                  },
                  "name": "Benny&Co",
                  "popularity": 0.9461818697956094,
                  "price": 3,
                  "store_id": "BC_24"
            },
            {
                  "distance": 718,
                  "location": {
                        "address": "4880 rue de Charleroi",
                        "country": "CA",
                        "cross_street": "",
                        "formatted_address": "4880 rue de Charleroi, Montreal-Nord QC H1G 2Y7",
                        "locality": "Montr\u00e9al-Nord",
                        "postcode": "H1G 2Y7",
                        "region": "QC"
                  },
                  "name": "Trattoria Del Sud",
                  "popularity": 0.8094956472369417,
                  "price": 2
            },
            {
                  "distance": 784,
                  "location": {
                        "address": "10490 Pie I X Blvd",
                        "country": "CA",
                        "cross_street": "Forest",
                        "formatted_address": "10490 Pie I X Blvd (Forest), Montreal-Nord QC H1H 4A1",
                        "locality": "Montr\u00e9al-Nord",
                        "postcode": "H1H 4A1",
                        "region": "QC"
                  },
                  "name": "Restaurant le Petit Quebec",
                  "popularity": 0.9423495457986374,
                  "price": 1
            },
            {
                  "distance": 847,
                  "location": {
                        "address": "4960 Rue de Charleroi",
                        "country": "CA",
                        "cross_street": "",
                        "formatted_address": "4960 Rue de Charleroi, Montr\u00e9al QC H1G 2Z1",
                        "locality": "Montreal",
                        "postcode": "H1G 2Z1",
                        "region": "QC"
                  },
                  "name": "Double Pizza",
                  "popularity": 0.9755157077971234,
                  "price": 1
            },
            {
                  "distance": 885,
                  "location": {
                        "address": "3570 Henri-Bourassa Blvd E",
                        "country": "CA",
                        "cross_street": "",
                        "formatted_address": "3570 Henri-Bourassa Blvd E, Montr\u00e9al QC H1H 1J3",
                        "locality": "Montreal",
                        "postcode": "H1H 1J3",
                        "region": "QC"
                  },
                  "name": "Agent Gourmand",
                  "popularity": 0.6722416729750189
            },
            {
                  "distance": 990,
                  "location": {
                        "address": "3943 Fleury Rue E",
                        "country": "CA",
                        "cross_street": "",
                        "formatted_address": "3943 Fleury Rue E, Montr\u00e9al QC H1H 2T8",
                        "locality": "Montreal",
                        "postcode": "H1H 2T8",
                        "region": "QC"
                  },
                  "name": "Resto Quatro",
                  "popularity": 0.9647639099167298,
                  "price": 2
            },
            {
                  "distance": 395,
                  "location": {
                        "address": "10795 Pie-Ix Blvd",
                        "country": "CA",
                        "formatted_address": "10795 Pie-Ix Blvd, Montreal-Nord QC H1H 4A9",
                        "locality": "Montreal-Nord",
                        "postcode": "H1H 4A9",
                        "region": "QC"
                  },
                  "name": "Go\u00fbter Cara\u00efbes"
            },
            {
                  "distance": 450,
                  "location": {
                        "address": "4668 Rue de Charleroi",
                        "country": "CA",
                        "formatted_address": "4668 Rue de Charleroi, Montreal-Nord QC H1H 1T7",
                        "locality": "Montreal-Nord",
                        "postcode": "H1H 1T7",
                        "region": "QC"
                  },
                  "name": "Restaurant Granada"
            },
            {
                  "distance": 477,
                  "location": {
                        "address": "4304 Henri-Bourassa Blvd E",
                        "country": "CA",
                        "formatted_address": "4304 Henri-Bourassa Blvd E, Montreal-Nord QC H1H 1L8",
                        "locality": "Montreal-Nord",
                        "postcode": "H1H 1L8",
                        "region": "QC"
                  },
                  "name": "4304 Patisserie"
            },
            {
                  "distance": 495,
                  "location": {
                        "address": "4316 Henri-Bourassa Blvd E",
                        "country": "CA",
                        "formatted_address": "4316 Henri-Bourassa Blvd E, Montreal-Nord QC H1H 1L8",
                        "locality": "Montreal-Nord",
                        "postcode": "H1H 1L8",
                        "region": "QC"
                  },
                  "name": "Restaurant Caribbean Grille"
            },
            {
                  "distance": 521,
                  "location": {
                        "address": "4707 rue de Charleroi",
                        "country": "CA",
                        "formatted_address": "4707 rue de Charleroi, Montreal-Nord QC H1H 1V1",
                        "locality": "Montreal-Nord",
                        "postcode": "H1H 1V1",
                        "region": "QC"
                  },
                  "name": "Pho Nho"
            },
            {
                  "distance": 553,
                  "location": {
                        "address": "4741 Rue de Charleroi -Nord",
                        "country": "CA",
                        "formatted_address": "4741 Rue de Charleroi -Nord, Montreal-Nord QC H1H 1V3",
                        "locality": "Montreal-Nord",
                        "postcode": "H1H 1V3",
                        "region": "QC"
                  },
                  "name": "Brasserie Charleroi"
            },
            {
                  "distance": 586,
                  "location": {
                        "address": "10660 Pie-Ix Blvd",
                        "country": "CA",
                        "formatted_address": "10660 Pie-Ix Blvd, Montreal-Nord QC H1H 4A6",
                        "locality": "Montreal-Nord",
                        "postcode": "H1H 4A6",
                        "region": "QC"
                  },
                  "name": "Ph\u00f2 H\u00f2a Long"
            },
            {
                  "distance": 616,
                  "location": {
                        "address": "10650 Pie-Ix Blvd",
                        "country": "CA",
                        "formatted_address": "10650 Pie-Ix Blvd, Montreal-Nord QC H1H 4A6",
                        "locality": "Montreal-Nord",
                        "postcode": "H1H 4A6",
                        "region": "QC"
                  },
                  "name": "Chez Corneli Pizza & Spaghetti"
            },
            {
                  "distance": 705,
                  "location": {
                        "address": "4711 d'Amiens Rue",
                        "country": "CA",
                        "formatted_address": "4711 d'Amiens Rue, Montreal-Nord QC H1H 2H9",
                        "locality": "Montreal-Nord",
                        "postcode": "H1H 2H9",
                        "region": "QC"
                  },
                  "name": "Via Pizza"
            },
            {
                  "distance": 706,
                  "location": {
                        "address": "10669 Pie-Ix Blvd",
                        "country": "CA",
                        "formatted_address": "10669 Pie-Ix Blvd, Montreal-Nord QC H1H 4A3",
                        "locality": "Montreal-Nord",
                        "postcode": "H1H 4A3",
                        "region": "QC"
                  },
                  "name": "Bar Pot de Chance"
            },
            {
                  "distance": 718,
                  "location": {
                        "address": "10550 Pie Ix Blvd",
                        "country": "CA",
                        "formatted_address": "10550 Pie Ix Blvd, Montreal QC H1H 2M8",
                        "locality": "Montreal",
                        "postcode": "H1H 2M8",
                        "region": "QC"
                  },
                  "name": "Benny&Co"
            },
            {
                  "distance": 730,
                  "location": {
                        "address": "10567 Pie Ix Blvd",
                        "country": "CA",
                        "formatted_address": "10567 Pie Ix Blvd, Montreal-Nord QC H1H 4A3",
                        "locality": "Montreal-Nord",
                        "postcode": "H1H 4A3",
                        "region": "QC"
                  },
                  "name": "Deli-Forest Restaurant"
            },
            {
                  "distance": 733,
                  "location": {
                        "address": "10567 Pie I X Blvd",
                        "country": "CA",
                        "formatted_address": "10567 Pie I X Blvd, Montreal-Nord QC H1H 4A3",
                        "locality": "Montreal-Nord",
                        "postcode": "H1H 4A3",
                        "region": "QC"
                  },
                  "name": "Bob Delicatessen Restaurant"
            },
            {
                  "distance": 763,
                  "location": {
                        "address": "4132 Forest Rue",
                        "country": "CA",
                        "formatted_address": "4132 Forest Rue, Montreal-Nord QC H1H 2N5",
                        "locality": "Montreal-Nord",
                        "postcode": "H1H 2N5",
                        "region": "QC"
                  },
                  "name": "Super Prix"
            },
            {
                  "distance": 808,
                  "location": {
                        "address": "10701 Bellevois Ave",
                        "country": "CA",
                        "formatted_address": "10701 Bellevois Ave, Montreal-Nord QC H1H 3C7",
                        "locality": "Montreal-Nord",
                        "postcode": "H1H 3C7",
                        "region": "QC"
                  },
                  "name": "Resto la Spirale"
            },
            {
                  "distance": 808,
                  "location": {
                        "address": "10701 Bellevois Ave",
                        "country": "CA",
                        "formatted_address": "10701 Bellevois Ave, Montreal-Nord QC H1H 3C7",
                        "locality": "Montreal-Nord",
                        "postcode": "H1H 3C7",
                        "region": "QC"
                  },
                  "name": "Restaurant Oa Latina Inc"
            },
            {
                  "distance": 843,
                  "location": {
                        "address": "10914 Saint Vital Blvd",
                        "country": "CA",
                        "formatted_address": "10914 Saint Vital Blvd, Montreal-Nord QC H1H 4T4",
                        "locality": "Montreal-Nord",
                        "postcode": "H1H 4T4",
                        "region": "QC"
                  },
                  "name": "Patisserie Lien Phat"
            },
            {
                  "distance": 858,
                  "location": {
                        "address": "4956 rue de Charleroi",
                        "country": "CA",
                        "formatted_address": "4956 rue de Charleroi, Montreal-Nord QC H1G 2Z1",
                        "locality": "Montreal-Nord",
                        "postcode": "H1G 2Z1",
                        "region": "QC"
                  },
                  "name": "Poissonnerie Fish & Chips Inc"
            },
            {
                  "distance": 865,
                  "location": {
                        "address": "4979 rue de Charleroi",
                        "country": "CA",
                        "formatted_address": "4979 rue de Charleroi, Montreal-Nord QC H1G 2Z2",
                        "locality": "Montreal-Nord",
                        "postcode": "H1G 2Z2",
                        "region": "QC"
                  },
                  "name": "Caf\u00e9 et P\u00e2tisserie Guloglu Baklava"
            }
      ],
      "context": {
            "geo_bounds": {
                  "circle": {
                        "center": {
                              "latitude": 45.59398503,
                              "longitude": -73.63767207
                        },
                        "radius": 1000
                  }
            }
      }
}