{
      "results": [
            {
                  "distance": 563,
                  "location": {
                        "address": "3632 Ontario Rue E",
                        "address_extended": "coin De Chambly",
                        "country": "CA",
                        "cross_street": "coin De Chambly",
                        "formatted_address": "3632 Ontario Rue E (coin De Chambly), Montr\u00e9al QC H1W 1R7",
                        "locality": "Montreal",
                        "postcode": "H1W 1R7",
                        "region": "QC"
                  },
                  "name": "L'Espace Public-Brasseurs de Quartier",
                  "popularity": 0.9611799772899319,
                  "price": 2,
                  "rating": 8.8
            },
            {
                  "distance": 603,
                  "location": {
                        "address": "4005 Ontario Rue E",
                        "country": "CA",
                        "cross_street": "",
                        "formatted_address": "4005 Ontario Rue E, Montr\u00e9al QC H1W 1T1",
                        "locality": "Montreal",
                        "postcode": "H1W 1T1",
                        "region": "QC"
                  },
                  "name": "\u00c9tat-Major",
                  "popularity": 0.9057295609386828,
                  "price": 2,
                  "rating": 8.7
            },
            {
                  "distance": 766,
                  "location": {
                        "address": "4255 Ontario Rue E",
                        "country": "CA",
                        "cross_street": "",
                        "formatted_address": "4255 Ontario Rue E, Montr\u00e9al QC H1V 1K4",
                        "locality": "Montreal",
                        "postcode": "H1V 1K4",
                        "region": "QC"
                  },
                  "name": "H\u00e9licopt\u00e8re",
                  "popularity": 0.910744700984103,
                  "price": 2,
                  "rating": 8.6
            },
            {
                  "distance": 575,
                  "location": {
                        "address": "3606 Ontario Rue E",
                        "country": "CA",
                        "cross_street": "entre Joliette & De Chambly",
                        "formatted_address": "3606 Ontario Rue E (entre Joliette & De Chambly), Montr\u00e9al QC H1W 1R7",
                        "locality": "Montreal",
                        "postcode": "H1W 1R7",
                        "region": "QC"
                  },
                  "name": "Atomic Cafe",
                  "popularity": 0.9511733535200606,
                  "price": 1,
                  "rating": 8.5
            },
            {
                  "distance": 433,
                  "location": {
                        "address": "4137 Sainte-Catherine Rue E",
                        "country": "CA",
                        "cross_street": "entre Pie-IX & Desjardins",
                        "formatted_address": "4137 Sainte-Catherine Rue E (entre Pie-IX & Desjardins), Montr\u00e9al QC H1V 1X1",
                        "locality": "Montreal",
                        "postcode": "H1V 1X1",
                        "region": "QC"
                  },
                  "name": "Les Affam\u00e9s",
                  "popularity": 0.869937547312642,
                  "price": 2,
                  "rating": 8.5
            },
            {
                  "distance": 866,
                  "location": {
                        "address": "4317 Ontario Rue E",
                        "country": "CA",
                        "cross_street": "Letourneux",
                        "formatted_address": "4317 Ontario Rue E (Letourneux), Montr\u00e9al QC H1V 1K5",
                        "locality": "Montreal",
                        "postcode": "H1V 1K5",
                        "region": "QC"
                  },
                  "name": "Les gourmandises de Marie-Antoinette",
                  "popularity": 0.9419828728236185,
                  "price": 2,
                  "rating": 8.3
            },
            {
                  "distance": 599,
                  "location": {
                        "address": "4264 Sainte-Catherine Rue E",
                        "country": "CA",
                        "cross_street": "",
                        "formatted_address": "4264 Sainte-Catherine Rue E, Montr\u00e9al QC H1V 1X6",
                        "locality": "Montreal",
                        "postcode": "H1V 1X6",
                        "region": "QC"
                  },
                  "name": "Bistro le Ste-Cath",
                  "popularity": 0.9269137963663892,
                  "rating": 7.8
            },
            {
                  "distance": 743,
                  "location": {
                        "address": "4223 Ontario Rue E",
                        "country": "CA",
                        "cross_street": "coin Desjardins",
                        "formatted_address": "4223 Ontario Rue E (coin Desjardins), Montr\u00e9al QC H1V 1K2",
                        "locality": "Montreal",
                        "postcode": "H1V 1K2",
                        "region": "QC"
                  },
                  "name": "New Casa de la Pizza",
                  "popularity": 0.8993660105980318,
                  "price": 1,
                  "rating": 7.4
            },
            {
                  "distance": 552,
                  "location": {
                        "address": "25 Simon Valois Pl",
                        "country": "CA",
                        "cross_street": "coin Ontario",
                        "formatted_address": "25 Simon Valois Pl (coin Ontario), Montr\u00e9al QC H1W 0A6",
                        "locality": "Montreal",
                        "postcode": "H1W 0A6",
                        "region": "QC"
                  },
                  "name": "Le Valois",
                  "popularity": 0.8502436601059803,
                  "price": 2,
                  "rating": 7.4
            },
            {
                  "distance": 537,
                  "location": {
                        "address": "3882 Ontario Rue E",
                        "country": "CA",
                        "cross_street": "",
                        "formatted_address": "3882 Ontario Rue E, Montr\u00e9al QC H1W 1S6",
                        "locality": "Montreal",
                        "postcode": "H1W 1S6",
                        "region": "QC"
                  },
                  "name": "Le Blind Pig",
                  "popularity": 0.9555379447388342,
                  "price": 1,
                  "rating": 7.3
            },
            {
                  "distance": 537,
                  "location": {
                        "address": "3860 Ontario Rue E",
                        "country": "CA",
                        "cross_street": "Bourbonni\u00e8re",
                        "formatted_address": "3860 Ontario Rue E (Bourbonni\u00e8re), Montr\u00e9al QC H1W 1S4",
                        "locality": "Montreal",
                        "postcode": "H1W 1S4",
                        "region": "QC"
                  },
                  "name": "Restaurant la Pataterie Inc",
                  "popularity": 0.9558573050719152,
                  "price": 1,
                  "rating": 7.3
            },
            {
                  "distance": 542,
                  "location": {
                        "address": "4234 Ste",
                        "country": "CA",
                        "cross_street": "De La Salle",
                        "formatted_address": "4234 Ste (De La Salle), Montr\u00e9al QC",
                        "locality": "Montreal",
                        "region": "QC"
                  },
                  "name": "Bistro Bedondaine",
                  "popularity": 0.8589137017411053,
                  "rating": 7.0
            },
            {
                  "distance": 789,
                  "location": {
                        "address": "2009 Ave de la Salle",
                        "country": "CA",
                        "cross_street": "",
                        "formatted_address": "2009 Ave de la Salle, Montr\u00e9al QC H1V 2K6",
                        "locality": "Montreal",
                        "postcode": "H1V 2K6",
                        "region": "QC"
                  },
                  "name": "H\u00e9lico",
                  "popularity": 0.9399366010598031,
                  "price": 1,
                  "rating": 6.9
            },
            {
                  "distance": 367,
                  "location": {
                        "address": "4077 Sainte-Catherine Rue E",
                        "country": "CA",
                        "cross_street": "coin Pie-IX",
                        "formatted_address": "4077 Sainte-Catherine Rue E (coin Pie-IX), Montr\u00e9al QC H1W 2G9",
                        "locality": "Montreal",
                        "postcode": "H1W 2G9",
                        "region": "QC"
                  },
                  "name": "Subway",
                  "popularity": 0.8937831188493566,
                  "price": 1,
                  "rating": 6.3
            },
            {
                  "distance": 653,
                  "location": {
                        "address": "3501 Ontario Rue E",
                        "country": "CA",
                        "cross_street": "Aylwin",
                        "formatted_address": "3501 Ontario Rue E (Aylwin), Montr\u00e9al QC H1W 1R4",
                        "locality": "Montreal",
                        "postcode": "H1W 1R4",
                        "region": "QC"
                  },
                  "name": "Subway",
                  "popularity": 0.927008421650265,
                  "price": 1,
                  "rating": 6.2,
                  "store_id": "14811"
            },
            {
                  "distance": 545,
                  "location": {
                        "address": "3753 Ontario Rue E",
                        "country": "CA",
                        "cross_street": "valois",
                        "formatted_address": "3753 Ontario Rue E (valois), Montr\u00e9al QC H1W 1S3",
                        "locality": "Montreal",
                        "postcode": "H1W 1S3",
                        "region": "QC"
                  },
                  "name": "Piri Piri Hochelaga",
                  "popularity": 0.9395699280847842,
                  "price": 2,
                  "rating": 6.2
            },
            {
                  "distance": 548,
                  "location": {
                        "address": "3905 Ontario Rue E",
                        "country": "CA",
                        "cross_street": "",
                        "formatted_address": "3905 Ontario Rue E, Montr\u00e9al QC H1W 1S7",
                        "locality": "Montreal",
                        "postcode": "H1W 1S7",
                        "region": "QC"
                  },
                  "name": "Burrito Revolucion",
                  "popularity": 0.5280800529901589,
                  "rating": 6.0
            },
            {
                  "distance": 582,
                  "location": {
                        "address": "3982 Ontario Rue E",
                        "country": "CA",
                        "formatted_address": "3982 Ontario Rue E, Montr\u00e9al QC H1W 1S9",
                        "locality": "Montreal",
                        "postcode": "H1W 1S9",
                        "region": "QC"
                  },
                  "name": "Gerry's Restaurant Delicatessen",
                  "popularity": 0.9548400832702498,
                  "price": 3,
                  "rating": 5.8
            },
            {
                  "distance": 549,
                  "location": {
                        "address": "3634 Ontario Rue E",
                        "country": "CA",
                        "cross_street": "coin Chambly",
                        "formatted_address": "3634 Ontario Rue E (coin Chambly), Montr\u00e9al QC H1W 1R7",
                        "locality": "Montreal",
                        "postcode": "H1W 1R7",
                        "region": "QC"
                  },
                  "name": "Tim Hortons",
                  "popularity": 0.958873485995458,
                  "price": 1,
                  "rating": 5.4
            },
            {
                  "distance": 19,
                  "location": {
                        "address": "3785 Sainte-Catherine Rue E",
                        "country": "CA",
                        "cross_street": "",
                        "formatted_address": "3785 Sainte-Catherine Rue E, Montr\u00e9al QC H1W 2E9",
                        "locality": "Montreal",
                        "postcode": "H1W 2E9",
                        "region": "QC"
                  },
                  "name": "Bar Chez Francoise",
                  "popularity": 0.24913654428463286,
                  "price": 2
            },
            {
                  "distance": 216,
                  "location": {
                        "address": "3637 Sainte-Catherine Rue E",
                        "country": "CA",
                        "cross_street": "",
                        "formatted_address": "3637 Sainte-Catherine Rue E, Montr\u00e9al QC H1W 2E6",
                        "locality": "Montreal",
                        "postcode": "H1W 2E6",
                        "region": "QC"
                  },
                  "name": "Caf\u00e9 \u00c9lice",
                  "popularity": 0.944549583648751,
                  "price": 1
            },
            {
                  "distance": 534,
                  "location": {
                        "address": "3668 Ontario Rue E",
                        "country": "CA",
                        "cross_street": "",
                        "formatted_address": "3668 Ontario Rue E, Montr\u00e9al QC H1W 1R9",
                        "locality": "Montreal",
                        "postcode": "H1W 1R9",
                        "region": "QC"
                  },
                  "name": "Sabor Del Sur",
                  "popularity": 0.8754494700984103,
                  "price": 1
            },
            {
                  "distance": 545,
                  "location": {
                        "address": "3739 Ontario Rue E",
                        "country": "CA",
                        "cross_street": "Nicolet",
                        "formatted_address": "3739 Ontario Rue E (Nicolet), Montr\u00e9al QC H1W 1S3",
                        "locality": "Montreal",
                        "postcode": "H1W 1S3",
                        "region": "QC"
                  },
                  "name": "Resto-Bar le Pick Up",
                  "popularity": 0.9295987887963664,
                  "price": 2
            },
            {
                  "distance": 560,
                  "location": {
                        "address": "3905 Ontario Rue E",
                        "country": "CA",
                        "cross_street": "",
                        "formatted_address": "3905 Ontario Rue E, Montr\u00e9al QC H1W 1S7",
                        "locality": "Montreal",
                        "postcode": "H1W 1S7",
                        "region": "QC"
                  },
                  "name": "Pizza Fugazzi",
                  "popularity": 0.8975563020439061,
                  "price": 1
            },
            {
                  "distance": 579,
                  "location": {
                        "address": "3979 Ontario Rue E",
                        "country": "CA",
                        "cross_street": "",
                        "formatted_address": "3979 Ontario Rue E, Montr\u00e9al QC H1W 1T1",
                        "locality": "Montreal",
                        "postcode": "H1W 1T1",
                        "region": "QC"
                  },
                  "name": "Pizzeria Bros",
                  "popularity": 0.892884178652536,
                  "price": 1
            },
            {
                  "distance": 580,
                  "location": {
                        "address": "5 Simon Valois Pl",
                        "country": "CA",
                        "cross_street": "Ontario",
                        "formatted_address": "5 Simon Valois Pl (Ontario), Montr\u00e9al QC H1W 0A6",
                        "locality": "Montreal",
                        "postcode": "H1W 0A6",
                        "region": "QC"
                  },
                  "name": "Bar Laitier",
                  "popularity": 0.4559637585162756,
                  "price": 1
            },
            {
                  "distance": 583,
                  "location": {
                        "address": "3979 Ontario Rue E",
                        "country": "CA",
                        "cross_street": "",
                        "formatted_address": "3979 Ontario Rue E, Montr\u00e9al QC H1W 1T1",
                        "locality": "Montreal",
                        "postcode": "H1W 1T1",
                        "region": "QC"
                  },
                  "name": "\u00d4-Big",
                  "popularity": 0.2312523656320969,
                  "price": 1
            },
            {
                  "distance": 615,
                  "location": {
                        "address": "4045 Ontario Rue E",
                        "country": "CA",
                        "cross_street": "",
                        "formatted_address": "4045 Ontario Rue E, Montr\u00e9al QC H1W 1T3",
                        "locality": "Montreal",
                        "postcode": "H1W 1T3",
                        "region": "QC"
                  },
                  "name": "Wolfgang Social Club",
                  "popularity": 0.8224711392884179,
                  "price": 1
            },
            {
                  "distance": 660,
                  "location": {
                        "address": "2030 Pie-Ix Blvd",
                        "country": "CA",
                        "cross_street": "Ontario",
                        "formatted_address": "2030 Pie-Ix Blvd (Ontario), Montr\u00e9al QC H1V 2C8",
                        "locality": "Montreal",
                        "postcode": "H1V 2C8",
                        "region": "QC"
                  },
                  "name": "American Can Company Building",
                  "popularity": 0.9969838190764573
            },
            {
                  "distance": 666,
                  "location": {
                        "address": "4303 Sainte-Catherine Rue E",
                        "country": "CA",
                        "cross_street": "",
                        "formatted_address": "4303 Sainte-Catherine Rue E, Montr\u00e9al QC H1V 1Y1",
                        "locality": "Montreal",
                        "postcode": "H1V 1Y1",
                        "region": "QC"
                  },
                  "name": "Bar le Bureau",
                  "popularity": 0.5600397426192278,
                  "price": 2
            },
            {
                  "distance": 689,
                  "location": {
                        "address": "4316 Sainte-Catherine Rue E",
                        "country": "CA",
                        "cross_street": "",
                        "formatted_address": "4316 Sainte-Catherine Rue E, Montr\u00e9al QC H1V 1X9",
                        "locality": "Montreal",
                        "postcode": "H1V 1X9",
                        "region": "QC"
                  },
                  "name": "Supernat",
                  "popularity": 0.9456496025738077,
                  "price": 1
            },
            {
                  "distance": 692,
                  "location": {
                        "address": "3445 Ontario Rue E",
                        "country": "CA",
                        "formatted_address": "3445 Ontario Rue E, Montr\u00e9al QC H1W 1R1",
                        "locality": "Montreal",
                        "postcode": "H1W 1R1",
                        "region": "QC"
                  },
                  "name": "Pizza Piroz",
                  "popularity": 0.9594530658591975,
                  "price": 1
            },
            {
                  "distance": 725,
                  "location": {
                        "address": "3417 Ontario Rue E",
                        "country": "CA",
                        "cross_street": "",
                        "formatted_address": "3417 Ontario Rue E, Montr\u00e9al QC H1W 1R1",
                        "locality": "Montreal",
                        "postcode": "H1W 1R1",
                        "region": "QC"
                  },
                  "name": "Boustan",
                  "popularity": 0.9085683194549584,
                  "price": 2
            },
            {
                  "distance": 754,
                  "location": {
                        "address": "3350 Ontario Rue E",
                        "country": "CA",
                        "cross_street": "Davidson",
                        "formatted_address": "3350 Ontario Rue E (Davidson), Montr\u00e9al QC H1W 1P7",
                        "locality": "Montreal",
                        "postcode": "H1W 1P7",
                        "region": "QC"
                  },
                  "name": "El Jumelgi",
                  "popularity": 0.6334216502649508
            },
            {
                  "distance": 765,
                  "location": {
                        "address": "3353 Ontario Rue E",
                        "country": "CA",
                        "cross_street": "",
                        "formatted_address": "3353 Ontario Rue E, Montr\u00e9al QC H1W 1P8",
                        "locality": "Montreal",
                        "postcode": "H1W 1P8",
                        "region": "QC"
                  },
                  "name": "Bistro 360",
                  "popularity": 0.1549134178652536,
                  "price": 1
            }
      ],
      "context": {
            "geo_bounds": {
                  "circle": {
                        "center": {
                              "latitude": 45.54522973,
                              "longitude": -73.53725016
                        },
                        "radius": 1000
                  }
            }
      }
}