{
      "results": [
            {
                  "distance": 581,
                  "location": {
                        "address": "275 Blvd de la Concorde E",
                        "country": "CA",
                        "cross_street": "rue des Alouettes",
                        "formatted_address": "275 Blvd de la Concorde E (rue des Alouettes), Laval QC H7G 2E5",
                        "locality": "Laval",
                        "postcode": "H7G 2E5",
                        "region": "QC"
                  },
                  "name": "Les Insulaires Microbrasseurs",
                  "popularity": 0.9980362402927787,
                  "price": 2,
                  "rating": 7.7
            },
            {
                  "distance": 285,
                  "location": {
                        "address": "330 Rue de la Normandie",
                        "country": "CA",
                        "cross_street": "at de la Concorde",
                        "formatted_address": "330 Rue de la Normandie (at de la Concorde), Laval QC H7G 2A8",
                        "locality": "Laval",
                        "postcode": "H7G 2A8",
                        "region": "QC"
                  },
                  "name": "Dejeuner Au P'tit Dore",
                  "popularity": 0.828171025618138,
                  "price": 1,
                  "rating": 7.5
            },
            {
                  "distance": 633,
                  "location": {
                        "address": "802 des Laurentides Blvd",
                        "country": "CA",
                        "cross_street": "",
                        "formatted_address": "802 des Laurentides Blvd, Laval QC H7G 2V9",
                        "locality": "Laval",
                        "postcode": "H7G 2V9",
                        "region": "QC"
                  },
                  "name": "Restaurant le Pirate de Laval",
                  "popularity": 0.9817905918057663,
                  "price": 2,
                  "rating": 7.0
            },
            {
                  "distance": 595,
                  "location": {
                        "address": "661 des Laurentides Blvd",
                        "country": "CA",
                        "cross_street": "",
                        "formatted_address": "661 des Laurentides Blvd, Laval QC H7G 2V8",
                        "locality": "Laval",
                        "postcode": "H7G 2V8",
                        "region": "QC"
                  },
                  "name": "Restaurant Vien Dong",
                  "popularity": 0.8900294563956083,
                  "price": 2,
                  "rating": 6.8
            },
            {
                  "distance": 713,
                  "location": {
                        "address": "1031 des Laurentides Blvd",
                        "country": "CA",
                        "cross_street": "coin Gianchetti",
                        "formatted_address": "1031 des Laurentides Blvd (coin Gianchetti), Laval QC H7G 2V8",
                        "locality": "Laval",
                        "postcode": "H7G 2V8",
                        "region": "QC"
                  },
                  "name": "Restaurant Chalutier M l M",
                  "popularity": 0.9672409176113541,
                  "price": 3,
                  "rating": 6.4
            },
            {
                  "distance": 628,
                  "location": {
                        "address": "489 des Laurentides Blvd",
                        "country": "CA",
                        "cross_street": "De la Concorde",
                        "formatted_address": "489 des Laurentides Blvd (De la Concorde), Laval QC H7G 2V2",
                        "locality": "Laval",
                        "postcode": "H7G 2V2",
                        "region": "QC"
                  },
                  "name": "Tim Hortons",
                  "popularity": 0.9634919218066589,
                  "price": 1,
                  "rating": 6.2
            },
            {
                  "distance": 596,
                  "location": {
                        "address": "662 des Laurentides Blvd",
                        "country": "CA",
                        "cross_street": "",
                        "formatted_address": "662 des Laurentides Blvd, Laval QC H7G 2V9",
                        "locality": "Laval",
                        "postcode": "H7G 2V9",
                        "region": "QC"
                  },
                  "name": "Pizza Pizza",
                  "popularity": 0.8395072748370972,
                  "price": 1,
                  "rating": 6.1,
                  "store_id": "309"
            },
            {
                  "distance": 609,
                  "location": {
                        "address": "650 des Laurentides Blvd",
                        "country": "CA",
                        "formatted_address": "650 des Laurentides Blvd, Laval QC H7G 2V9",
                        "locality": "Laval",
                        "postcode": "H7G 2V9",
                        "region": "QC"
                  },
                  "name": "Tim Hortons",
                  "popularity": 0.9957154333660626,
                  "price": 1,
                  "rating": 5.5
            },
            {
                  "distance": 198,
                  "location": {
                        "address": "131 Blvd de la Concorde Est",
                        "country": "CA",
                        "cross_street": "coin rue Goineau et boulevard de la Concorde",
                        "formatted_address": "131 Blvd de la Concorde Est (coin rue Goineau et boulevard de la Concorde), Laval QC H7G 2C3",
                        "locality": "Laval",
                        "postcode": "H7G 2C3",
                        "region": "QC"
                  },
                  "name": "Le Caf\u00e9 de la Concorde",
                  "popularity": 0.6791038114790681,
                  "price": 1
            },
            {
                  "distance": 284,
                  "location": {
                        "address": "220 Blvd de la Concorde Est",
                        "country": "CA",
                        "formatted_address": "220 Blvd de la Concorde Est, Laval QC H7G 2E1",
                        "locality": "Laval",
                        "postcode": "H7G 2E1",
                        "region": "QC"
                  },
                  "name": "Tandoori Xpress",
                  "popularity": 0.874051593323217,
                  "price": 2
            },
            {
                  "distance": 308,
                  "location": {
                        "address": "199 Blvd de la Concorde Est",
                        "country": "CA",
                        "cross_street": "",
                        "formatted_address": "199 Blvd de la Concorde Est, Laval QC H7G 2C7",
                        "locality": "Laval",
                        "postcode": "H7G 2C7",
                        "region": "QC"
                  },
                  "name": "Soleil d'Asie",
                  "popularity": 0.02865303936445595,
                  "price": 2
            },
            {
                  "distance": 373,
                  "location": {
                        "address": "72 Blvd de la Concorde Est",
                        "country": "CA",
                        "cross_street": "",
                        "formatted_address": "72 Blvd de la Concorde Est, Laval QC H7G 2B7",
                        "locality": "Laval",
                        "postcode": "H7G 2B7",
                        "region": "QC"
                  },
                  "name": "Creme Amis",
                  "popularity": 0.5093278586093011,
                  "price": 1
            },
            {
                  "distance": 391,
                  "location": {
                        "address": "70 Blvd de la Concorde E",
                        "country": "CA",
                        "cross_street": "",
                        "formatted_address": "70 Blvd de la Concorde E, Laval QC H7G 2B7",
                        "locality": "Laval",
                        "postcode": "H7G 2B7",
                        "region": "QC"
                  },
                  "name": "Le Fils a Maman",
                  "popularity": 0.43631170222261895,
                  "price": 2
            },
            {
                  "distance": 592,
                  "location": {
                        "address": "281 Concorde East Blvd",
                        "address_extended": "# 279",
                        "country": "CA",
                        "cross_street": "Rue des Alouettes",
                        "formatted_address": "281 Concorde East Blvd (Rue des Alouettes), Laval QC H7G 2E5",
                        "locality": "Laval",
                        "postcode": "H7G 2E5",
                        "region": "QC"
                  },
                  "name": "Subway",
                  "popularity": 0.8062126216192091,
                  "price": 1,
                  "store_id": "54471"
            },
            {
                  "distance": 691,
                  "location": {
                        "address": "445 des Laurentides Blvd",
                        "country": "CA",
                        "cross_street": "",
                        "formatted_address": "445 des Laurentides Blvd, Laval QC H7G 2V2",
                        "locality": "Laval",
                        "postcode": "H7G 2V2",
                        "region": "QC"
                  },
                  "name": "Bar Club Mangu",
                  "popularity": 0.8199589395697581,
                  "price": 1
            },
            {
                  "distance": 707,
                  "location": {
                        "address": "1039 des Laurentides Blvd",
                        "country": "CA",
                        "cross_street": "",
                        "formatted_address": "1039 des Laurentides Blvd, Laval QC H7G 2W2",
                        "locality": "Laval",
                        "postcode": "H7G 2W2",
                        "region": "QC"
                  },
                  "name": "Restaurant Lavita",
                  "popularity": 0.9453717754172989,
                  "price": 2
            },
            {
                  "distance": 729,
                  "location": {
                        "address": "1622 Blvd de la Concorde E",
                        "country": "CA",
                        "cross_street": "",
                        "formatted_address": "1622 Blvd de la Concorde E, Laval QC H7G 2E7",
                        "locality": "Laval",
                        "postcode": "H7G 2E7",
                        "region": "QC"
                  },
                  "name": "Domino's Pizza",
                  "popularity": 0.9213603499062751,
                  "price": 1,
                  "store_id": "10691"
            },
            {
                  "distance": 730,
                  "location": {
                        "address": "1040 des Laurentides Blvd",
                        "country": "CA",
                        "cross_street": "",
                        "formatted_address": "1040 des Laurentides Blvd, Laval QC H7G 2W1",
                        "locality": "Laval",
                        "postcode": "H7G 2W1",
                        "region": "QC"
                  },
                  "name": "Restaurant Basha",
                  "popularity": 0.8654824600553424,
                  "price": 1
            },
            {
                  "distance": 956,
                  "location": {
                        "address": "1091 des Laurentides Blvd",
                        "country": "CA",
                        "cross_street": "",
                        "formatted_address": "1091 des Laurentides Blvd, Laval QC H7G 2W2",
                        "locality": "Laval",
                        "postcode": "H7G 2W2",
                        "region": "QC"
                  },
                  "name": "LongJ Sushi",
                  "popularity": 0.5665446755333393,
                  "price": 2
            },
            {
                  "distance": 957,
                  "location": {
                        "address": "1093 des Laurentides Blvd",
                        "country": "CA",
                        "formatted_address": "1093 des Laurentides Blvd, Laval QC H7G 2W2",
                        "locality": "Laval",
                        "postcode": "H7G 2W2",
                        "region": "QC"
                  },
                  "name": "Quiznos",
                  "popularity": 0.8954744264929037,
                  "price": 1,
                  "store_id": "6836"
            },
            {
                  "distance": 990,
                  "location": {
                        "address": "223 des Laurentides Blvd",
                        "country": "CA",
                        "cross_street": "",
                        "formatted_address": "223 des Laurentides Blvd, Laval QC H7G 2T7",
                        "locality": "Laval",
                        "postcode": "H7G 2T7",
                        "region": "QC"
                  },
                  "name": "Crazy Moon Laval",
                  "popularity": 0.9260019637597072,
                  "price": 3
            },
            {
                  "distance": 245,
                  "location": {
                        "address": "519 Patenaude Rue",
                        "country": "CA",
                        "formatted_address": "519 Patenaude Rue, Laval QC H7G 3G2",
                        "locality": "Laval",
                        "postcode": "H7G 3G2",
                        "region": "QC"
                  },
                  "name": "Restolicious"
            },
            {
                  "distance": 295,
                  "location": {
                        "address": "159 Blvd de la Concorde E",
                        "country": "CA",
                        "formatted_address": "159 Blvd de la Concorde E, Laval QC H7G 2C6",
                        "locality": "Laval",
                        "postcode": "H7G 2C6",
                        "region": "QC"
                  },
                  "name": "D\u00e9jeuner au P Tit Dor\u00e9"
            },
            {
                  "distance": 462,
                  "location": {
                        "address": "250 Blvd de la Concorde E",
                        "country": "CA",
                        "formatted_address": "250 Blvd de la Concorde E, Laval QC H7G 2E4",
                        "locality": "Laval",
                        "postcode": "H7G 2E4",
                        "region": "QC"
                  },
                  "name": "Restaurant la Prima Volta"
            },
            {
                  "distance": 539,
                  "location": {
                        "address": "545 des Laurentides Blvd",
                        "country": "CA",
                        "formatted_address": "545 des Laurentides Blvd, Laval QC H7G 2V3",
                        "locality": "Laval",
                        "postcode": "H7G 2V3",
                        "region": "QC"
                  },
                  "name": "Dolce & Santella"
            },
            {
                  "distance": 553,
                  "location": {
                        "address": "545 des Laurentides Blvd",
                        "country": "CA",
                        "formatted_address": "545 des Laurentides Blvd, Laval QC H7G 2V3",
                        "locality": "Laval",
                        "postcode": "H7G 2V3",
                        "region": "QC"
                  },
                  "name": "Restaurant la Belle Province"
            },
            {
                  "distance": 576,
                  "location": {
                        "address": "661 des Laurentides Blvd",
                        "country": "CA",
                        "formatted_address": "661 des Laurentides Blvd, Laval QC H7G 2V8",
                        "locality": "Laval",
                        "postcode": "H7G 2V8",
                        "region": "QC"
                  },
                  "name": "Petit Carroussel"
            },
            {
                  "distance": 603,
                  "location": {
                        "address": "550 des Laurentides Blvd",
                        "country": "CA",
                        "formatted_address": "550 des Laurentides Blvd, Laval QC H7G 2V4",
                        "locality": "Laval",
                        "postcode": "H7G 2V4",
                        "region": "QC"
                  },
                  "name": "Lavalois Bar Salon"
            },
            {
                  "distance": 609,
                  "location": {
                        "address": "650 des Laurentides Blvd",
                        "country": "CA",
                        "formatted_address": "650 des Laurentides Blvd, Laval QC H7G 2V9",
                        "locality": "Laval",
                        "postcode": "H7G 2V9",
                        "region": "QC"
                  },
                  "name": "Restaurant Mikes, Laval-Rive Nord"
            },
            {
                  "distance": 613,
                  "location": {
                        "address": "650 des Laurentides Blvd",
                        "country": "CA",
                        "formatted_address": "650 des Laurentides Blvd, Laval QC H7G 2V9",
                        "locality": "Laval",
                        "postcode": "H7G 2V9",
                        "region": "QC"
                  },
                  "name": "Restaurant Mikes"
            },
            {
                  "distance": 671,
                  "location": {
                        "address": "1045 des Laurentides Blvd",
                        "country": "CA",
                        "formatted_address": "1045 des Laurentides Blvd, Laval QC H7G 2W2",
                        "locality": "Laval",
                        "postcode": "H7G 2W2",
                        "region": "QC"
                  },
                  "name": "Restaurants Pacini"
            },
            {
                  "distance": 738,
                  "location": {
                        "address": "1040 des Laurentides Blvd",
                        "country": "CA",
                        "formatted_address": "1040 des Laurentides Blvd, Laval QC H7G 2W1",
                        "locality": "Laval",
                        "postcode": "H7G 2W1",
                        "region": "QC"
                  },
                  "name": "Beignes Pont Viau Inc"
            },
            {
                  "distance": 753,
                  "location": {
                        "address": "428 des Laurentides Blvd",
                        "country": "CA",
                        "formatted_address": "428 des Laurentides Blvd, Laval QC H7G 2T8",
                        "locality": "Laval",
                        "postcode": "H7G 2T8",
                        "region": "QC"
                  },
                  "name": "Au Pain Quaotidien 2"
            },
            {
                  "distance": 783,
                  "location": {
                        "address": "1670 Blvd de la Concorde E",
                        "country": "CA",
                        "formatted_address": "1670 Blvd de la Concorde E, Laval QC H7G 2E7",
                        "locality": "Laval",
                        "postcode": "H7G 2E7",
                        "region": "QC"
                  },
                  "name": "Restaurant Pfk , Succursales, Laval"
            },
            {
                  "distance": 847,
                  "location": {
                        "address": "327 des Laurentides Blvd",
                        "country": "CA",
                        "formatted_address": "327 des Laurentides Blvd, Laval QC H7K 2J9",
                        "locality": "Laval",
                        "postcode": "H7K 2J9",
                        "region": "QC"
                  },
                  "name": "Restaurant Trois Pour Deux"
            }
      ],
      "context": {
            "geo_bounds": {
                  "circle": {
                        "center": {
                              "latitude": 45.57504823,
                              "longitude": -73.68799567
                        },
                        "radius": 1000
                  }
            }
      }
}