{
      "results": [
            {
                  "distance": 337,
                  "location": {
                        "address": "1 Ave du Casino 5e \u00e9tage",
                        "country": "CA",
                        "cross_street": "",
                        "formatted_address": "1 Ave du Casino 5e \u00e9tage, Montr\u00e9al QC H3C 4W7",
                        "locality": "Montreal",
                        "postcode": "H3C 4W7",
                        "region": "QC"
                  },
                  "name": "Pavillon 67",
                  "popularity": 0.9956708932626798,
                  "rating": 7.8
            },
            {
                  "distance": 325,
                  "location": {
                        "address": "1 ave du Casino",
                        "country": "CA",
                        "cross_street": "5e \u00e9tage du Pavillon de la France",
                        "formatted_address": "1 ave du Casino (5e \u00e9tage du Pavillon de la France), Montr\u00e9al QC H3C 4W7",
                        "locality": "Montreal",
                        "postcode": "H3C 4W7",
                        "region": "QC"
                  },
                  "name": "M le Montr\u00e9al",
                  "popularity": 0.9961913323239969,
                  "price": 3,
                  "rating": 6.6
            },
            {
                  "distance": 361,
                  "location": {
                        "address": "1 Ave du Casino",
                        "country": "CA",
                        "cross_street": "",
                        "formatted_address": "1 Ave du Casino, Montr\u00e9al QC H3C 4W7",
                        "locality": "Montreal",
                        "postcode": "H3C 4W7",
                        "region": "QC"
                  },
                  "name": "Le Cabaret du Casino",
                  "popularity": 0.9704532551097653
            },
            {
                  "distance": 363,
                  "location": {
                        "address": "1 ave du Casino",
                        "country": "CA",
                        "cross_street": "",
                        "formatted_address": "1 ave du Casino, Montr\u00e9al QC H3C 4W7",
                        "locality": "Montreal",
                        "postcode": "H3C 4W7",
                        "region": "QC"
                  },
                  "name": "L'Instant d\u00e9li et p\u00e2tes",
                  "popularity": 0.9953160484481454,
                  "price": 1
            },
            {
                  "distance": 327,
                  "location": {
                        "address": "222 Circt Gilles Villeneuve",
                        "country": "CA",
                        "formatted_address": "222 Circt Gilles Villeneuve, Montreal QC H3C 6A1",
                        "locality": "Montreal",
                        "postcode": "H3C 6A1",
                        "region": "QC"
                  },
                  "name": "Espace Bouffe"
            },
            {
                  "distance": 354,
                  "location": {
                        "address": "1 ave du Casino",
                        "country": "CA",
                        "formatted_address": "1 ave du Casino, Montreal QC H3C 4W7",
                        "locality": "Montreal",
                        "postcode": "H3C 4W7",
                        "region": "QC"
                  },
                  "name": "Ajia Comptoir Asiatique"
            },
            {
                  "distance": 956,
                  "location": {
                        "address": "281 Riverside Rue",
                        "country": "CA",
                        "formatted_address": "281 Riverside Rue, Saint-Lambert QC J4P 1A6",
                        "locality": "Saint-Lambert",
                        "postcode": "J4P 1A6",
                        "region": "QC"
                  },
                  "name": "Bangkok 3D eyebrow & Nail Art Studio"
            }
      ],
      "context": {
            "geo_bounds": {
                  "circle": {
                        "center": {
                              "latitude": 45.50265867,
                              "longitude": -73.5275352
                        },
                        "radius": 1000
                  }
            }
      }
}