{
      "results": [
            {
                  "distance": 560,
                  "location": {
                        "address": "3927 Saint-Denis Rue",
                        "country": "CA",
                        "cross_street": "entre Duluth & Roy",
                        "formatted_address": "3927 Saint-Denis Rue (entre Duluth & Roy), Montr\u00e9al QC H2W 2M4",
                        "locality": "Montreal",
                        "postcode": "H2W 2M4",
                        "region": "QC"
                  },
                  "name": "L'Express",
                  "popularity": 0.9460517600302801,
                  "price": 3,
                  "rating": 9.1
            },
            {
                  "distance": 929,
                  "location": {
                        "address": "300 Ontario Rue E",
                        "country": "CA",
                        "cross_street": "coin Sanguinet",
                        "formatted_address": "300 Ontario Rue E (coin Sanguinet), Montr\u00e9al QC H2X 1H6",
                        "locality": "Montreal",
                        "postcode": "H2X 1H6",
                        "region": "QC"
                  },
                  "name": "La Distillerie",
                  "popularity": 0.9436861279333838,
                  "price": 3,
                  "rating": 8.9
            },
            {
                  "distance": 872,
                  "location": {
                        "address": "173 Duluth Ave E",
                        "country": "CA",
                        "cross_street": "coin H\u00f4tel-De-Ville",
                        "formatted_address": "173 Duluth Ave E (coin H\u00f4tel-De-Ville), Montr\u00e9al QC H2W 1H4",
                        "locality": "Montreal",
                        "postcode": "H2W 1H4",
                        "region": "QC"
                  },
                  "name": "Chez Jose",
                  "popularity": 0.919958838001514,
                  "price": 1,
                  "rating": 8.9
            },
            {
                  "distance": 552,
                  "location": {
                        "address": "3660 Saint-Denis Rue",
                        "country": "CA",
                        "cross_street": "coin Cherrier",
                        "formatted_address": "3660 Saint-Denis Rue (coin Cherrier), Montr\u00e9al QC H2X 3L7",
                        "locality": "Montreal",
                        "postcode": "H2X 3L7",
                        "region": "QC"
                  },
                  "name": "Mamie Clafoutis",
                  "popularity": 0.9447151778955337,
                  "price": 2,
                  "rating": 8.9
            },
            {
                  "distance": 819,
                  "location": {
                        "address": "4185 Drolet Rue",
                        "country": "CA",
                        "cross_street": "coin Rachel",
                        "formatted_address": "4185 Drolet Rue (coin Rachel), Montr\u00e9al QC H2W 2L5",
                        "locality": "Montreal",
                        "postcode": "H2W 2L5",
                        "region": "QC"
                  },
                  "name": "Yokato Yokabai",
                  "popularity": 0.9432957986373959,
                  "price": 2,
                  "rating": 8.9
            },
            {
                  "distance": 760,
                  "location": {
                        "address": "1700 Ontario Rue E",
                        "country": "CA",
                        "cross_street": "coin Papineau",
                        "formatted_address": "1700 Ontario Rue E (coin Papineau), Montr\u00e9al QC H2L 1S7",
                        "locality": "Montreal",
                        "postcode": "H2L 1S7",
                        "region": "QC"
                  },
                  "name": "La Fabrique Arhoma",
                  "popularity": 0.953420704012112,
                  "price": 1,
                  "rating": 8.9
            },
            {
                  "distance": 612,
                  "location": {
                        "address": "865 Rachel Rue E",
                        "country": "CA",
                        "cross_street": "coin St-Andr\u00e9",
                        "formatted_address": "865 Rachel Rue E (coin St-Andr\u00e9), Montr\u00e9al QC H2J 2H9",
                        "locality": "Montreal",
                        "postcode": "H2J 2H9",
                        "region": "QC"
                  },
                  "name": "La Maison des P\u00e2tes Fra\u00eeches",
                  "popularity": 0.938115064345193,
                  "price": 2,
                  "rating": 8.8
            },
            {
                  "distance": 475,
                  "location": {
                        "address": "536 Duluth Ave E",
                        "country": "CA",
                        "cross_street": "at Ave. Duluth Est & Ave. de Chateaubriand",
                        "formatted_address": "536 Duluth Ave E (at Ave. Duluth Est & Ave. de Chateaubriand), Montr\u00e9al QC H2L 1A9",
                        "locality": "Montreal",
                        "postcode": "H2L 1A9",
                        "region": "QC"
                  },
                  "name": "Au Pied de Cochon",
                  "popularity": 0.9154404806964421,
                  "price": 3,
                  "rating": 8.7
            },
            {
                  "distance": 553,
                  "location": {
                        "address": "3609 Saint-Denis Rue",
                        "address_extended": "Square St-Louis",
                        "country": "CA",
                        "cross_street": "Square St-Louis",
                        "formatted_address": "3609 Saint-Denis Rue (Square St-Louis), Montr\u00e9al QC H2X 3L6",
                        "locality": "Montreal",
                        "postcode": "H2X 3L6",
                        "region": "QC"
                  },
                  "name": "La Fabrique Bistrot",
                  "popularity": 0.9323547501892505,
                  "price": 4,
                  "rating": 8.6
            },
            {
                  "distance": 692,
                  "location": {
                        "address": "4115A Saint-Denis Rue",
                        "country": "CA",
                        "cross_street": "coin Duluth",
                        "formatted_address": "4115A Saint-Denis Rue (coin Duluth), Montr\u00e9al QC H2W 2M7",
                        "locality": "Montreal",
                        "postcode": "H2W 2M7",
                        "region": "QC"
                  },
                  "name": "Diese Onze",
                  "popularity": 0.9298944928084785,
                  "rating": 8.6
            },
            {
                  "distance": 767,
                  "location": {
                        "address": "2021 Saint-Denis Rue",
                        "country": "CA",
                        "cross_street": "rue Ontario",
                        "formatted_address": "2021 Saint-Denis Rue (rue Ontario), Montr\u00e9al QC H2X 3K8",
                        "locality": "Montreal",
                        "postcode": "H2X 3K8",
                        "region": "QC"
                  },
                  "name": "Le 4e Mur",
                  "popularity": 0.9381860333080999,
                  "price": 3,
                  "rating": 8.6
            },
            {
                  "distance": 594,
                  "location": {
                        "address": "951 Rachel Rue E",
                        "country": "CA",
                        "cross_street": "",
                        "formatted_address": "951 Rachel Rue E, Montr\u00e9al QC H2J 2J4",
                        "locality": "Montreal",
                        "postcode": "H2J 2J4",
                        "region": "QC"
                  },
                  "name": "Pub Pit Caribou",
                  "popularity": 0.9519658402725208,
                  "rating": 8.6
            },
            {
                  "distance": 962,
                  "location": {
                        "address": "1310 Blvd de Maisonneuve Est",
                        "country": "CA",
                        "cross_street": "Visitation",
                        "formatted_address": "1310 Blvd de Maisonneuve Est (Visitation), Montr\u00e9al QC H2L 2A5",
                        "locality": "Montreal",
                        "postcode": "H2L 2A5",
                        "region": "QC"
                  },
                  "name": "Bistro le Passe Compose",
                  "popularity": 0.9547809424678274,
                  "price": 1,
                  "rating": 8.5
            },
            {
                  "distance": 932,
                  "location": {
                        "address": "1112 Blvd de Maisonneuve Est",
                        "country": "CA",
                        "cross_street": "btwn Amherst & Wolfe St.",
                        "formatted_address": "1112 Blvd de Maisonneuve Est (btwn Amherst & Wolfe St.), Montr\u00e9al QC H2L 1Z5",
                        "locality": "Montreal",
                        "postcode": "H2L 1Z5",
                        "region": "QC"
                  },
                  "name": "O'Thym",
                  "popularity": 0.9423613739591219,
                  "price": 3,
                  "rating": 8.5
            },
            {
                  "distance": 1001,
                  "location": {
                        "address": "4449 Rue de Mentana",
                        "country": "CA",
                        "cross_street": "Avenue du Mont-Royal",
                        "formatted_address": "4449 Rue de Mentana (Avenue du Mont-Royal), Montr\u00e9al QC H2J 3B4",
                        "locality": "Montreal",
                        "postcode": "H2J 3B4",
                        "region": "QC"
                  },
                  "name": "Tampopo",
                  "popularity": 0.8850539364118092,
                  "price": 2,
                  "rating": 8.5
            },
            {
                  "distance": 575,
                  "location": {
                        "address": "994 Rachel Rue E",
                        "country": "CA",
                        "cross_street": "entre de Boyer & du Parc-Lafontaine",
                        "formatted_address": "994 Rachel Rue E (entre de Boyer & du Parc-Lafontaine), Montr\u00e9al QC H2J 2J3",
                        "locality": "Montreal",
                        "postcode": "H2J 2J3",
                        "region": "QC"
                  },
                  "name": "La Banquise",
                  "popularity": 0.9872374148372445,
                  "price": 1,
                  "rating": 8.5
            },
            {
                  "distance": 942,
                  "location": {
                        "address": "73 Prince Arthur Rue E",
                        "country": "CA",
                        "cross_street": "Coloniale",
                        "formatted_address": "73 Prince Arthur Rue E (Coloniale), Montr\u00e9al QC H2X 1B4",
                        "locality": "Montreal",
                        "postcode": "H2X 1B4",
                        "region": "QC"
                  },
                  "name": "Arepera",
                  "popularity": 0.925730980317941,
                  "price": 1,
                  "rating": 8.5
            },
            {
                  "distance": 542,
                  "location": {
                        "address": "3609 Saint-Denis Rue",
                        "address_extended": "Fl 1ST",
                        "country": "CA",
                        "cross_street": "coin rue du Square-Saint-Louis",
                        "formatted_address": "3609 Saint-Denis Rue (coin rue du Square-Saint-Louis), Montr\u00e9al QC H2X 3L6",
                        "locality": "Montreal",
                        "postcode": "H2X 3L6",
                        "region": "QC"
                  },
                  "name": "Sushi Momo V\u00e9g\u00e9talien",
                  "popularity": 0.8928486941710825,
                  "price": 2,
                  "rating": 8.4
            },
            {
                  "distance": 829,
                  "location": {
                        "address": "156 Roy Rue E",
                        "country": "CA",
                        "cross_street": "coin De Bullion",
                        "formatted_address": "156 Roy Rue E (coin De Bullion), Montr\u00e9al QC H2W 1M2",
                        "locality": "Montreal",
                        "postcode": "H2W 1M2",
                        "region": "QC"
                  },
                  "name": "Else's",
                  "popularity": 0.9207868092354277,
                  "price": 2,
                  "rating": 8.4
            },
            {
                  "distance": 840,
                  "location": {
                        "address": "1749 Saint-Denis Rue",
                        "country": "CA",
                        "cross_street": "coin Ontario",
                        "formatted_address": "1749 Saint-Denis Rue (coin Ontario), Montr\u00e9al QC H2X 3K4",
                        "locality": "Montreal",
                        "postcode": "H2X 3K4",
                        "region": "QC"
                  },
                  "name": "Le Saint Bock",
                  "popularity": 0.9721565102195306,
                  "price": 2,
                  "rating": 8.4
            },
            {
                  "distance": 939,
                  "location": {
                        "address": "1668 Saint-Denis Rue",
                        "country": "CA",
                        "cross_street": "coin de Maisonneuve",
                        "formatted_address": "1668 Saint-Denis Rue (coin de Maisonneuve), Montr\u00e9al QC H2X 3K6",
                        "locality": "Montreal",
                        "postcode": "H2X 3K6",
                        "region": "QC"
                  },
                  "name": "Pizzeria Dei Compari",
                  "popularity": 0.9388484102952309,
                  "price": 2,
                  "rating": 8.3
            },
            {
                  "distance": 833,
                  "location": {
                        "address": "170 Prince-Arthur Rue E",
                        "country": "CA",
                        "cross_street": "entre De Bullion & H\u00f4tel-de-Ville",
                        "formatted_address": "170 Prince-Arthur Rue E (entre De Bullion & H\u00f4tel-de-Ville), Montr\u00e9al QC H2X 1B7",
                        "locality": "Montreal",
                        "postcode": "H2X 1B7",
                        "region": "QC"
                  },
                  "name": "Les Deux Gamins",
                  "popularity": 0.8988692278576835,
                  "price": 3,
                  "rating": 8.2
            },
            {
                  "distance": 954,
                  "location": {
                        "address": "213 Rachel Rue E",
                        "country": "CA",
                        "cross_street": "entre Laval & H\u00f4tel-de-ville",
                        "formatted_address": "213 Rachel Rue E (entre Laval & H\u00f4tel-de-ville), Montr\u00e9al QC H2W 1E4",
                        "locality": "Montreal",
                        "postcode": "H2W 1E4",
                        "region": "QC"
                  },
                  "name": "A Bar",
                  "popularity": 0.8736515897047691,
                  "price": 2,
                  "rating": 8.1
            },
            {
                  "distance": 749,
                  "location": {
                        "address": "2049 Saint-Denis Rue",
                        "country": "CA",
                        "cross_street": "entre Ontario & Sherbrooke",
                        "formatted_address": "2049 Saint-Denis Rue (entre Ontario & Sherbrooke), Montr\u00e9al QC H2X 3K8",
                        "locality": "Montreal",
                        "postcode": "H2X 3K8",
                        "region": "QC"
                  },
                  "name": "Brasserie Artisanale l'Am\u00e8re a Boire Inc",
                  "popularity": 0.9146479939439819,
                  "price": 2,
                  "rating": 7.9
            },
            {
                  "distance": 976,
                  "location": {
                        "address": "1615 Saint-Denis Rue",
                        "address_extended": "coin \u00c9mery",
                        "country": "CA",
                        "cross_street": "coin \u00c9mery",
                        "formatted_address": "1615 Saint-Denis Rue (coin \u00c9mery), Montr\u00e9al QC H2X 3K3",
                        "locality": "Montreal",
                        "postcode": "H2X 3K3",
                        "region": "QC"
                  },
                  "name": "Juliette et Chocolat",
                  "popularity": 0.9692112982588947,
                  "price": 2,
                  "rating": 7.9
            },
            {
                  "distance": 532,
                  "location": {
                        "address": "3845 Saint-Denis Rue",
                        "country": "CA",
                        "cross_street": "",
                        "formatted_address": "3845 Saint-Denis Rue, Montr\u00e9al QC H2W 2M4",
                        "locality": "Montreal",
                        "postcode": "H2W 2M4",
                        "region": "QC"
                  },
                  "name": "Restaurant Au Pres de MA Blonde",
                  "popularity": 0.924110522331567,
                  "rating": 7.9
            },
            {
                  "distance": 941,
                  "location": {
                        "address": "1649 Saint-Denis Rue",
                        "country": "CA",
                        "cross_street": "entre Emery & Ontario",
                        "formatted_address": "1649 Saint-Denis Rue (entre Emery & Ontario), Montr\u00e9al QC H2X 3K4",
                        "locality": "Montreal",
                        "postcode": "H2X 3K4",
                        "region": "QC"
                  },
                  "name": "Pub l'Ile Noire",
                  "popularity": 0.9520841218773657,
                  "price": 2,
                  "rating": 7.9
            },
            {
                  "distance": 557,
                  "location": {
                        "address": "1365 Ontario Rue E",
                        "country": "CA",
                        "formatted_address": "1365 Ontario Rue E, Montr\u00e9al QC H2L 1S2",
                        "locality": "Montreal",
                        "postcode": "H2L 1S2",
                        "region": "QC"
                  },
                  "name": "Poutineville",
                  "popularity": 0.9661241483724451,
                  "price": 2,
                  "rating": 7.9
            },
            {
                  "distance": 875,
                  "location": {
                        "address": "1710 Saint-Denis Rue",
                        "country": "CA",
                        "cross_street": "entre Ontario et Emery",
                        "formatted_address": "1710 Saint-Denis Rue (entre Ontario et Emery), Montr\u00e9al QC H2X 3K6",
                        "locality": "Montreal",
                        "postcode": "H2X 3K6",
                        "region": "QC"
                  },
                  "name": "Frite Alors",
                  "popularity": 0.9397473504920515,
                  "price": 2,
                  "rating": 7.8
            },
            {
                  "distance": 806,
                  "location": {
                        "address": "360 Rachel Rue E",
                        "country": "CA",
                        "cross_street": "coin Drolet",
                        "formatted_address": "360 Rachel Rue E (coin Drolet), Montr\u00e9al QC H2W 1E9",
                        "locality": "Montreal",
                        "postcode": "H2W 1E9",
                        "region": "QC"
                  },
                  "name": "Ichigo Ichie",
                  "popularity": 0.9055994511733535,
                  "price": 2,
                  "rating": 7.8
            },
            {
                  "distance": 540,
                  "location": {
                        "address": "3635 Saint-Denis Rue",
                        "country": "CA",
                        "cross_street": "coin Cherrier",
                        "formatted_address": "3635 Saint-Denis Rue (coin Cherrier), Montr\u00e9al QC H2X 3L6",
                        "locality": "Montreal",
                        "postcode": "H2X 3L6",
                        "region": "QC"
                  },
                  "name": "Caf\u00e9 Cherrier",
                  "popularity": 0.9193082891748675,
                  "price": 3,
                  "rating": 7.7
            },
            {
                  "distance": 199,
                  "location": {
                        "address": "1030 Cherrier Rue",
                        "country": "CA",
                        "cross_street": "at Parc-Lafontaine Ave.",
                        "formatted_address": "1030 Cherrier Rue (at Parc-Lafontaine Ave.), Montr\u00e9al QC H2L 1H9",
                        "locality": "Montreal",
                        "postcode": "H2L 1H9",
                        "region": "QC"
                  },
                  "name": "Bistro T\u00f4t ou Tard",
                  "popularity": 0.9615821347464042,
                  "price": 1,
                  "rating": 7.7
            },
            {
                  "distance": 967,
                  "location": {
                        "address": "1627 Saint-Denis Rue",
                        "country": "CA",
                        "formatted_address": "1627 Saint-Denis Rue, Montr\u00e9al QC H2X 3K3",
                        "locality": "Montreal",
                        "postcode": "H2X 3K3",
                        "region": "QC"
                  },
                  "name": "Bistro a Jojo",
                  "popularity": 0.9450700227100681,
                  "rating": 7.7
            },
            {
                  "distance": 963,
                  "location": {
                        "address": "51 Roy Rue E",
                        "country": "CA",
                        "cross_street": "coin St-Dominique",
                        "formatted_address": "51 Roy Rue E (coin St-Dominique), Montr\u00e9al QC H2W 2S3",
                        "locality": "Montreal",
                        "postcode": "H2W 2S3",
                        "region": "QC"
                  },
                  "name": "Icehouse",
                  "popularity": 0.9281912376987131,
                  "price": 2,
                  "rating": 7.6
            },
            {
                  "distance": 610,
                  "location": {
                        "address": "901 Rachel Rue E",
                        "country": "CA",
                        "cross_street": "Saint-Andr\u00e9",
                        "formatted_address": "901 Rachel Rue E (Saint-Andr\u00e9), Montr\u00e9al QC H2J 2J2",
                        "locality": "Montreal",
                        "postcode": "H2J 2J2",
                        "region": "QC"
                  },
                  "name": "Fen\u00eatre Sur Kaboul",
                  "popularity": 0.8795774981074943,
                  "price": 2,
                  "rating": 7.6
            }
      ],
      "context": {
            "geo_bounds": {
                  "circle": {
                        "center": {
                              "latitude": 45.52286654,
                              "longitude": -73.5683772
                        },
                        "radius": 1000
                  }
            }
      }
}