{
      "results": [
            {
                  "distance": 919,
                  "location": {
                        "address": "365 ch du Bord-du-Lac Lakeshore",
                        "country": "CA",
                        "cross_street": "",
                        "formatted_address": "365 ch du Bord-du-Lac Lakeshore, Dorval QC H9S 2A5",
                        "locality": "Dorval",
                        "postcode": "H9S 2A5",
                        "region": "QC"
                  },
                  "name": "Natalino Restaurant",
                  "popularity": 0.9329268292682927,
                  "price": 3,
                  "rating": 6.3
            },
            {
                  "distance": 351,
                  "location": {
                        "address": "416 Bourke Ave",
                        "country": "CA",
                        "cross_street": "Bouchard",
                        "formatted_address": "416 Bourke Ave (Bouchard), Dorval QC H9S 3W8",
                        "locality": "Dorval",
                        "postcode": "H9S 3W8",
                        "region": "QC"
                  },
                  "name": "Restaurant Emeraude de Bangkok",
                  "popularity": 0.9538327526132404,
                  "price": 2,
                  "rating": 6.2
            },
            {
                  "distance": 298,
                  "location": {
                        "address": "15 Bouchard Blvd",
                        "address_extended": "at Bourke Ave",
                        "country": "CA",
                        "cross_street": "at Bourke Ave.",
                        "formatted_address": "15 Bouchard Blvd (at Bourke Ave.), Dorval QC H9S 5X2",
                        "locality": "Dorval",
                        "postcode": "H9S 5X2",
                        "region": "QC"
                  },
                  "name": "Barbie's",
                  "popularity": 0.9542682926829268,
                  "price": 3,
                  "rating": 5.4
            },
            {
                  "distance": 341,
                  "location": {
                        "address": "419 Bourke Ave",
                        "country": "CA",
                        "cross_street": "55 ave",
                        "formatted_address": "419 Bourke Ave (55 ave), Dorval QC H9S 3W8",
                        "locality": "Dorval",
                        "postcode": "H9S 3W8",
                        "region": "QC"
                  },
                  "name": "4M Resto Pizza",
                  "popularity": 0.9477351916376306,
                  "price": 1
            },
            {
                  "distance": 334,
                  "location": {
                        "address": "419A Bourke Ave",
                        "country": "CA",
                        "formatted_address": "419A Bourke Ave, Dorval QC H9S 3W8",
                        "locality": "Dorval",
                        "postcode": "H9S 3W8",
                        "region": "QC"
                  },
                  "name": "2M Pizza"
            },
            {
                  "distance": 497,
                  "location": {
                        "address": "25 Marian Ave",
                        "country": "CA",
                        "formatted_address": "25 Marian Ave, Dorval QC H9S 1A4",
                        "locality": "Dorval",
                        "postcode": "H9S 1A4",
                        "region": "QC"
                  },
                  "name": "Pasta Mia"
            },
            {
                  "distance": 703,
                  "location": {
                        "address": "1100 50e Ave",
                        "country": "CA",
                        "formatted_address": "1100 50e Ave, Lachine QC H8T 2V3",
                        "locality": "Lachine",
                        "postcode": "H8T 2V3",
                        "region": "QC"
                  },
                  "name": "Sleeman Unibroue"
            },
            {
                  "distance": 973,
                  "location": {
                        "address": "398 ch du Bord-du-Lac Lakeshore",
                        "country": "CA",
                        "formatted_address": "398 ch du Bord-du-Lac Lakeshore, Dorval QC H9S 2A6",
                        "locality": "Dorval",
                        "postcode": "H9S 2A6",
                        "region": "QC"
                  },
                  "name": "T & M Sushi Bar"
            }
      ],
      "context": {
            "geo_bounds": {
                  "circle": {
                        "center": {
                              "latitude": 45.44338026,
                              "longitude": -73.71789157
                        },
                        "radius": 1000
                  }
            }
      }
}