{
      "results": [
            {
                  "distance": 617,
                  "location": {
                        "address": "1001 Fleury Rue E",
                        "country": "CA",
                        "cross_street": "at av. Saint-Charles",
                        "formatted_address": "1001 Fleury Rue E (at av. Saint-Charles), Montr\u00e9al QC H2C 1P8",
                        "locality": "Montreal",
                        "postcode": "H2C 1P8",
                        "region": "QC"
                  },
                  "name": "Gourmet Privil\u00e8ge",
                  "popularity": 0.8742429977289932,
                  "price": 1,
                  "rating": 8.0
            },
            {
                  "distance": 681,
                  "location": {
                        "address": "1145 Fleury Rue E",
                        "country": "CA",
                        "cross_street": "entre Georges-Baril & De La Roche",
                        "formatted_address": "1145 Fleury Rue E (entre Georges-Baril & De La Roche), Montr\u00e9al QC H2C 1P9",
                        "locality": "Montreal",
                        "postcode": "H2C 1P9",
                        "region": "QC"
                  },
                  "name": "Cafe le Petit Flore Inc",
                  "popularity": 0.940078538985617,
                  "price": 1,
                  "rating": 7.9
            },
            {
                  "distance": 575,
                  "location": {
                        "address": "545 Fleury Rue E",
                        "country": "CA",
                        "cross_street": "Lajeunesse",
                        "formatted_address": "545 Fleury Rue E (Lajeunesse), Montr\u00e9al QC H3L 1G6",
                        "locality": "Montreal",
                        "postcode": "H3L 1G6",
                        "region": "QC"
                  },
                  "name": "Caf\u00e9 de Da d'Ahuntsic",
                  "popularity": 0.9510550719152158,
                  "price": 1,
                  "rating": 7.8
            },
            {
                  "distance": 895,
                  "location": {
                        "address": "1386 Fleury Rue E",
                        "country": "CA",
                        "cross_street": "Christophe-Colomb",
                        "formatted_address": "1386 Fleury Rue E (Christophe-Colomb), Montr\u00e9al QC H2C 1R5",
                        "locality": "Montreal",
                        "postcode": "H2C 1R5",
                        "region": "QC"
                  },
                  "name": "Restaurant la Citronelle",
                  "popularity": 0.906888720666162,
                  "price": 2,
                  "rating": 7.3
            },
            {
                  "distance": 630,
                  "location": {
                        "address": "1014 Fleury Rue E",
                        "country": "CA",
                        "formatted_address": "1014 Fleury Rue E, Montr\u00e9al QC H2C 1P7",
                        "locality": "Montreal",
                        "postcode": "H2C 1P7",
                        "region": "QC"
                  },
                  "name": "Restaurant la Molisana",
                  "popularity": 0.9392742240726722,
                  "price": 3,
                  "rating": 7.0
            },
            {
                  "distance": 312,
                  "location": {
                        "address": "10520 Lajeunesse Rue",
                        "country": "CA",
                        "cross_street": "",
                        "formatted_address": "10520 Lajeunesse Rue, Montr\u00e9al QC H3L 2E6",
                        "locality": "Montreal",
                        "postcode": "H3L 2E6",
                        "region": "QC"
                  },
                  "name": "R\u00f4tisserie St-Hubert",
                  "popularity": 0.9716360711582135,
                  "price": 2,
                  "rating": 6.8,
                  "store_id": "100121"
            },
            {
                  "distance": 249,
                  "location": {
                        "address": "545 Henri-Bourassa Blvd E",
                        "country": "CA",
                        "cross_street": "",
                        "formatted_address": "545 Henri-Bourassa Blvd E, Montr\u00e9al QC H3L 1C7",
                        "locality": "Montreal",
                        "postcode": "H3L 1C7",
                        "region": "QC"
                  },
                  "name": "A&W Restaurant",
                  "popularity": 0.958187452687358,
                  "price": 1,
                  "rating": 6.5,
                  "store_id": "5514"
            },
            {
                  "distance": 621,
                  "location": {
                        "address": "1021 Fleury Rue E",
                        "country": "CA",
                        "cross_street": "",
                        "formatted_address": "1021 Fleury Rue E, Montr\u00e9al QC H2C 1P8",
                        "locality": "Montreal",
                        "postcode": "H2C 1P8",
                        "region": "QC"
                  },
                  "name": "Pizzeria No. 900",
                  "popularity": 0.8666256623769871,
                  "price": 1,
                  "rating": 6.3
            },
            {
                  "distance": 263,
                  "location": {
                        "address": "500 Henri-Bourassa Blvd E",
                        "country": "CA",
                        "cross_street": "",
                        "formatted_address": "500 Henri-Bourassa Blvd E, Montr\u00e9al QC H3L 1C6",
                        "locality": "Montreal",
                        "postcode": "H3L 1C6",
                        "region": "QC"
                  },
                  "name": "Pizza Pizza",
                  "popularity": 0.935264477668433,
                  "price": 1,
                  "rating": 6.3,
                  "store_id": "312"
            },
            {
                  "distance": 365,
                  "location": {
                        "address": "10420 Lajeunesse Rue",
                        "country": "CA",
                        "formatted_address": "10420 Lajeunesse Rue, Montr\u00e9al QC H3L 2E5",
                        "locality": "Montreal",
                        "postcode": "H3L 2E5",
                        "region": "QC"
                  },
                  "name": "Restaurant les Brides",
                  "popularity": 0.8677729939439819,
                  "price": 2,
                  "rating": 6.2
            },
            {
                  "distance": 448,
                  "location": {
                        "address": "10400 Lajeunesse Rue",
                        "country": "CA",
                        "formatted_address": "10400 Lajeunesse Rue, Montr\u00e9al QC H3L 2E5",
                        "locality": "Montreal",
                        "postcode": "H3L 2E5",
                        "region": "QC"
                  },
                  "name": "McDonald's",
                  "popularity": 0.9889879825889477,
                  "price": 1,
                  "rating": 4.7,
                  "store_id": "4223"
            },
            {
                  "distance": 114,
                  "location": {
                        "address": "591 Henri-Bourassa Blvd E",
                        "country": "CA",
                        "cross_street": "",
                        "formatted_address": "591 Henri-Bourassa Blvd E, Montreal QC H2C 1E2",
                        "locality": "Montreal",
                        "postcode": "H2C 1E2",
                        "region": "QC"
                  },
                  "name": "Pizza Apollo",
                  "popularity": 0.6471186601059803,
                  "price": 1
            },
            {
                  "distance": 127,
                  "location": {
                        "address": "589 Henri-Bourassa Blvd E",
                        "country": "CA",
                        "cross_street": "",
                        "formatted_address": "589 Henri-Bourassa Blvd E, Montr\u00e9al QC H2C 1E2",
                        "locality": "Montreal",
                        "postcode": "H2C 1E2",
                        "region": "QC"
                  },
                  "name": "Bar Lajeunesse",
                  "popularity": 0.21678652535957607,
                  "price": 2
            },
            {
                  "distance": 142,
                  "location": {
                        "address": "10820 Millen Ave",
                        "country": "CA",
                        "cross_street": "Gouin",
                        "formatted_address": "10820 Millen Ave (Gouin), Montr\u00e9al QC H2C 0A5",
                        "locality": "Montreal",
                        "postcode": "H2C 0A5",
                        "region": "QC"
                  },
                  "name": "Tutti Frutti d\u00e9jeuner et diner",
                  "popularity": 0.92153198334595,
                  "price": 1
            },
            {
                  "distance": 357,
                  "location": {
                        "address": "10490 Lajeunesse Rue",
                        "country": "CA",
                        "cross_street": "",
                        "formatted_address": "10490 Lajeunesse Rue, Montr\u00e9al QC H3L 2E5",
                        "locality": "Montreal",
                        "postcode": "H3L 2E5",
                        "region": "QC"
                  },
                  "name": "Toujours Mikes",
                  "popularity": 0.8681751514004542,
                  "price": 2,
                  "store_id": "MK-0021"
            },
            {
                  "distance": 592,
                  "location": {
                        "address": "945 Fleury Rue E",
                        "country": "CA",
                        "cross_street": "",
                        "formatted_address": "945 Fleury Rue E, Montr\u00e9al QC H2C 1P6",
                        "locality": "Montreal",
                        "postcode": "H2C 1P6",
                        "region": "QC"
                  },
                  "name": "Sushi Sama Fusion 1",
                  "popularity": 0.6359647047691143,
                  "price": 2
            },
            {
                  "distance": 598,
                  "location": {
                        "address": "920 Fleury Rue E",
                        "country": "CA",
                        "cross_street": "",
                        "formatted_address": "920 Fleury Rue E, Montr\u00e9al QC H2C 1P5",
                        "locality": "Montreal",
                        "postcode": "H2C 1P5",
                        "region": "QC"
                  },
                  "name": "Bienvenu Bar Salon",
                  "popularity": 0.904653198334595,
                  "price": 2
            },
            {
                  "distance": 691,
                  "location": {
                        "address": "1185 Fleury Rue E",
                        "country": "CA",
                        "cross_street": "Georges- baril",
                        "formatted_address": "1185 Fleury Rue E (Georges- baril), Montr\u00e9al QC H2C 1P9",
                        "locality": "Montreal",
                        "postcode": "H2C 1P9",
                        "region": "QC"
                  },
                  "name": "Sushi Wawa",
                  "popularity": 0.8912282361847086,
                  "price": 2
            },
            {
                  "distance": 781,
                  "location": {
                        "address": "1314 Fleury Rue E",
                        "country": "CA",
                        "cross_street": "",
                        "formatted_address": "1314 Fleury Rue E, Montr\u00e9al QC H2C 1R3",
                        "locality": "Montreal",
                        "postcode": "H2C 1R3",
                        "region": "QC"
                  },
                  "name": "William J Walter Fleury",
                  "popularity": 0.9026187547312642
            },
            {
                  "distance": 789,
                  "location": {
                        "address": "10710 Saint-Laurent Blvd",
                        "country": "CA",
                        "cross_street": "Henri-Bourassa",
                        "formatted_address": "10710 Saint-Laurent Blvd (Henri-Bourassa), Montr\u00e9al QC H3L 2P7",
                        "locality": "Montreal",
                        "postcode": "H3L 2P7",
                        "region": "QC"
                  },
                  "name": "Bar Ahuntsic",
                  "popularity": 0.9887632475397427,
                  "price": 2
            },
            {
                  "distance": 835,
                  "location": {
                        "address": "1345 Fleury Rue E",
                        "country": "CA",
                        "cross_street": "",
                        "formatted_address": "1345 Fleury Rue E, Montr\u00e9al QC H2C 1R4",
                        "locality": "Montreal",
                        "postcode": "H2C 1R4",
                        "region": "QC"
                  },
                  "name": "Au Vieux Farfadet",
                  "popularity": 0.0667108251324754
            },
            {
                  "distance": 835,
                  "location": {
                        "address": "1348 Fleury Rue E",
                        "country": "CA",
                        "cross_street": "Avenue du Sacr\u00e9-Coeur",
                        "formatted_address": "1348 Fleury Rue E (Avenue du Sacr\u00e9-Coeur), Montr\u00e9al QC H2C 1R3",
                        "locality": "Montreal",
                        "postcode": "H2C 1R3",
                        "region": "QC"
                  },
                  "name": "Le Rendez Vous du Th\u00e9",
                  "popularity": 0.8480672785768357,
                  "price": 2
            },
            {
                  "distance": 953,
                  "location": {
                        "address": "1432 Fleury Rue E",
                        "country": "CA",
                        "cross_street": "",
                        "formatted_address": "1432 Fleury Rue E, Montr\u00e9al QC H2C 1R8",
                        "locality": "Montreal",
                        "postcode": "H2C 1R8",
                        "region": "QC"
                  },
                  "name": "Le Pourvoyeur",
                  "popularity": 0.9212954201362604,
                  "price": 3
            },
            {
                  "distance": 992,
                  "location": {
                        "address": "426 Fleury Rue O",
                        "country": "CA",
                        "cross_street": "St-Laurent",
                        "formatted_address": "426 Fleury Rue O (St-Laurent), Montr\u00e9al QC H3L 1V7",
                        "locality": "Montreal",
                        "postcode": "H3L 1V7",
                        "region": "QC"
                  },
                  "name": "Sushi 426",
                  "popularity": 0.5590106926570779,
                  "price": 2
            },
            {
                  "distance": 1002,
                  "location": {
                        "address": "1469 Fleury Rue E",
                        "country": "CA",
                        "cross_street": "Hamel",
                        "formatted_address": "1469 Fleury Rue E (Hamel), Montr\u00e9al QC H2C 1S3",
                        "locality": "Montreal",
                        "postcode": "H2C 1S3",
                        "region": "QC"
                  },
                  "name": "Sushi Ami",
                  "popularity": 0.44641843300529904,
                  "price": 2
            },
            {
                  "distance": 70,
                  "location": {
                        "address": "599 Henri-Bourassa Blvd E",
                        "address_extended": "Unit A01005a",
                        "country": "CA",
                        "formatted_address": "599 Henri-Bourassa Blvd E, Montreal QC H2C 0A4",
                        "locality": "Montreal",
                        "postcode": "H2C 0A4",
                        "region": "QC"
                  },
                  "name": "Subway"
            },
            {
                  "distance": 148,
                  "location": {
                        "address": "591 Henri-Bourassa Blvd E",
                        "country": "CA",
                        "formatted_address": "591 Henri-Bourassa Blvd E, Montreal QC H2C 1E2",
                        "locality": "Montreal",
                        "postcode": "H2C 1E2",
                        "region": "QC"
                  },
                  "name": "Restaurant Chez Maman",
                  "store_id": "568812"
            },
            {
                  "distance": 189,
                  "location": {
                        "address": "10820 Millen Ave",
                        "country": "CA",
                        "formatted_address": "10820 Millen Ave, Montreal QC H2C 0A5",
                        "locality": "Montreal",
                        "postcode": "H2C 0A5",
                        "region": "QC"
                  },
                  "name": "Tutti Frutti"
            },
            {
                  "distance": 260,
                  "location": {
                        "address": "500 Henri-Bourassa Blvd E",
                        "country": "CA",
                        "formatted_address": "500 Henri-Bourassa Blvd E, Montreal QC H3L 1C6",
                        "locality": "Montreal",
                        "postcode": "H3L 1C6",
                        "region": "QC"
                  },
                  "name": "Rotisseries Scores"
            },
            {
                  "distance": 310,
                  "location": {
                        "address": "410 Henri-Bourassa Blvd E",
                        "country": "CA",
                        "formatted_address": "410 Henri-Bourassa Blvd E, Montreal QC H3L 1C4",
                        "locality": "Montreal",
                        "postcode": "H3L 1C4",
                        "region": "QC"
                  },
                  "name": "Importations Piu Che Dolci, les"
            },
            {
                  "distance": 584,
                  "location": {
                        "address": "485 Fleury Rue E",
                        "country": "CA",
                        "formatted_address": "485 Fleury Rue E, Montreal QC H3L 1G4",
                        "locality": "Montreal",
                        "postcode": "H3L 1G4",
                        "region": "QC"
                  },
                  "name": "Jalani Ghulami"
            },
            {
                  "distance": 586,
                  "location": {
                        "address": "125 Henri-Bourassa Blvd E",
                        "country": "CA",
                        "formatted_address": "125 Henri-Bourassa Blvd E, Montreal QC H3L 1B6",
                        "locality": "Montreal",
                        "postcode": "H3L 1B6",
                        "region": "QC"
                  },
                  "name": "Chef Mak"
            },
            {
                  "distance": 588,
                  "location": {
                        "address": "925 Fleury Rue E",
                        "country": "CA",
                        "formatted_address": "925 Fleury Rue E, Montreal QC H2C 1P6",
                        "locality": "Montreal",
                        "postcode": "H2C 1P6",
                        "region": "QC"
                  },
                  "name": "Sushi Wawa"
            },
            {
                  "distance": 637,
                  "location": {
                        "address": "1031 Fleury Rue E",
                        "country": "CA",
                        "formatted_address": "1031 Fleury Rue E, Montreal QC",
                        "locality": "Montreal",
                        "region": "QC"
                  },
                  "name": "Lanny Izakaya"
            },
            {
                  "distance": 735,
                  "location": {
                        "address": "1216 Fleury Rue E",
                        "country": "CA",
                        "formatted_address": "1216 Fleury Rue E, Montreal QC H2C 1R1",
                        "locality": "Montreal",
                        "postcode": "H2C 1R1",
                        "region": "QC"
                  },
                  "name": "Le Pok\u00e9 Station"
            }
      ],
      "context": {
            "geo_bounds": {
                  "circle": {
                        "center": {
                              "latitude": 45.55675103,
                              "longitude": -73.66716161
                        },
                        "radius": 1000
                  }
            }
      }
}