{
      "results": [
            {
                  "distance": 935,
                  "location": {
                        "address": "6128 Ave de Monkland",
                        "country": "CA",
                        "cross_street": "Beaconsfield",
                        "formatted_address": "6128 Ave de Monkland (Beaconsfield), Montr\u00e9al QC H4A 1H4",
                        "locality": "Montreal",
                        "postcode": "H4A 1H4",
                        "region": "QC"
                  },
                  "name": "Caf\u00e9 de' Mercanti",
                  "popularity": 0.9613573996971991,
                  "price": 1,
                  "rating": 9.1
            },
            {
                  "distance": 919,
                  "location": {
                        "address": "5456 Sherbrooke Rue O",
                        "country": "CA",
                        "cross_street": "at Addington",
                        "formatted_address": "5456 Sherbrooke Rue O (at Addington), Montr\u00e9al QC H4A 1V9",
                        "locality": "Montreal",
                        "postcode": "H4A 1V9",
                        "region": "QC"
                  },
                  "name": "Chalet Bar B-Q",
                  "popularity": 0.9907385503406511,
                  "price": 2,
                  "rating": 8.8
            },
            {
                  "distance": 850,
                  "location": {
                        "address": "5732 Sherbrooke Rue O",
                        "address_extended": "Wilson",
                        "country": "CA",
                        "cross_street": "Wilson",
                        "formatted_address": "5732 Sherbrooke Rue O (Wilson), Montr\u00e9al QC H4A 1W8",
                        "locality": "Montreal",
                        "postcode": "H4A 1W8",
                        "region": "QC"
                  },
                  "name": "Notre Boeuf de Gr\u00e2ce",
                  "popularity": 0.9811459121877366,
                  "price": 1,
                  "rating": 8.7
            },
            {
                  "distance": 50,
                  "location": {
                        "address": "5500 Ave de Monkland",
                        "country": "CA",
                        "formatted_address": "5500 Ave de Monkland, Montr\u00e9al QC H4A 1C7",
                        "locality": "Montreal",
                        "postcode": "H4A 1C7",
                        "region": "QC"
                  },
                  "name": "Boulangerie Premi\u00e8re Moisson",
                  "popularity": 0.9813351627554883,
                  "price": 1,
                  "rating": 8.1
            },
            {
                  "distance": 229,
                  "location": {
                        "address": "5626 Ave de Monkland",
                        "country": "CA",
                        "cross_street": "at av. Marcil",
                        "formatted_address": "5626 Ave de Monkland (at av. Marcil), Montr\u00e9al QC H4A 1E3",
                        "locality": "Montreal",
                        "postcode": "H4A 1E3",
                        "region": "QC"
                  },
                  "name": "Lucille's Oyster Dive",
                  "popularity": 0.9606358819076457,
                  "price": 3,
                  "rating": 8.0
            },
            {
                  "distance": 1010,
                  "location": {
                        "address": "5136 Decarie Blvd",
                        "country": "CA",
                        "cross_street": "",
                        "formatted_address": "5136 Decarie Blvd, Montreal QC H3X 2H9",
                        "locality": "Hampstead",
                        "postcode": "H3X 2H9",
                        "region": "QC"
                  },
                  "name": "Pho 88",
                  "popularity": 0.9451055071915215,
                  "price": 2,
                  "rating": 7.9
            },
            {
                  "distance": 114,
                  "location": {
                        "address": "5555 Ave de Monkland",
                        "country": "CA",
                        "cross_street": "",
                        "formatted_address": "5555 Ave de Monkland, Montr\u00e9al QC H4A 1E1",
                        "locality": "Montreal",
                        "postcode": "H4A 1E1",
                        "region": "QC"
                  },
                  "name": "Monkland Taverne",
                  "popularity": 0.8456425056775171,
                  "price": 3,
                  "rating": 7.8
            },
            {
                  "distance": 603,
                  "location": {
                        "address": "5599 Ch de la Cote-Saint-Luc",
                        "country": "CA",
                        "cross_street": "",
                        "formatted_address": "5599 Ch de la Cote-Saint-Luc, Montr\u00e9al QC H3X 2C9",
                        "locality": "Montreal",
                        "postcode": "H3X 2C9",
                        "region": "QC"
                  },
                  "name": "Pendeli's Pizza",
                  "popularity": 0.9530895155185466,
                  "price": 1,
                  "rating": 7.8
            },
            {
                  "distance": 973,
                  "location": {
                        "address": "6151 Ave de Monkland",
                        "country": "CA",
                        "cross_street": "",
                        "formatted_address": "6151 Ave de Monkland, Montr\u00e9al QC H4B 1G3",
                        "locality": "Montreal",
                        "postcode": "H4B 1G3",
                        "region": "QC"
                  },
                  "name": "La Meunerie Urbaine",
                  "popularity": 0.9667155563966692,
                  "price": 1,
                  "rating": 7.8
            },
            {
                  "distance": 459,
                  "location": {
                        "address": "4011 Decarie Blvd",
                        "country": "CA",
                        "cross_street": "Notre-Dame-de-Gr\u00e2ce",
                        "formatted_address": "4011 Decarie Blvd (Notre-Dame-de-Gr\u00e2ce), Montr\u00e9al QC H4A 3J8",
                        "locality": "Montreal",
                        "postcode": "H4A 3J8",
                        "region": "QC"
                  },
                  "name": "Orange Caf\u00e9",
                  "popularity": 0.9772544473883422,
                  "price": 1,
                  "rating": 7.7
            },
            {
                  "distance": 895,
                  "location": {
                        "address": "5860 Sherbrooke Rue W",
                        "country": "CA",
                        "cross_street": "btwn Regent & Clifton",
                        "formatted_address": "5860 Sherbrooke Rue W (btwn Regent & Clifton), Montr\u00e9al QC H4A 1X5",
                        "locality": "Montreal",
                        "postcode": "H4A 1X5",
                        "region": "QC"
                  },
                  "name": "Star of India",
                  "popularity": 0.8855507191521574,
                  "price": 2,
                  "rating": 7.6
            },
            {
                  "distance": 137,
                  "location": {
                        "address": "5557 Ave de Monkland",
                        "country": "CA",
                        "formatted_address": "5557 Ave de Monkland, Montr\u00e9al QC H4A 1E1",
                        "locality": "Montreal",
                        "postcode": "H4A 1E1",
                        "region": "QC"
                  },
                  "name": "Rockaberry Franchising",
                  "popularity": 0.9117619227857684,
                  "price": 1,
                  "rating": 7.4
            },
            {
                  "distance": 147,
                  "location": {
                        "address": "5563 Ave de Monkland",
                        "country": "CA",
                        "cross_street": "Old Orchard",
                        "formatted_address": "5563 Ave de Monkland (Old Orchard), Montr\u00e9al QC H4A 1E1",
                        "locality": "Montreal",
                        "postcode": "H4A 1E1",
                        "region": "QC"
                  },
                  "name": "Ye Olde Orchard Pub & Grill",
                  "popularity": 0.9567917297501892,
                  "price": 2,
                  "rating": 7.4
            },
            {
                  "distance": 334,
                  "location": {
                        "address": "5403 ch. de la C\u00f4te Saint-Luc",
                        "country": "CA",
                        "formatted_address": "5403 ch. de la C\u00f4te Saint-Luc, Montr\u00e9al QC H3X 2C3",
                        "locality": "Montreal",
                        "postcode": "H3X 2C3",
                        "region": "QC"
                  },
                  "name": "C\u00f4te St Luc Bar-B-Q",
                  "popularity": 0.8623793527630583,
                  "price": 2,
                  "rating": 7.3
            },
            {
                  "distance": 448,
                  "location": {
                        "address": "5766 Ave de Monkland",
                        "country": "CA",
                        "cross_street": "",
                        "formatted_address": "5766 Ave de Monkland, Montr\u00e9al QC H4A 1E9",
                        "locality": "Montreal",
                        "postcode": "H4A 1E9",
                        "region": "QC"
                  },
                  "name": "Gia Ba",
                  "popularity": 0.8727763058289175,
                  "rating": 7.3
            },
            {
                  "distance": 937,
                  "location": {
                        "address": "6127 Ave de Monkland",
                        "country": "CA",
                        "cross_street": "",
                        "formatted_address": "6127 Ave de Monkland, Montr\u00e9al QC H4A 1H5",
                        "locality": "Montreal",
                        "postcode": "H4A 1H5",
                        "region": "QC"
                  },
                  "name": "Bistro Amerigo",
                  "popularity": 0.9265944360333082,
                  "rating": 7.3
            },
            {
                  "distance": 928,
                  "location": {
                        "address": "5916 Sherbrooke Rue O",
                        "country": "CA",
                        "cross_street": "",
                        "formatted_address": "5916 Sherbrooke Rue O, Montr\u00e9al QC H4A 1X7",
                        "locality": "Montreal",
                        "postcode": "H4A 1X7",
                        "region": "QC"
                  },
                  "name": "Honey Martin",
                  "popularity": 0.9609670704012112,
                  "price": 1,
                  "rating": 6.8
            },
            {
                  "distance": 124,
                  "location": {
                        "address": "5550 Monkland Ave",
                        "country": "CA",
                        "formatted_address": "5550 Monkland Ave, Montr\u00e9al QC H4A 1C9",
                        "locality": "Montreal",
                        "postcode": "H4A 1C9",
                        "region": "QC"
                  },
                  "name": "Second Cup Coffee Co",
                  "popularity": 0.9391322861468584,
                  "price": 1,
                  "rating": 6.3
            },
            {
                  "distance": 266,
                  "location": {
                        "address": "4241 Decarie Blvd",
                        "country": "CA",
                        "cross_street": "Monkland",
                        "formatted_address": "4241 Decarie Blvd (Monkland), Montr\u00e9al QC H4A 3K4",
                        "locality": "Montreal",
                        "postcode": "H4A 3K4",
                        "region": "QC"
                  },
                  "name": "Quartier-Perse",
                  "popularity": 0.9122232210446631,
                  "rating": 6.2
            },
            {
                  "distance": 915,
                  "location": {
                        "address": "5322 Queen Mary Ch",
                        "country": "CA",
                        "cross_street": "Boulevard Decarie",
                        "formatted_address": "5322 Queen Mary Ch (Boulevard Decarie), Montr\u00e9al QC H3X 1T7",
                        "locality": "Montreal",
                        "postcode": "H3X 1T7",
                        "region": "QC"
                  },
                  "name": "Resto Bar Chops",
                  "popularity": 0.8295916919000756,
                  "price": 2,
                  "rating": 6.1
            },
            {
                  "distance": 433,
                  "location": {
                        "address": "5752 Ave de Monkland",
                        "country": "CA",
                        "cross_street": "coin Wilson",
                        "formatted_address": "5752 Ave de Monkland (coin Wilson), Montr\u00e9al QC H4A 1E9",
                        "locality": "Montreal",
                        "postcode": "H4A 1E9",
                        "region": "QC"
                  },
                  "name": "Typhoon Lounge",
                  "popularity": 0.9507830242240727,
                  "price": 2,
                  "rating": 6.0
            },
            {
                  "distance": 418,
                  "location": {
                        "address": "5737 Ave de Monkland",
                        "country": "CA",
                        "cross_street": "Avenue Wilson",
                        "formatted_address": "5737 Ave de Monkland (Avenue Wilson), Montr\u00e9al QC H4A 1E7",
                        "locality": "Montreal",
                        "postcode": "H4A 1E7",
                        "region": "QC"
                  },
                  "name": "Le Petit Tokebi",
                  "popularity": 0.9233416919000756,
                  "price": 2,
                  "rating": 5.8
            },
            {
                  "distance": 75,
                  "location": {
                        "address": "5533 Ave de Monkland",
                        "country": "CA",
                        "cross_street": "at Girouard",
                        "formatted_address": "5533 Ave de Monkland (at Girouard), Montr\u00e9al QC H4A 1C8",
                        "locality": "Montreal",
                        "postcode": "H4A 1C8",
                        "region": "QC"
                  },
                  "name": "Sushi Star",
                  "popularity": 0.9022993943981832,
                  "price": 2
            },
            {
                  "distance": 84,
                  "location": {
                        "address": "5526 Monkland Ave",
                        "country": "CA",
                        "cross_street": "",
                        "formatted_address": "5526 Monkland Ave, Montr\u00e9al QC H4A 1C7",
                        "locality": "Montreal",
                        "postcode": "H4A 1C7",
                        "region": "QC"
                  },
                  "name": "Columbus Caf\u00e9",
                  "popularity": 0.9608014761544285,
                  "price": 1
            },
            {
                  "distance": 91,
                  "location": {
                        "address": "5549 Monkland Ave",
                        "address_extended": "Old Orchard",
                        "country": "CA",
                        "cross_street": "Old Orchard",
                        "formatted_address": "5549 Monkland Ave (Old Orchard), Montr\u00e9al QC H4A 1C8",
                        "locality": "Montreal",
                        "postcode": "H4A 1C8",
                        "region": "QC"
                  },
                  "name": "Juliette & Chocolat",
                  "popularity": 0.9458625094625284,
                  "price": 1
            },
            {
                  "distance": 249,
                  "location": {
                        "address": "5641 Ave de Monkland",
                        "country": "CA",
                        "cross_street": "",
                        "formatted_address": "5641 Ave de Monkland, Montr\u00e9al QC H4A 1E2",
                        "locality": "Montreal",
                        "postcode": "H4A 1E2",
                        "region": "QC"
                  },
                  "name": "\u00d4 Fish",
                  "popularity": 0.41450605601816803,
                  "price": 1
            },
            {
                  "distance": 283,
                  "location": {
                        "address": "5672 Ave de Monkland",
                        "country": "CA",
                        "cross_street": "",
                        "formatted_address": "5672 Ave de Monkland, Montr\u00e9al QC H4A 1E4",
                        "locality": "Montreal",
                        "postcode": "H4A 1E4",
                        "region": "QC"
                  },
                  "name": "Restaurant Chase",
                  "popularity": 0.7323523845571537,
                  "price": 2
            },
            {
                  "distance": 359,
                  "location": {
                        "address": "5700 Ave de Monkland",
                        "country": "CA",
                        "cross_street": "",
                        "formatted_address": "5700 Ave de Monkland, Montr\u00e9al QC H4A 1E6",
                        "locality": "Montreal",
                        "postcode": "H4A 1E6",
                        "region": "QC"
                  },
                  "name": "Hello 123",
                  "popularity": 0.9491980507191522,
                  "price": 2
            },
            {
                  "distance": 847,
                  "location": {
                        "address": "5779 Sherbrooke Rue O",
                        "country": "CA",
                        "cross_street": "",
                        "formatted_address": "5779 Sherbrooke Rue O, Montr\u00e9al QC H4A 1X2",
                        "locality": "Montreal",
                        "postcode": "H4A 1X2",
                        "region": "QC"
                  },
                  "name": "Pizzeria Melrose",
                  "popularity": 0.9676499810749433,
                  "price": 1
            },
            {
                  "distance": 852,
                  "location": {
                        "address": "5461 Sherbrooke Rue O",
                        "country": "CA",
                        "cross_street": "",
                        "formatted_address": "5461 Sherbrooke Rue O, Montr\u00e9al QC H4A 1W1",
                        "locality": "Montreal",
                        "postcode": "H4A 1W1",
                        "region": "QC"
                  },
                  "name": "Restaurant Bok",
                  "popularity": 0.9105672785768357,
                  "price": 2
            },
            {
                  "distance": 853,
                  "location": {
                        "address": "5791 Sherbrooke Rue O",
                        "country": "CA",
                        "cross_street": "Melrose",
                        "formatted_address": "5791 Sherbrooke Rue O (Melrose), Montr\u00e9al QC H4A 1X2",
                        "locality": "Montreal",
                        "postcode": "H4A 1X2",
                        "region": "QC"
                  },
                  "name": "Cafe Toranj",
                  "popularity": 0.9556325700227101,
                  "price": 1
            },
            {
                  "distance": 888,
                  "location": {
                        "address": "5018 Decarie Blvd",
                        "country": "CA",
                        "cross_street": "Queen Mary",
                        "formatted_address": "5018 Decarie Blvd (Queen Mary), Montr\u00e9al QC H3X 2H8",
                        "locality": "Montreal",
                        "postcode": "H3X 2H8",
                        "region": "QC"
                  },
                  "name": "Bar le Bi\u00e8vre",
                  "popularity": 0.8705171271763815,
                  "price": 2
            },
            {
                  "distance": 892,
                  "location": {
                        "address": "5800 Sherbrooke Rue O",
                        "country": "CA",
                        "cross_street": "",
                        "formatted_address": "5800 Sherbrooke Rue O, Montr\u00e9al QC H4A 1X3",
                        "locality": "Montreal",
                        "postcode": "H4A 1X3",
                        "region": "QC"
                  },
                  "name": "Bombay Mahal",
                  "popularity": 0.8857399697199092,
                  "price": 2
            },
            {
                  "distance": 896,
                  "location": {
                        "address": "5828 Sherbrooke St W",
                        "country": "CA",
                        "cross_street": "",
                        "formatted_address": "5828 Sherbrooke St W, Montr\u00e9al QC H4A 1X3",
                        "locality": "Montreal",
                        "postcode": "H4A 1X3",
                        "region": "QC"
                  },
                  "name": "Babylon",
                  "popularity": 0.9101296366389099,
                  "price": 1
            },
            {
                  "distance": 898,
                  "location": {
                        "address": "5463 Queen Mary Ch",
                        "country": "CA",
                        "cross_street": "",
                        "formatted_address": "5463 Queen Mary Ch, Montr\u00e9al QC",
                        "locality": "Montreal",
                        "region": "QC"
                  },
                  "name": "Pellegrinos Cafe",
                  "popularity": 0.7257049583648751,
                  "price": 1
            }
      ],
      "context": {
            "geo_bounds": {
                  "circle": {
                        "center": {
                              "latitude": 45.47710675,
                              "longitude": -73.621438
                        },
                        "radius": 1000
                  }
            }
      }
}