{
      "results": [
            {
                  "distance": 964,
                  "location": {
                        "address": "579 Saint-Martin Blvd O",
                        "country": "CA",
                        "formatted_address": "579 Saint-Martin Blvd O, Laval QC H7M 1Y9",
                        "locality": "Laval",
                        "postcode": "H7M 1Y9",
                        "region": "QC"
                  },
                  "name": "Le Milsa Restaurant",
                  "popularity": 0.8555743997143622,
                  "price": 2,
                  "rating": 8.1
            },
            {
                  "distance": 373,
                  "location": {
                        "address": "1599 St-Martin Blvd O",
                        "country": "CA",
                        "formatted_address": "1599 St-Martin Blvd O, Laval QC H7S 1N1",
                        "locality": "Laval",
                        "postcode": "H7S 1N1",
                        "region": "QC"
                  },
                  "name": "Starbucks",
                  "popularity": 0.9705436043916807,
                  "price": 2,
                  "rating": 7.4,
                  "store_id": "4057-140779"
            },
            {
                  "distance": 689,
                  "location": {
                        "address": "1810 Saint-Martin Blvd O",
                        "country": "CA",
                        "cross_street": "coin Le Corbusier",
                        "formatted_address": "1810 Saint-Martin Blvd O (coin Le Corbusier), Laval QC H7S 1M9",
                        "locality": "Laval",
                        "postcode": "H7S 1M9",
                        "region": "QC"
                  },
                  "name": "Rockaberry",
                  "popularity": 0.9077925555654736,
                  "price": 1,
                  "rating": 7.2
            },
            {
                  "distance": 1011,
                  "location": {
                        "address": "500 Saint-Martin Blvd O",
                        "country": "CA",
                        "cross_street": "",
                        "formatted_address": "500 Saint-Martin Blvd O, Laval QC H7M 3Y2",
                        "locality": "Laval",
                        "postcode": "H7M 3Y2",
                        "region": "QC"
                  },
                  "name": "Ristorante Meridiana",
                  "popularity": 0.9133267874676426,
                  "price": 3,
                  "rating": 7.1
            },
            {
                  "distance": 2595,
                  "location": {
                        "address": "1695 Blvd de l'Avenir",
                        "country": "CA",
                        "formatted_address": "1695 Blvd de l'Avenir, Laval QC H7S 2N5",
                        "locality": "Laval",
                        "postcode": "H7S 2N5",
                        "region": "QC"
                  },
                  "name": "Madisons Restaurant & Bar - de l'Avenir",
                  "popularity": 0.8385253949834865,
                  "price": 4,
                  "rating": 7.0
            },
            {
                  "distance": 144,
                  "location": {
                        "address": "1459 Saint-Martin Blvd O",
                        "country": "CA",
                        "formatted_address": "1459 Saint-Martin Blvd O, Laval QC H7S 1N1",
                        "locality": "Laval",
                        "postcode": "H7S 1N1",
                        "region": "QC"
                  },
                  "name": "Restaurant Ottavio",
                  "popularity": 0.9750066946353655,
                  "price": 3,
                  "rating": 6.5
            },
            {
                  "distance": 821,
                  "location": {
                        "address": "1849 St Martin Blvd O",
                        "country": "CA",
                        "cross_street": "",
                        "formatted_address": "1849 St Martin Blvd O, Laval QC H7S 1N2",
                        "locality": "Laval",
                        "postcode": "H7S 1N2",
                        "region": "QC"
                  },
                  "name": "Tim Hortons",
                  "popularity": 0.9863429438543247,
                  "price": 1,
                  "rating": 6.4
            },
            {
                  "distance": 122,
                  "location": {
                        "address": "1135 Saint-Martin Blvd W",
                        "country": "CA",
                        "cross_street": "",
                        "formatted_address": "1135 Saint-Martin Blvd W, Laval QC H7S 1M8",
                        "locality": "Laval",
                        "postcode": "H7S 1M8",
                        "region": "QC"
                  },
                  "name": "Subway",
                  "popularity": 0.9048469160046416,
                  "price": 1,
                  "rating": 6.4
            },
            {
                  "distance": 514,
                  "location": {
                        "address": "1678 Saint-Martin Blvd O",
                        "country": "CA",
                        "formatted_address": "1678 Saint-Martin Blvd O, Laval QC H7S 1M9",
                        "locality": "Laval",
                        "postcode": "H7S 1M9",
                        "region": "QC"
                  },
                  "name": "Sushi Shop",
                  "popularity": 0.8417388199589396,
                  "price": 2,
                  "rating": 6.3
            },
            {
                  "distance": 60,
                  "location": {
                        "address": "1155 St Martin Blvd O",
                        "country": "CA",
                        "cross_street": "coin McNamara",
                        "formatted_address": "1155 St Martin Blvd O (coin McNamara), Laval QC H7S 1M8",
                        "locality": "Laval",
                        "postcode": "H7S 1M8",
                        "region": "QC"
                  },
                  "name": "Tim Hortons",
                  "popularity": 0.928679817905918,
                  "price": 1,
                  "rating": 6.1
            },
            {
                  "distance": 643,
                  "location": {
                        "address": "1785 Sainte Martin Blvd O",
                        "country": "CA",
                        "cross_street": "",
                        "formatted_address": "1785 Sainte Martin Blvd O, Laval QC H7S 1N2",
                        "locality": "Laval",
                        "postcode": "H7S 1N2",
                        "region": "QC"
                  },
                  "name": "Pizza Pizza",
                  "popularity": 0.8631616531286262,
                  "price": 1,
                  "rating": 6.1,
                  "store_id": "315"
            },
            {
                  "distance": 618,
                  "location": {
                        "address": "1800 St-Martin Blvd O",
                        "country": "CA",
                        "cross_street": "",
                        "formatted_address": "1800 St-Martin Blvd O, Laval QC H7S 1M9",
                        "locality": "Laval",
                        "postcode": "H7S 1M9",
                        "region": "QC"
                  },
                  "name": "Hasu Sushi & Wok",
                  "popularity": 0.8668213871284477,
                  "price": 2,
                  "rating": 6.0
            },
            {
                  "distance": 203,
                  "location": {
                        "address": "1505 St Martin Blvd O",
                        "country": "CA",
                        "cross_street": "",
                        "formatted_address": "1505 St Martin Blvd O, Laval QC H7S 1N2",
                        "locality": "Laval",
                        "postcode": "H7S 1N2",
                        "region": "QC"
                  },
                  "name": "Burger King",
                  "popularity": 0.9428724448808354,
                  "price": 1,
                  "rating": 5.6,
                  "store_id": "1716"
            },
            {
                  "distance": 993,
                  "location": {
                        "address": "2005 Saint-Martin Blvd O",
                        "country": "CA",
                        "cross_street": "coin Le Corbusier",
                        "formatted_address": "2005 Saint-Martin Blvd O (coin Le Corbusier), Laval QC H7S 1N3",
                        "locality": "Laval",
                        "postcode": "H7S 1N3",
                        "region": "QC"
                  },
                  "name": "McDonald's",
                  "popularity": 0.9977684548781577,
                  "price": 1,
                  "rating": 5.5
            },
            {
                  "distance": 107,
                  "location": {
                        "address": "1129 Saint-Martin Blvd O",
                        "country": "CA",
                        "cross_street": "at boul. Industriel",
                        "formatted_address": "1129 Saint-Martin Blvd O (at boul. Industriel), Laval QC H7S 1M8",
                        "locality": "Laval",
                        "postcode": "H7S 1M8",
                        "region": "QC"
                  },
                  "name": "Pasta etc",
                  "popularity": 0.8361153262518968,
                  "price": 2
            },
            {
                  "distance": 114,
                  "location": {
                        "address": "1129 Saint-Martin Blvd O",
                        "country": "CA",
                        "cross_street": "",
                        "formatted_address": "1129 Saint-Martin Blvd O, Laval QC H7S 1M8",
                        "locality": "Laval",
                        "postcode": "H7S 1M8",
                        "region": "QC"
                  },
                  "name": "Quesada Burritos and Tacos",
                  "popularity": 0.9451039900026779
            },
            {
                  "distance": 184,
                  "location": {
                        "address": "1456 Saint-Martin Blvd O",
                        "country": "CA",
                        "formatted_address": "1456 Saint-Martin Blvd O, Laval QC H7S 1M9",
                        "locality": "Laval",
                        "postcode": "H7S 1M9",
                        "region": "QC"
                  },
                  "name": "Karam Restaurant",
                  "popularity": 0.884584486298313,
                  "price": 1
            },
            {
                  "distance": 205,
                  "location": {
                        "address": "1454 Saint-Martin Blvd O",
                        "country": "CA",
                        "cross_street": "",
                        "formatted_address": "1454 Saint-Martin Blvd O, Laval QC H7S 1M9",
                        "locality": "Laval",
                        "postcode": "H7S 1M9",
                        "region": "QC"
                  },
                  "name": "Edmond Bistro",
                  "popularity": 0.9218066589306436,
                  "price": 2
            },
            {
                  "distance": 407,
                  "location": {
                        "address": "1630 Saint-Martin Blvd O",
                        "country": "CA",
                        "cross_street": "",
                        "formatted_address": "1630 Saint-Martin Blvd O, Laval QC H7S 1M9",
                        "locality": "Laval",
                        "postcode": "H7S 1M9",
                        "region": "QC"
                  },
                  "name": "Toujours Mikes",
                  "popularity": 0.9271623672230652,
                  "price": 2,
                  "store_id": "MK-0088"
            },
            {
                  "distance": 441,
                  "location": {
                        "address": "1636 Saint-Martin Blvd O",
                        "country": "CA",
                        "cross_street": "",
                        "formatted_address": "1636 Saint-Martin Blvd O, Laval QC H7S 1M9",
                        "locality": "Laval",
                        "postcode": "H7S 1M9",
                        "region": "QC"
                  },
                  "name": "Pho Mymy",
                  "popularity": 0.8692314558600375,
                  "price": 2
            },
            {
                  "distance": 525,
                  "location": {
                        "address": "1670 Saint-Martin Blvd O",
                        "country": "CA",
                        "cross_street": "",
                        "formatted_address": "1670 Saint-Martin Blvd O, Laval QC H7S 1M9",
                        "locality": "Laval",
                        "postcode": "H7S 1M9",
                        "region": "QC"
                  },
                  "name": "Philinos",
                  "popularity": 0.9198428992234223,
                  "price": 2
            },
            {
                  "distance": 561,
                  "location": {
                        "address": "1698 Saint-Martin Blvd O",
                        "country": "CA",
                        "cross_street": "",
                        "formatted_address": "1698 Saint-Martin Blvd O, Laval QC H7S 1M9",
                        "locality": "Laval",
                        "postcode": "H7S 1M9",
                        "region": "QC"
                  },
                  "name": "La Cave du Roi",
                  "popularity": 0.8545032580558779,
                  "price": 2
            },
            {
                  "distance": 590,
                  "location": {
                        "address": "1695 Blvd de l'Avenir",
                        "country": "CA",
                        "cross_street": "",
                        "formatted_address": "1695 Blvd de l'Avenir, Laval QC H7S 2N5",
                        "locality": "Laval",
                        "postcode": "H7S 2N5",
                        "region": "QC"
                  },
                  "name": "Madisons Restaurant & Bar",
                  "popularity": 0.9238596804427386,
                  "price": 2
            },
            {
                  "distance": 601,
                  "location": {
                        "address": "1659 Blvd de l'Avenir",
                        "country": "CA",
                        "cross_street": "",
                        "formatted_address": "1659 Blvd de l'Avenir, Laval QC H7S 2N5",
                        "locality": "Laval",
                        "postcode": "H7S 2N5",
                        "region": "QC"
                  },
                  "name": "Domino's Pizza",
                  "popularity": 0.8765509238596805,
                  "price": 1,
                  "store_id": "10692"
            },
            {
                  "distance": 619,
                  "location": {
                        "address": "1639 Blvd de l'Avenir",
                        "country": "CA",
                        "cross_street": "",
                        "formatted_address": "1639 Blvd de l'Avenir, Laval QC H7S 2N5",
                        "locality": "Laval",
                        "postcode": "H7S 2N5",
                        "region": "QC"
                  },
                  "name": "House of Jazz Laval",
                  "popularity": 0.9197536374185487
            },
            {
                  "distance": 679,
                  "location": {
                        "address": "1678 Blvd de l'Avenir",
                        "country": "CA",
                        "cross_street": "",
                        "formatted_address": "1678 Blvd de l'Avenir, Laval QC H7S 2N4",
                        "locality": "Laval",
                        "postcode": "H7S 2N4",
                        "region": "QC"
                  },
                  "name": "Grillades la Flamme",
                  "popularity": 0.18959207355172722
            },
            {
                  "distance": 850,
                  "location": {
                        "address": "1925 Saint-Martin Blvd O",
                        "country": "CA",
                        "cross_street": "",
                        "formatted_address": "1925 Saint-Martin Blvd O, Laval QC H7S 1N2",
                        "locality": "Laval",
                        "postcode": "H7S 1N2",
                        "region": "QC"
                  },
                  "name": "Harvey's",
                  "popularity": 0.9247522984914754,
                  "price": 2,
                  "store_id": "2296"
            },
            {
                  "distance": 923,
                  "location": {
                        "address": "615 Saint-Martin Blvd O",
                        "country": "CA",
                        "cross_street": "",
                        "formatted_address": "615 Saint-Martin Blvd O, Laval QC H7M 1Y9",
                        "locality": "Laval",
                        "postcode": "H7M 1Y9",
                        "region": "QC"
                  },
                  "name": "L'eggspress",
                  "popularity": 0.9645630634651433,
                  "price": 1
            },
            {
                  "distance": 139,
                  "location": {
                        "address": "1459 Saint-Martin Blvd O",
                        "country": "CA",
                        "formatted_address": "1459 Saint-Martin Blvd O, Laval QC H7S 1N1",
                        "locality": "Laval",
                        "postcode": "H7S 1N1",
                        "region": "QC"
                  },
                  "name": "Restaurant Casa Grecque"
            },
            {
                  "distance": 234,
                  "location": {
                        "address": "1805 Industriel Blvd",
                        "country": "CA",
                        "formatted_address": "1805 Industriel Blvd, Laval QC H7S 1P5",
                        "locality": "Laval",
                        "postcode": "H7S 1P5",
                        "region": "QC"
                  },
                  "name": "D\u00e9li-Porc Inc"
            },
            {
                  "distance": 260,
                  "location": {
                        "address": "1700 Aut",
                        "country": "CA",
                        "formatted_address": "1700 Aut, Chomedey QC",
                        "locality": "Chomedey",
                        "region": "QC"
                  },
                  "name": "Bravo Bistro Grill & Traiteur"
            },
            {
                  "distance": 271,
                  "location": {
                        "address": "1805 Industriel Blvd",
                        "country": "CA",
                        "formatted_address": "1805 Industriel Blvd, Laval QC H7S 1P5",
                        "locality": "Laval",
                        "postcode": "H7S 1P5",
                        "region": "QC"
                  },
                  "name": "EuroGourmet"
            },
            {
                  "distance": 289,
                  "location": {
                        "address": "1510 Chomedey Blvd",
                        "country": "CA",
                        "formatted_address": "1510 Chomedey Blvd, Laval QC H7V 3N8",
                        "locality": "Laval",
                        "postcode": "H7V 3N8",
                        "region": "QC"
                  },
                  "name": "Toyo Japanese Steak House Inc"
            },
            {
                  "distance": 386,
                  "location": {
                        "address": "1599 Saint-Martin Blvd O",
                        "country": "CA",
                        "formatted_address": "1599 Saint-Martin Blvd O, Laval QC H7S 1N1",
                        "locality": "Laval",
                        "postcode": "H7S 1N1",
                        "region": "QC"
                  },
                  "name": "Brulerie St Denis"
            },
            {
                  "distance": 431,
                  "location": {
                        "address": "1630 Saint-Martin Blvd W",
                        "country": "CA",
                        "formatted_address": "1630 Saint-Martin Blvd W, Laval QC H7S 1M9",
                        "locality": "Laval",
                        "postcode": "H7S 1M9",
                        "region": "QC"
                  },
                  "name": "Mikes Restaurants, Laval-North Shore"
            }
      ],
      "context": {
            "geo_bounds": {
                  "circle": {
                        "center": {
                              "latitude": 45.57120356,
                              "longitude": -73.72351885
                        },
                        "radius": 1000
                  }
            }
      }
}