{
      "results": [
            {
                  "distance": 941,
                  "location": {
                        "address": "511 Villeray Rue",
                        "country": "CA",
                        "cross_street": "coin Berri",
                        "formatted_address": "511 Villeray Rue (coin Berri), Montr\u00e9al QC H2R 1H5",
                        "locality": "Montreal",
                        "postcode": "H2R 1H5",
                        "region": "QC"
                  },
                  "name": "Tapeo",
                  "popularity": 0.9402914458743377,
                  "price": 2,
                  "rating": 9.1
            },
            {
                  "distance": 794,
                  "location": {
                        "address": "151 Villeray Rue",
                        "country": "CA",
                        "cross_street": "Casgrain",
                        "formatted_address": "151 Villeray Rue (Casgrain), Montr\u00e9al QC H2R 1G4",
                        "locality": "Montreal",
                        "postcode": "H2R 1G4",
                        "region": "QC"
                  },
                  "name": "Caf\u00e9 Vito",
                  "popularity": 0.9643854087812264,
                  "price": 1,
                  "rating": 8.7
            },
            {
                  "distance": 464,
                  "location": {
                        "address": "350 Rue de Liege Est",
                        "country": "CA",
                        "cross_street": "coin rue Drolet",
                        "formatted_address": "350 Rue de Liege Est (coin rue Drolet), Montr\u00e9al QC H2P 1J5",
                        "locality": "Montreal",
                        "postcode": "H2P 1J5",
                        "region": "QC"
                  },
                  "name": "L'Oeufrier",
                  "popularity": 0.9471636071158214,
                  "price": 1,
                  "rating": 8.6
            },
            {
                  "distance": 864,
                  "location": {
                        "address": "709B Jarry Rue E",
                        "country": "CA",
                        "cross_street": "",
                        "formatted_address": "709B Jarry Rue E, Montr\u00e9al QC H2P 1W2",
                        "locality": "Montreal",
                        "postcode": "H2P 1W2",
                        "region": "QC"
                  },
                  "name": "Baristello & Co",
                  "popularity": 0.9224664080242241,
                  "price": 1,
                  "rating": 8.3
            },
            {
                  "distance": 517,
                  "location": {
                        "address": "8100 Saint-Denis Rue",
                        "country": "CA",
                        "cross_street": "Jarry",
                        "formatted_address": "8100 Saint-Denis Rue (Jarry), Montr\u00e9al QC H2P 2G6",
                        "locality": "Montreal",
                        "postcode": "H2P 2G6",
                        "region": "QC"
                  },
                  "name": "Etoh Brasserie",
                  "popularity": 0.9779759651778955,
                  "price": 2,
                  "rating": 8.2
            },
            {
                  "distance": 583,
                  "location": {
                        "address": "190 Cremazie Blvd E",
                        "country": "CA",
                        "cross_street": "",
                        "formatted_address": "190 Cremazie Blvd E, Montr\u00e9al QC H2P 1E2",
                        "locality": "Montreal",
                        "postcode": "H2P 1E2",
                        "region": "QC"
                  },
                  "name": "Starbucks",
                  "popularity": 0.9921934140802422,
                  "price": 1,
                  "rating": 8.1,
                  "store_id": "1009058"
            },
            {
                  "distance": 999,
                  "location": {
                        "address": "8870 Lajeunesse Rue",
                        "country": "CA",
                        "cross_street": "Ave Emile-Journault",
                        "formatted_address": "8870 Lajeunesse Rue (Ave Emile-Journault), Montr\u00e9al QC H2M 1R6",
                        "locality": "Montreal",
                        "postcode": "H2M 1R6",
                        "region": "QC"
                  },
                  "name": "Auberge du Dragon Rouge",
                  "popularity": 0.9823760408781226,
                  "price": 2,
                  "rating": 8.0
            },
            {
                  "distance": 543,
                  "location": {
                        "address": "405 Jarry Rue E",
                        "country": "CA",
                        "cross_street": "coin St-Denis",
                        "formatted_address": "405 Jarry Rue E (coin St-Denis), Montr\u00e9al QC H2P 1V2",
                        "locality": "Montreal",
                        "postcode": "H2P 1V2",
                        "region": "QC"
                  },
                  "name": "Caf\u00e9 Larue et Fils Inc",
                  "popularity": 0.9481571725965178,
                  "price": 1,
                  "rating": 7.9
            },
            {
                  "distance": 405,
                  "location": {
                        "address": "300 Jarry Rue E",
                        "country": "CA",
                        "cross_street": "",
                        "formatted_address": "300 Jarry Rue E, Montr\u00e9al QC H2P 1T7",
                        "locality": "Montreal",
                        "postcode": "H2P 1T7",
                        "region": "QC"
                  },
                  "name": "Pho Ong Rau",
                  "popularity": 0.9140329295987888,
                  "price": 2,
                  "rating": 7.8
            },
            {
                  "distance": 277,
                  "location": {
                        "address": "65 Jarry Rue E",
                        "country": "CA",
                        "cross_street": "",
                        "formatted_address": "65 Jarry Rue E, Montr\u00e9al QC H2P 1T2",
                        "locality": "Montreal",
                        "postcode": "H2P 1T2",
                        "region": "QC"
                  },
                  "name": "Ne\u014ds",
                  "popularity": 0.840308005299016,
                  "price": 2,
                  "rating": 7.7
            },
            {
                  "distance": 907,
                  "location": {
                        "address": "550 Jarry Rue O",
                        "country": "CA",
                        "cross_street": "Qurbes",
                        "formatted_address": "550 Jarry Rue O (Qurbes), Montr\u00e9al QC H3N 1E9",
                        "locality": "Montreal",
                        "postcode": "H3N 1E9",
                        "region": "QC"
                  },
                  "name": "Restaurant Elatos Souvlaki",
                  "popularity": 0.9974569454958365,
                  "price": 2,
                  "rating": 7.6
            },
            {
                  "distance": 741,
                  "location": {
                        "address": "615 Jarry Rue E",
                        "country": "CA",
                        "formatted_address": "615 Jarry Rue E, Montr\u00e9al QC H2P 1V8",
                        "locality": "Montreal",
                        "postcode": "H2P 1V8",
                        "region": "QC"
                  },
                  "name": "Restaurant Da Lillo",
                  "popularity": 0.9266180923542771,
                  "price": 2,
                  "rating": 7.5
            },
            {
                  "distance": 830,
                  "location": {
                        "address": "220 Villeray Rue",
                        "country": "CA",
                        "cross_street": "coin Henri-Julien",
                        "formatted_address": "220 Villeray Rue (coin Henri-Julien), Montr\u00e9al QC H2R 1G5",
                        "locality": "Montreal",
                        "postcode": "H2R 1G5",
                        "region": "QC"
                  },
                  "name": "Miss Villeray",
                  "popularity": 0.9195448523845572,
                  "price": 2,
                  "rating": 7.4
            },
            {
                  "distance": 291,
                  "location": {
                        "address": "8523 Saint-Laurent Blvd",
                        "country": "CA",
                        "cross_street": "",
                        "formatted_address": "8523 Saint-Laurent Blvd, Montr\u00e9al QC H2P 2M9",
                        "locality": "Montreal",
                        "postcode": "H2P 2M9",
                        "region": "QC"
                  },
                  "name": "Pho Express",
                  "popularity": 0.8575889477668432,
                  "price": 2,
                  "rating": 7.1
            },
            {
                  "distance": 83,
                  "location": {
                        "address": "8297 Saint-Dominique Rue",
                        "country": "CA",
                        "cross_street": "coin Guizot Est",
                        "formatted_address": "8297 Saint-Dominique Rue (coin Guizot Est), Montr\u00e9al QC H2P 2L2",
                        "locality": "Montreal",
                        "postcode": "H2P 2L2",
                        "region": "QC"
                  },
                  "name": "Restaurant le Coin G",
                  "popularity": 0.9301428841786525,
                  "price": 3,
                  "rating": 7.1
            },
            {
                  "distance": 518,
                  "location": {
                        "address": "8500 Saint-Denis Rue",
                        "country": "CA",
                        "cross_street": "coin Li\u00e8ge",
                        "formatted_address": "8500 Saint-Denis Rue (coin Li\u00e8ge), Montr\u00e9al QC H2P 2H2",
                        "locality": "Montreal",
                        "postcode": "H2P 2H2",
                        "region": "QC"
                  },
                  "name": "Caf\u00e9 in",
                  "popularity": 0.83736279333838,
                  "price": 1,
                  "rating": 7.0
            },
            {
                  "distance": 656,
                  "location": {
                        "address": "55 Cremazie Blvd O",
                        "country": "CA",
                        "cross_street": "Boulevard St-Laurent",
                        "formatted_address": "55 Cremazie Blvd O (Boulevard St-Laurent), Montr\u00e9al QC H2N 1L3",
                        "locality": "Montreal",
                        "postcode": "H2N 1L3",
                        "region": "QC"
                  },
                  "name": "Burger King",
                  "popularity": 0.9704177706283119,
                  "price": 1,
                  "rating": 6.8,
                  "store_id": "7455"
            },
            {
                  "distance": 646,
                  "location": {
                        "address": "552 Jarry Rue E",
                        "country": "CA",
                        "cross_street": "coin Lajeunesse",
                        "formatted_address": "552 Jarry Rue E (coin Lajeunesse), Montr\u00e9al QC H2P 1V5",
                        "locality": "Montreal",
                        "postcode": "H2P 1V5",
                        "region": "QC"
                  },
                  "name": "Taverne Jarry",
                  "popularity": 0.8387940007570023,
                  "price": 2,
                  "rating": 6.7
            },
            {
                  "distance": 856,
                  "location": {
                        "address": "8753 Lajeunesse Rue",
                        "country": "CA",
                        "cross_street": "Cr\u00e9mazie",
                        "formatted_address": "8753 Lajeunesse Rue (Cr\u00e9mazie), Montr\u00e9al QC H2M 1R7",
                        "locality": "Montreal",
                        "postcode": "H2M 1R7",
                        "region": "QC"
                  },
                  "name": "Brasserie du M\u00e9tro",
                  "popularity": 0.9003004352763059,
                  "price": 1,
                  "rating": 6.5
            },
            {
                  "distance": 818,
                  "location": {
                        "address": "255 Cremazie Blvd O",
                        "country": "CA",
                        "formatted_address": "255 Cremazie Blvd O, Montr\u00e9al QC H2N 1L8",
                        "locality": "Montreal",
                        "postcode": "H2N 1L8",
                        "region": "QC"
                  },
                  "name": "Harvey's",
                  "popularity": 0.9109576078728236,
                  "price": 2,
                  "rating": 6.1,
                  "store_id": "2263"
            },
            {
                  "distance": 660,
                  "location": {
                        "address": "115 Cremazie Blvd O",
                        "country": "CA",
                        "cross_street": "entre St-Urbain & De Reims",
                        "formatted_address": "115 Cremazie Blvd O (entre St-Urbain & De Reims), Montr\u00e9al QC H2N 1L4",
                        "locality": "Montreal",
                        "postcode": "H2N 1L4",
                        "region": "QC"
                  },
                  "name": "Tim Hortons",
                  "popularity": 0.9939203255109765,
                  "price": 1,
                  "rating": 5.1
            },
            {
                  "distance": 174,
                  "location": {
                        "address": "8145 Saint-Laurent Blvd",
                        "country": "CA",
                        "cross_street": "",
                        "formatted_address": "8145 Saint-Laurent Blvd, Montr\u00e9al QC H2P 2M1",
                        "locality": "Montreal",
                        "postcode": "H2P 2M1",
                        "region": "QC"
                  },
                  "name": "Saeco Canada",
                  "popularity": 0.9336558478425435
            },
            {
                  "distance": 291,
                  "location": {
                        "address": "8519 Saint-Laurent Blvd",
                        "country": "CA",
                        "cross_street": "Rue de Li\u00e8ge Est",
                        "formatted_address": "8519 Saint-Laurent Blvd (Rue de Li\u00e8ge Est), Montr\u00e9al QC H2P 2M9",
                        "locality": "Montreal",
                        "postcode": "H2P 2M9",
                        "region": "QC"
                  },
                  "name": "Sushi Saumon",
                  "popularity": 0.8595169379258137,
                  "price": 2
            },
            {
                  "distance": 325,
                  "location": {
                        "address": "8551 Saint-Laurent Blvd",
                        "country": "CA",
                        "cross_street": "",
                        "formatted_address": "8551 Saint-Laurent Blvd, Montreal QC H2P 2M9",
                        "locality": "Montreal",
                        "postcode": "H2P 2M9",
                        "region": "QC"
                  },
                  "name": "Restaurant la Goelette",
                  "popularity": 0.11648372445117336,
                  "price": 2
            },
            {
                  "distance": 363,
                  "location": {
                        "address": "206 Jarry Rue E",
                        "country": "CA",
                        "cross_street": "",
                        "formatted_address": "206 Jarry Rue E, Montr\u00e9al QC H2P 1T5",
                        "locality": "Montreal",
                        "postcode": "H2P 1T5",
                        "region": "QC"
                  },
                  "name": "Vesta",
                  "popularity": 0.9396290688872067,
                  "price": 1
            },
            {
                  "distance": 410,
                  "location": {
                        "address": "371 Guizot Rue E",
                        "country": "CA",
                        "cross_street": "",
                        "formatted_address": "371 Guizot Rue E, Montreal QC H2P 1M7",
                        "locality": "Montreal",
                        "postcode": "H2P 1M7",
                        "region": "QC"
                  },
                  "name": "Restaurant Per Te",
                  "popularity": 0.8577663701741105,
                  "price": 2
            },
            {
                  "distance": 570,
                  "location": {
                        "address": "501 Jarry Rue E",
                        "country": "CA",
                        "cross_street": "Berri",
                        "formatted_address": "501 Jarry Rue E (Berri), Montr\u00e9al QC H2P 1V4",
                        "locality": "Montreal",
                        "postcode": "H2P 1V4",
                        "region": "QC"
                  },
                  "name": "Basha",
                  "popularity": 0.3892056207418622,
                  "price": 1
            },
            {
                  "distance": 573,
                  "location": {
                        "address": "352 Cure-Labelle Blvd",
                        "country": "CA",
                        "cross_street": "",
                        "formatted_address": "352 Cure-Labelle Blvd, Laval QC H7V 2S1",
                        "locality": "Laval",
                        "postcode": "H7V 2S1",
                        "region": "QC"
                  },
                  "name": "Marouch",
                  "popularity": 0.9162566237698713,
                  "price": 2
            },
            {
                  "distance": 614,
                  "location": {
                        "address": "309 Gounod Rue",
                        "country": "CA",
                        "cross_street": "",
                        "formatted_address": "309 Gounod Rue, Montr\u00e9al QC H2R 1B2",
                        "locality": "Montreal",
                        "postcode": "H2R 1B2",
                        "region": "QC"
                  },
                  "name": "La Touille",
                  "popularity": 0.2746144019682059,
                  "price": 1
            },
            {
                  "distance": 736,
                  "location": {
                        "address": "340 Bellarmin Rue",
                        "country": "CA",
                        "cross_street": "",
                        "formatted_address": "340 Bellarmin Rue, Montr\u00e9al QC H2P 1G5",
                        "locality": "Montreal",
                        "postcode": "H2P 1G5",
                        "region": "QC"
                  },
                  "name": "Chenail",
                  "popularity": 0.8327024981074943,
                  "price": 2
            },
            {
                  "distance": 750,
                  "location": {
                        "address": "608 Jarry E",
                        "country": "CA",
                        "cross_street": "",
                        "formatted_address": "608 Jarry E, Montr\u00e9al QC H2P 1V7",
                        "locality": "Montreal",
                        "postcode": "H2P 1V7",
                        "region": "QC"
                  },
                  "name": "B\u00eap",
                  "popularity": 0.8465887585162756,
                  "price": 2
            },
            {
                  "distance": 825,
                  "location": {
                        "address": "676 Jarry Rue E",
                        "country": "CA",
                        "cross_street": "",
                        "formatted_address": "676 Jarry Rue E, Montr\u00e9al QC H2P 1V9",
                        "locality": "Montreal",
                        "postcode": "H2P 1V9",
                        "region": "QC"
                  },
                  "name": "Pho Do",
                  "popularity": 0.897284254352763,
                  "price": 2
            },
            {
                  "distance": 901,
                  "location": {
                        "address": "380 Villeray Rue",
                        "country": "CA",
                        "cross_street": "St-Denis",
                        "formatted_address": "380 Villeray Rue (St-Denis), Montr\u00e9al QC H2R 1G9",
                        "locality": "Montreal",
                        "postcode": "H2R 1G9",
                        "region": "QC"
                  },
                  "name": "Moccione",
                  "popularity": 0.9194738834216503,
                  "price": 2
            },
            {
                  "distance": 921,
                  "location": {
                        "address": "751 Jarry Rue E",
                        "country": "CA",
                        "cross_street": "",
                        "formatted_address": "751 Jarry Rue E, Montr\u00e9al QC H2P 1W3",
                        "locality": "Montreal",
                        "postcode": "H2P 1W3",
                        "region": "QC"
                  },
                  "name": "Fanfare Jarry",
                  "popularity": 0.9510314155942468,
                  "price": 1
            },
            {
                  "distance": 168,
                  "location": {
                        "address": "8145 Saint-Laurent Blvd",
                        "country": "CA",
                        "formatted_address": "8145 Saint-Laurent Blvd, Montreal QC H2P 2M1",
                        "locality": "Montreal",
                        "postcode": "H2P 2M1",
                        "region": "QC"
                  },
                  "name": "Machine a Cafe Bellucci"
            }
      ],
      "context": {
            "geo_bounds": {
                  "circle": {
                        "center": {
                              "latitude": 45.53968044,
                              "longitude": -73.63450438
                        },
                        "radius": 1000
                  }
            }
      }
}