{
      "results": [
            {
                  "distance": 708,
                  "location": {
                        "address": "5252 Pare Rue",
                        "country": "CA",
                        "cross_street": "Decarie",
                        "formatted_address": "5252 Pare Rue (Decarie), Montr\u00e9al QC H4P 1P5",
                        "locality": "Montreal",
                        "postcode": "H4P 1P5",
                        "region": "QC"
                  },
                  "name": "Epicure Market",
                  "popularity": 0.9847535011355034,
                  "rating": 8.7
            },
            {
                  "distance": 264,
                  "location": {
                        "address": "8105 Decarie Blvd",
                        "country": "CA",
                        "cross_street": "",
                        "formatted_address": "8105 Decarie Blvd, Montr\u00e9al QC H4P 2H5",
                        "locality": "Montreal",
                        "postcode": "H4P 2H5",
                        "region": "QC"
                  },
                  "name": "Rib'N Reef Steakhouse",
                  "popularity": 0.9391914269492808,
                  "price": 4,
                  "rating": 8.4,
                  "store_id": "1020-048"
            },
            {
                  "distance": 630,
                  "location": {
                        "address": "7700 Decarie Blvd",
                        "country": "CA",
                        "cross_street": "coin Par\u00e9",
                        "formatted_address": "7700 Decarie Blvd (coin Par\u00e9), Montr\u00e9al QC H4P 2H4",
                        "locality": "Montreal",
                        "postcode": "H4P 2H4",
                        "region": "QC"
                  },
                  "name": "Gibeau Orange Julep",
                  "popularity": 0.9949966881150644,
                  "price": 1,
                  "rating": 8.3
            },
            {
                  "distance": 861,
                  "location": {
                        "address": "7340 Decarie Blvd",
                        "country": "CA",
                        "cross_street": "Rue des Jockeys",
                        "formatted_address": "7340 Decarie Blvd (Rue des Jockeys), Montr\u00e9al QC H4P 2N1",
                        "locality": "Montreal",
                        "postcode": "H4P 2N1",
                        "region": "QC"
                  },
                  "name": "Wendy's",
                  "popularity": 0.9891535768357305,
                  "price": 1,
                  "rating": 8.2,
                  "store_id": "6663"
            },
            {
                  "distance": 784,
                  "location": {
                        "address": "4060 Ch de la Cote-De-Liesse",
                        "address_extended": "Vmr Lucerne",
                        "country": "CA",
                        "formatted_address": "4060 Ch de la Cote-De-Liesse, Mont-Royal QC H4N 2P7",
                        "locality": "Mont-Royal",
                        "postcode": "H4N 2P7",
                        "region": "QC"
                  },
                  "name": "Starbucks",
                  "popularity": 0.9924536336109009,
                  "price": 3,
                  "rating": 8.1,
                  "store_id": "10315-184764"
            },
            {
                  "distance": 801,
                  "location": {
                        "address": "5385 des Jockeys Rue",
                        "country": "CA",
                        "formatted_address": "5385 des Jockeys Rue, Montr\u00e9al QC H4P 2T8",
                        "locality": "Montreal",
                        "postcode": "H4P 2T8",
                        "region": "QC"
                  },
                  "name": "B\u00e2ton Rouge Steakhouse & Bar",
                  "popularity": 0.9934353709311128,
                  "price": 3,
                  "rating": 7.9,
                  "store_id": "4016"
            },
            {
                  "distance": 694,
                  "location": {
                        "address": "5195 Pare Rue",
                        "country": "CA",
                        "cross_street": "at Mountain Sights Ave.",
                        "formatted_address": "5195 Pare Rue (at Mountain Sights Ave.), Montr\u00e9al QC H4P 1P4",
                        "locality": "Montreal",
                        "postcode": "H4P 1P4",
                        "region": "QC"
                  },
                  "name": "Pushap Sweets",
                  "popularity": 0.9667746971990916,
                  "price": 1,
                  "rating": 7.8
            },
            {
                  "distance": 780,
                  "location": {
                        "address": "5365 des Jockeys Rue",
                        "country": "CA",
                        "cross_street": "Boul. Decarie",
                        "formatted_address": "5365 des Jockeys Rue (Boul. Decarie), Montr\u00e9al QC H4P 2T8",
                        "locality": "Montreal",
                        "postcode": "H4P 2T8",
                        "region": "QC"
                  },
                  "name": "Marathon Souvlaki Restaurant",
                  "popularity": 0.99110522331567,
                  "price": 2,
                  "rating": 7.4
            },
            {
                  "distance": 781,
                  "location": {
                        "address": "5375 des Jockeys Rue",
                        "address_extended": "H003",
                        "country": "CA",
                        "cross_street": "",
                        "formatted_address": "5375 des Jockeys Rue, Montr\u00e9al QC H4P 2T8",
                        "locality": "Montreal",
                        "postcode": "H4P 2T8",
                        "region": "QC"
                  },
                  "name": "Subway",
                  "popularity": 0.8838238077214232,
                  "price": 1,
                  "rating": 7.1,
                  "store_id": "#25494"
            },
            {
                  "distance": 353,
                  "location": {
                        "address": "8000 Decarie Blvd",
                        "address_extended": "Ferrier",
                        "country": "CA",
                        "cross_street": "Ferrier",
                        "formatted_address": "8000 Decarie Blvd (Ferrier), Montr\u00e9al QC H4P 2S4",
                        "locality": "Montreal",
                        "postcode": "H4P 2S4",
                        "region": "QC"
                  },
                  "name": "La Prep",
                  "popularity": 0.939120457986374,
                  "price": 1,
                  "rating": 7.0
            },
            {
                  "distance": 973,
                  "location": {
                        "address": "3201 Graham Blvd",
                        "country": "CA",
                        "cross_street": "",
                        "formatted_address": "3201 Graham Blvd, Mont-Royal QC H3R 1K1",
                        "locality": "Mont-Royal",
                        "postcode": "H3R 1K1",
                        "region": "QC"
                  },
                  "name": "Villa Armando",
                  "popularity": 0.9368731074943225,
                  "price": 2,
                  "rating": 7.0
            },
            {
                  "distance": 962,
                  "location": {
                        "address": "5300 Jean-Talon Rue O",
                        "country": "CA",
                        "cross_street": "",
                        "formatted_address": "5300 Jean-Talon Rue O, Montr\u00e9al QC H4P 2T5",
                        "locality": "Montreal",
                        "postcode": "H4P 2T5",
                        "region": "QC"
                  },
                  "name": "Burger King",
                  "popularity": 0.9929267600302801,
                  "price": 1,
                  "rating": 6.8,
                  "store_id": "8497"
            },
            {
                  "distance": 848,
                  "location": {
                        "address": "7340 Decarie Blvd",
                        "country": "CA",
                        "cross_street": "Jean-Talon",
                        "formatted_address": "7340 Decarie Blvd (Jean-Talon), Montr\u00e9al QC H4P 2N1",
                        "locality": "Montreal",
                        "postcode": "H4P 2N1",
                        "region": "QC"
                  },
                  "name": "Tim Hortons",
                  "popularity": 0.9927611657834974,
                  "price": 1,
                  "rating": 6.7
            },
            {
                  "distance": 978,
                  "location": {
                        "address": "7373 Decarie Blvd",
                        "country": "CA",
                        "cross_street": "",
                        "formatted_address": "7373 Decarie Blvd, Montr\u00e9al QC H4P 2G8",
                        "locality": "Montreal",
                        "postcode": "H4P 2G8",
                        "region": "QC"
                  },
                  "name": "Kanda Sushi Bar",
                  "popularity": 0.978602857683573,
                  "price": 2,
                  "rating": 6.5
            },
            {
                  "distance": 776,
                  "location": {
                        "address": "2330 Lucerne Ch",
                        "address_extended": "Centre D&Apos;Achats Vmr",
                        "country": "CA",
                        "cross_street": "",
                        "formatted_address": "2330 Lucerne Ch, Mont-Royal QC H3R 2J8",
                        "locality": "Mont-Royal",
                        "postcode": "H3R 2J8",
                        "region": "QC"
                  },
                  "name": "Subway",
                  "popularity": 0.8710139099167298,
                  "price": 1,
                  "rating": 6.4,
                  "store_id": "48942"
            },
            {
                  "distance": 972,
                  "location": {
                        "address": "7385 Decarie Blvd",
                        "country": "CA",
                        "cross_street": "coin Jean-Talon",
                        "formatted_address": "7385 Decarie Blvd (coin Jean-Talon), Montreal QC H4P 2G8",
                        "locality": "Montreal",
                        "postcode": "H4P 2G8",
                        "region": "QC"
                  },
                  "name": "Dunn's Famous Decarie",
                  "popularity": 0.9800340651021953,
                  "price": 2,
                  "rating": 6.3
            },
            {
                  "distance": 639,
                  "location": {
                        "address": "7657 Decarie Blvd",
                        "country": "CA",
                        "cross_street": "",
                        "formatted_address": "7657 Decarie Blvd, Montr\u00e9al QC H4P 2H2",
                        "locality": "Montreal",
                        "postcode": "H4P 2H2",
                        "region": "QC"
                  },
                  "name": "Eggspectation",
                  "popularity": 0.9632144208932627,
                  "price": 1,
                  "rating": 6.2
            },
            {
                  "distance": 809,
                  "location": {
                        "address": "7475 Decarie Blvd",
                        "country": "CA",
                        "cross_street": "",
                        "formatted_address": "7475 Decarie Blvd, Montr\u00e9al QC H4P 2G9",
                        "locality": "Montreal",
                        "postcode": "H4P 2G9",
                        "region": "QC"
                  },
                  "name": "Harvey's",
                  "popularity": 0.9934235427706283,
                  "price": 2,
                  "rating": 6.1,
                  "store_id": "2346"
            },
            {
                  "distance": 764,
                  "location": {
                        "address": "7555 Decarie Blvd",
                        "country": "CA",
                        "cross_street": "",
                        "formatted_address": "7555 Decarie Blvd, Montreal QC H4P 2G9",
                        "locality": "Montreal",
                        "postcode": "H4P 2G9",
                        "region": "QC"
                  },
                  "name": "La Belle Province",
                  "popularity": 0.9688682816048448,
                  "price": 1,
                  "rating": 5.8
            },
            {
                  "distance": 831,
                  "location": {
                        "address": "10 Ste-Croix Ave",
                        "country": "CA",
                        "cross_street": "at Hwy 15/40",
                        "formatted_address": "10 Ste-Croix Ave (at Hwy 15/40), Saint-Laurent QC H4N 2K7",
                        "locality": "Saint-Laurent",
                        "postcode": "H4N 2K7",
                        "region": "QC"
                  },
                  "name": "Tim Hortons",
                  "popularity": 0.9914482399697199,
                  "price": 1,
                  "rating": 5.6
            },
            {
                  "distance": 726,
                  "location": {
                        "address": "7570 Decarie Blvd",
                        "country": "CA",
                        "formatted_address": "7570 Decarie Blvd, Montr\u00e9al QC H4P 2N1",
                        "locality": "Montreal",
                        "postcode": "H4P 2N1",
                        "region": "QC"
                  },
                  "name": "McDonald's",
                  "popularity": 0.9980010408781226,
                  "price": 1,
                  "rating": 5.4,
                  "store_id": "40220"
            },
            {
                  "distance": 389,
                  "location": {
                        "address": "7977 Decarie Blvd",
                        "country": "CA",
                        "cross_street": "",
                        "formatted_address": "7977 Decarie Blvd, Montr\u00e9al QC H4P 2H5",
                        "locality": "Montreal",
                        "postcode": "H4P 2H5",
                        "region": "QC"
                  },
                  "name": "Madisons Restaurant & Bar",
                  "popularity": 0.8736161052233157,
                  "price": 2
            },
            {
                  "distance": 432,
                  "location": {
                        "address": "7965 Decarie Blvd",
                        "country": "CA",
                        "cross_street": "",
                        "formatted_address": "7965 Decarie Blvd, Montr\u00e9al QC H4P 2H5",
                        "locality": "Montreal",
                        "postcode": "H4P 2H5",
                        "region": "QC"
                  },
                  "name": "Arahova",
                  "popularity": 0.9576551854655564,
                  "price": 2
            },
            {
                  "distance": 443,
                  "location": {
                        "address": "5345 Ferrier Rue",
                        "country": "CA",
                        "cross_street": "Decarie",
                        "formatted_address": "5345 Ferrier Rue (Decarie), Montr\u00e9al QC H4P 1M1",
                        "locality": "Montreal",
                        "postcode": "H4P 1M1",
                        "region": "QC"
                  },
                  "name": "Caf\u00e9 Jave U",
                  "popularity": 0.9117382664647994,
                  "price": 1
            },
            {
                  "distance": 480,
                  "location": {
                        "address": "5473 Royalmount Ave",
                        "country": "CA",
                        "cross_street": "",
                        "formatted_address": "5473 Royalmount Ave, Mont-Royal QC H4P 1J3",
                        "locality": "Mont-Royal",
                        "postcode": "H4P 1J3",
                        "region": "QC"
                  },
                  "name": "Cafe Royale",
                  "popularity": 0.28242098788796366,
                  "price": 2
            },
            {
                  "distance": 614,
                  "location": {
                        "address": "7657 Decarie Blvd",
                        "country": "CA",
                        "cross_street": "",
                        "formatted_address": "7657 Decarie Blvd, Montr\u00e9al QC H4P 2H2",
                        "locality": "Montreal",
                        "postcode": "H4P 2H2",
                        "region": "QC"
                  },
                  "name": "Kavos",
                  "popularity": 0.7135219530658592,
                  "price": 2
            },
            {
                  "distance": 620,
                  "location": {
                        "address": "7657 Decarie Blvd",
                        "country": "CA",
                        "cross_street": "Par\u00e9",
                        "formatted_address": "7657 Decarie Blvd (Par\u00e9), Montr\u00e9al QC H4P 2H2",
                        "locality": "Montreal",
                        "postcode": "H4P 2H2",
                        "region": "QC"
                  },
                  "name": "Otago",
                  "popularity": 0.5239638531415595,
                  "price": 2
            },
            {
                  "distance": 626,
                  "location": {
                        "address": "2358 Lucerne Ch",
                        "country": "CA",
                        "cross_street": "",
                        "formatted_address": "2358 Lucerne Ch, Mont-Royal QC H3R 0A2",
                        "locality": "Mont-Royal",
                        "postcode": "H3R 0A2",
                        "region": "QC"
                  },
                  "name": "Bacaro Pizzeria Lucerne TMR",
                  "popularity": 0.9463356358819076,
                  "price": 1
            },
            {
                  "distance": 701,
                  "location": {
                        "address": "5195 Par\u00e9",
                        "country": "CA",
                        "cross_street": "Mountain Sights",
                        "formatted_address": "5195 Par\u00e9 (Mountain Sights), Saint-Laurent QC",
                        "locality": "Saint-Laurent",
                        "region": "QC"
                  },
                  "name": "Restaurant Pushab",
                  "popularity": 0.9359386828160484,
                  "price": 2
            },
            {
                  "distance": 750,
                  "location": {
                        "address": "7507 Decarie Blvd",
                        "country": "CA",
                        "cross_street": "",
                        "formatted_address": "7507 Decarie Blvd, Montr\u00e9al QC H4P 2G9",
                        "locality": "Montreal",
                        "postcode": "H4P 2G9",
                        "region": "QC"
                  },
                  "name": "Sexe d'Or",
                  "popularity": 0.029002649507948525,
                  "price": 3
            },
            {
                  "distance": 774,
                  "location": {
                        "address": "7505 Decarie Blvd",
                        "country": "CA",
                        "formatted_address": "7505 Decarie Blvd, Montr\u00e9al QC H4P 2G9",
                        "locality": "Montreal",
                        "postcode": "H4P 2G9",
                        "region": "QC"
                  },
                  "name": "Pub Pare",
                  "popularity": 0.8311293527630583,
                  "price": 2
            },
            {
                  "distance": 786,
                  "location": {
                        "address": "2342 Lucerne Ch",
                        "country": "CA",
                        "cross_street": "",
                        "formatted_address": "2342 Lucerne Ch, Mont-Royal QC H3R 0A2",
                        "locality": "Mont-Royal",
                        "postcode": "H3R 0A2",
                        "region": "QC"
                  },
                  "name": "Sushi Shop",
                  "popularity": 0.9149791824375473,
                  "price": 2
            },
            {
                  "distance": 818,
                  "location": {
                        "address": "5405 des Jockeys Rue",
                        "address_extended": "Unit E2",
                        "country": "CA",
                        "cross_street": "",
                        "formatted_address": "5405 des Jockeys Rue, Montr\u00e9al QC H4P 2T7",
                        "locality": "Montreal",
                        "postcode": "H4P 2T7",
                        "region": "QC"
                  },
                  "name": "All\u00f4! Mon Coco",
                  "popularity": 0.9835233724451173,
                  "price": 1
            },
            {
                  "distance": 901,
                  "location": {
                        "address": "5485 des Jockeys Rue",
                        "country": "CA",
                        "cross_street": "",
                        "formatted_address": "5485 des Jockeys Rue, Montr\u00e9al QC H4P 2T7",
                        "locality": "Montreal",
                        "postcode": "H4P 2T7",
                        "region": "QC"
                  },
                  "name": "La Cage",
                  "popularity": 0.9657574753974262,
                  "price": 2
            },
            {
                  "distance": 909,
                  "location": {
                        "address": "5475 des Jockeys Rue",
                        "country": "CA",
                        "cross_street": "",
                        "formatted_address": "5475 des Jockeys Rue, Montr\u00e9al QC H4P 2T7",
                        "locality": "Montreal",
                        "postcode": "H4P 2T7",
                        "region": "QC"
                  },
                  "name": "Bomboloni Boss",
                  "popularity": 0.7915404996214989,
                  "price": 1
            }
      ],
      "context": {
            "geo_bounds": {
                  "circle": {
                        "center": {
                              "latitude": 45.50025176,
                              "longitude": -73.66171056
                        },
                        "radius": 1000
                  }
            }
      }
}