{
      "results": [
            {
                  "distance": 894,
                  "location": {
                        "address": "7032 Waverly Rue",
                        "country": "CA",
                        "cross_street": "",
                        "formatted_address": "7032 Waverly Rue, Montr\u00e9al QC H2S 3J2",
                        "locality": "Montreal",
                        "postcode": "H2S 3J2",
                        "region": "QC"
                  },
                  "name": "D\u00e9panneur le Pick Up",
                  "popularity": 0.9210233724451173,
                  "price": 1,
                  "rating": 9.0
            },
            {
                  "distance": 953,
                  "location": {
                        "address": "95 Jean-Talon Rue O",
                        "country": "CA",
                        "cross_street": "Saint-Urbain",
                        "formatted_address": "95 Jean-Talon Rue O (Saint-Urbain), Montr\u00e9al QC H2R 2W8",
                        "locality": "Montreal",
                        "postcode": "H2R 2W8",
                        "region": "QC"
                  },
                  "name": "Brasserie Harricana",
                  "popularity": 0.95985522331567,
                  "rating": 8.8
            },
            {
                  "distance": 310,
                  "location": {
                        "address": "756 Saint-Roch Rue",
                        "country": "CA",
                        "cross_street": "",
                        "formatted_address": "756 Saint-Roch Rue, Montr\u00e9al QC H3N 1L3",
                        "locality": "Montreal",
                        "postcode": "H3N 1L3",
                        "region": "QC"
                  },
                  "name": "Afroditi Bakery",
                  "popularity": 0.8546792202876609,
                  "price": 1,
                  "rating": 8.8
            },
            {
                  "distance": 261,
                  "location": {
                        "address": "1001 Jean-Talon Rue O",
                        "country": "CA",
                        "cross_street": "at Birnam",
                        "formatted_address": "1001 Jean-Talon Rue O (at Birnam), Montr\u00e9al QC H3N 1T2",
                        "locality": "Montreal",
                        "postcode": "H3N 1T2",
                        "region": "QC"
                  },
                  "name": "Restaurant Bombay Mahal",
                  "popularity": 0.9612864307342922,
                  "price": 2,
                  "rating": 8.6
            },
            {
                  "distance": 831,
                  "location": {
                        "address": "880 Jarry Rue O",
                        "country": "CA",
                        "cross_street": "Wiseman",
                        "formatted_address": "880 Jarry Rue O (Wiseman), Montr\u00e9al QC H3N 1G9",
                        "locality": "Montreal",
                        "postcode": "H3N 1G9",
                        "region": "QC"
                  },
                  "name": "Malhi Sweets Indian Cuisine",
                  "popularity": 0.9908686601059803,
                  "price": 2,
                  "rating": 8.5
            },
            {
                  "distance": 712,
                  "location": {
                        "address": "237 Jean-Talon Rue O",
                        "country": "CA",
                        "cross_street": "",
                        "formatted_address": "237 Jean-Talon Rue O, Montr\u00e9al QC H2R 2X6",
                        "locality": "Montreal",
                        "postcode": "H2R 2X6",
                        "region": "QC"
                  },
                  "name": "Salon Teashop Inc",
                  "popularity": 0.855519019682059,
                  "price": 2,
                  "rating": 8.2
            },
            {
                  "distance": 221,
                  "location": {
                        "address": "654 Jean-Talon Rue O",
                        "country": "CA",
                        "cross_street": "",
                        "formatted_address": "654 Jean-Talon Rue O, Montr\u00e9al QC H3N 1R7",
                        "locality": "Montreal",
                        "postcode": "H3N 1R7",
                        "region": "QC"
                  },
                  "name": "Restaurant Village Grecque Inc",
                  "popularity": 0.9827663701741105,
                  "price": 2,
                  "rating": 8.1
            },
            {
                  "distance": 256,
                  "location": {
                        "address": "996 Jean-Talon Rue O",
                        "country": "CA",
                        "cross_street": "Brinam",
                        "formatted_address": "996 Jean-Talon Rue O (Brinam), Montr\u00e9al QC H3N 1S8",
                        "locality": "Montreal",
                        "postcode": "H3N 1S8",
                        "region": "QC"
                  },
                  "name": "Indian Curry House",
                  "popularity": 0.9859244890234671,
                  "price": 1,
                  "rating": 8.1
            },
            {
                  "distance": 678,
                  "location": {
                        "address": "386 Beaumont Ave",
                        "country": "CA",
                        "cross_street": "",
                        "formatted_address": "386 Beaumont Ave, Montr\u00e9al QC H3N 1T4",
                        "locality": "Montreal",
                        "postcode": "H3N 1T4",
                        "region": "QC"
                  },
                  "name": "Denise",
                  "popularity": 0.9686553747161242,
                  "price": 2,
                  "rating": 7.9
            },
            {
                  "distance": 217,
                  "location": {
                        "address": "920 Jean-Talon Rue O",
                        "country": "CA",
                        "cross_street": "",
                        "formatted_address": "920 Jean-Talon Rue O, Montr\u00e9al QC H3N 1S6",
                        "locality": "Montreal",
                        "postcode": "H3N 1S6",
                        "region": "QC"
                  },
                  "name": "Punjab Palace",
                  "popularity": 0.9633563588190764,
                  "price": 2,
                  "rating": 7.8
            },
            {
                  "distance": 652,
                  "location": {
                        "address": "7335 Rue du Mile-End",
                        "country": "CA",
                        "cross_street": "Rue de Castelnau",
                        "formatted_address": "7335 Rue du Mile-End (Rue de Castelnau), Montr\u00e9al QC H2R 2Z7",
                        "locality": "Montreal",
                        "postcode": "H2R 2Z7",
                        "region": "QC"
                  },
                  "name": "Caf\u00e9 St-Henri HQ",
                  "popularity": 0.9647993943981832,
                  "price": 1,
                  "rating": 7.7
            },
            {
                  "distance": 866,
                  "location": {
                        "address": "550 Jarry Rue O",
                        "country": "CA",
                        "cross_street": "Qurbes",
                        "formatted_address": "550 Jarry Rue O (Qurbes), Montr\u00e9al QC H3N 1E9",
                        "locality": "Montreal",
                        "postcode": "H3N 1E9",
                        "region": "QC"
                  },
                  "name": "Restaurant Elatos Souvlaki",
                  "popularity": 0.9974569454958365,
                  "price": 2,
                  "rating": 7.6
            },
            {
                  "distance": 332,
                  "location": {
                        "address": "679 Saint-Roch Rue",
                        "country": "CA",
                        "cross_street": "Bloomfield",
                        "formatted_address": "679 Saint-Roch Rue (Bloomfield), Montr\u00e9al QC H3N 1L2",
                        "locality": "Montreal",
                        "postcode": "H3N 1L2",
                        "region": "QC"
                  },
                  "name": "Tripoli Restaurant",
                  "popularity": 0.860676097653293,
                  "price": 2,
                  "rating": 7.2
            },
            {
                  "distance": 404,
                  "location": {
                        "address": "414 Jean-Talon Rue O",
                        "country": "CA",
                        "cross_street": "",
                        "formatted_address": "414 Jean-Talon Rue O, Montr\u00e9al QC H3N 1R2",
                        "locality": "Montreal",
                        "postcode": "H3N 1R2",
                        "region": "QC"
                  },
                  "name": "Pizza Pizza",
                  "popularity": 0.8882120552611658,
                  "price": 1,
                  "rating": 7.0,
                  "store_id": "310"
            },
            {
                  "distance": 413,
                  "location": {
                        "address": "431 Jean-Talon Rue O",
                        "country": "CA",
                        "cross_street": "entre Hutchison & Durocher",
                        "formatted_address": "431 Jean-Talon Rue O (entre Hutchison & Durocher), Montr\u00e9al QC H3N 1P9",
                        "locality": "Montreal",
                        "postcode": "H3N 1P9",
                        "region": "QC"
                  },
                  "name": "Restaurant Lyla",
                  "popularity": 0.9708908970476912,
                  "price": 2,
                  "rating": 6.8
            },
            {
                  "distance": 830,
                  "location": {
                        "address": "790 Jarry Rue O",
                        "country": "CA",
                        "cross_street": "",
                        "formatted_address": "790 Jarry Rue O, Montr\u00e9al QC H3N 1G6",
                        "locality": "Montreal",
                        "postcode": "H3N 1G6",
                        "region": "QC"
                  },
                  "name": "Dera Restaurant",
                  "popularity": 0.8873840840272521,
                  "price": 2,
                  "rating": 5.3
            },
            {
                  "distance": 724,
                  "location": {
                        "address": "1300 Beaumont Ave",
                        "country": "CA",
                        "formatted_address": "1300 Beaumont Ave, Montr\u00e9al QC H3P 3E5",
                        "locality": "Montreal",
                        "postcode": "H3P 3E5",
                        "region": "QC"
                  },
                  "name": "McDonald's",
                  "popularity": 0.9923708364875095,
                  "price": 1,
                  "rating": 4.8,
                  "store_id": "5095"
            },
            {
                  "distance": 178,
                  "location": {
                        "address": "901 Jean-Talon Rue O",
                        "country": "CA",
                        "formatted_address": "901 Jean-Talon Rue O, Montr\u00e9al QC H3N 1S7",
                        "locality": "Montreal",
                        "postcode": "H3N 1S7",
                        "region": "QC"
                  },
                  "name": "Miss Jean Talon Restaurant",
                  "popularity": 0.8740300908402725,
                  "price": 2
            },
            {
                  "distance": 199,
                  "location": {
                        "address": "895 Jean-Talon Rue O",
                        "country": "CA",
                        "cross_street": "d'Outremont",
                        "formatted_address": "895 Jean-Talon Rue O (d'Outremont), Montr\u00e9al QC H3N 1S7",
                        "locality": "Montreal",
                        "postcode": "H3N 1S7",
                        "region": "QC"
                  },
                  "name": "Dosa Pointe",
                  "popularity": 0.9385645344436033
            },
            {
                  "distance": 218,
                  "location": {
                        "address": "931 Jean Talon Rue W",
                        "country": "CA",
                        "cross_street": "Stuart",
                        "formatted_address": "931 Jean Talon Rue W (Stuart), Montr\u00e9al QC H3N 1S9",
                        "locality": "Montreal",
                        "postcode": "H3N 1S9",
                        "region": "QC"
                  },
                  "name": "Cafe C Central",
                  "popularity": 0.20640140045420136,
                  "price": 1
            },
            {
                  "distance": 227,
                  "location": {
                        "address": "975 Jean-Talon Rue O",
                        "country": "CA",
                        "cross_street": "",
                        "formatted_address": "975 Jean-Talon Rue O, Montr\u00e9al QC H3N 1S9",
                        "locality": "Montreal",
                        "postcode": "H3N 1S9",
                        "region": "QC"
                  },
                  "name": "Punjab Sweet",
                  "popularity": 0.9590154239212718,
                  "price": 2
            },
            {
                  "distance": 261,
                  "location": {
                        "address": "520 Ogilvy Ave",
                        "country": "CA",
                        "cross_street": "",
                        "formatted_address": "520 Ogilvy Ave, Montr\u00e9al QC H3N 1M8",
                        "locality": "Montreal",
                        "postcode": "H3N 1M8",
                        "region": "QC"
                  },
                  "name": "Appayon",
                  "popularity": 0.6888247539742619,
                  "price": 2
            },
            {
                  "distance": 316,
                  "location": {
                        "address": "690 Saint-Roch Rue",
                        "country": "CA",
                        "cross_street": "Champagneur",
                        "formatted_address": "690 Saint-Roch Rue (Champagneur), Montr\u00e9al QC H3N 1L1",
                        "locality": "Montreal",
                        "postcode": "H3N 1L1",
                        "region": "QC"
                  },
                  "name": "CaffeNeo",
                  "popularity": 0.9985687925813778,
                  "price": 1
            },
            {
                  "distance": 406,
                  "location": {
                        "address": "650 Beaumont Ave",
                        "country": "CA",
                        "cross_street": "",
                        "formatted_address": "650 Beaumont Ave, Montr\u00e9al QC H3N 1V5",
                        "locality": "Montreal",
                        "postcode": "H3N 1V5",
                        "region": "QC"
                  },
                  "name": "Palmyra",
                  "popularity": 0.47532645722937167,
                  "price": 1
            },
            {
                  "distance": 423,
                  "location": {
                        "address": "7238 Hutchison Rue",
                        "country": "CA",
                        "cross_street": "",
                        "formatted_address": "7238 Hutchison Rue, Montr\u00e9al QC H3N 1Z1",
                        "locality": "Montreal",
                        "postcode": "H3N 1Z1",
                        "region": "QC"
                  },
                  "name": "Cafe Vesuvio",
                  "popularity": 0.9779404806964421,
                  "price": 1
            },
            {
                  "distance": 454,
                  "location": {
                        "address": "950 Beaumont Ave",
                        "address_extended": "Suite 105",
                        "country": "CA",
                        "cross_street": "L'Acadie Boulevard",
                        "formatted_address": "950 Beaumont Ave (L'Acadie Boulevard), Montr\u00e9al QC H3N 1V5",
                        "locality": "Montreal",
                        "postcode": "H3N 1V5",
                        "region": "QC"
                  },
                  "name": "Beau Mont",
                  "popularity": 0.9565433383800152,
                  "price": 3
            },
            {
                  "distance": 479,
                  "location": {
                        "address": "1100 Beaumont Ave",
                        "country": "CA",
                        "cross_street": "Acadie",
                        "formatted_address": "1100 Beaumont Ave (Acadie), Montr\u00e9al QC H3P 3H5",
                        "locality": "Montreal",
                        "postcode": "H3P 3H5",
                        "region": "QC"
                  },
                  "name": "Cartier Caf\u00e9 BIstro",
                  "popularity": 0.9433076267978804,
                  "price": 1
            },
            {
                  "distance": 620,
                  "location": {
                        "address": "7000 Ave du Parc",
                        "address_extended": "# 104",
                        "country": "CA",
                        "cross_street": "",
                        "formatted_address": "7000 Ave du Parc, Montr\u00e9al QC H3N 1X1",
                        "locality": "Montreal",
                        "postcode": "H3N 1X1",
                        "region": "QC"
                  },
                  "name": "Restaurant Dark Blue",
                  "popularity": 0.09487367524602573,
                  "price": 2
            },
            {
                  "distance": 690,
                  "location": {
                        "address": "250 Graham Blvd",
                        "country": "CA",
                        "cross_street": "",
                        "formatted_address": "250 Graham Blvd, Mont-Royal QC H3P 2C5",
                        "locality": "Mont-Royal",
                        "postcode": "H3P 2C5",
                        "region": "QC"
                  },
                  "name": "Domino's Pizza",
                  "popularity": 0.9223954390613172,
                  "price": 1,
                  "store_id": "10650"
            },
            {
                  "distance": 835,
                  "location": {
                        "address": "950 Jarry Rue O",
                        "country": "CA",
                        "cross_street": "Stuart",
                        "formatted_address": "950 Jarry Rue O (Stuart), Montr\u00e9al QC H3N 1H2",
                        "locality": "Montreal",
                        "postcode": "H3N 1H2",
                        "region": "QC"
                  },
                  "name": "Bar Caf\u00e9 Loutraki",
                  "popularity": 0.983736279333838
            },
            {
                  "distance": 874,
                  "location": {
                        "address": "149 Jean-Talon Rue O",
                        "country": "CA",
                        "cross_street": "",
                        "formatted_address": "149 Jean-Talon Rue O, Montr\u00e9al QC H2R 2W9",
                        "locality": "Montreal",
                        "postcode": "H2R 2W9",
                        "region": "QC"
                  },
                  "name": "Restaurant Mui Mui",
                  "popularity": 0.8902938115064345,
                  "price": 2
            },
            {
                  "distance": 154,
                  "location": {
                        "address": "991 Ogilvy Ave",
                        "country": "CA",
                        "formatted_address": "991 Ogilvy Ave, Montreal QC H3N 1P3",
                        "locality": "Montreal",
                        "postcode": "H3N 1P3",
                        "region": "QC"
                  },
                  "name": "Taverne Portara"
            },
            {
                  "distance": 193,
                  "location": {
                        "address": "762 Jean-Talon Rue O",
                        "country": "CA",
                        "formatted_address": "762 Jean-Talon Rue O, Montreal QC H3N 1S2",
                        "locality": "Montreal",
                        "postcode": "H3N 1S2",
                        "region": "QC"
                  },
                  "name": "Restaurant Salateen"
            },
            {
                  "distance": 293,
                  "location": {
                        "address": "1016 Jean-Talon Rue O",
                        "country": "CA",
                        "formatted_address": "1016 Jean-Talon Rue O, Montreal QC H3N 1T1",
                        "locality": "Montreal",
                        "postcode": "H3N 1T1",
                        "region": "QC"
                  },
                  "name": "Ram Sweet Shop"
            },
            {
                  "distance": 359,
                  "location": {
                        "address": "461 Jean-Talon Rue O",
                        "country": "CA",
                        "formatted_address": "461 Jean-Talon Rue O, Montreal QC H3N 1R4",
                        "locality": "Montreal",
                        "postcode": "H3N 1R4",
                        "region": "QC"
                  },
                  "name": "Harvey's"
            }
      ],
      "context": {
            "geo_bounds": {
                  "circle": {
                        "center": {
                              "latitude": 45.52687028,
                              "longitude": -73.62672329
                        },
                        "radius": 1000
                  }
            }
      }
}