{
      "results": [
            {
                  "distance": 393,
                  "location": {
                        "address": "3180 Fleury Rue E",
                        "country": "CA",
                        "cross_street": "at boul Saint-Michel",
                        "formatted_address": "3180 Fleury Rue E (at boul Saint-Michel), Montr\u00e9al QC H1H 2R3",
                        "locality": "Montreal",
                        "postcode": "H1H 2R3",
                        "region": "QC"
                  },
                  "name": "Chez Ma Tante",
                  "popularity": 0.9907976911430735,
                  "price": 1,
                  "rating": 6.8
            },
            {
                  "distance": 56,
                  "location": {
                        "address": "2595 Fleury Rue E",
                        "country": "CA",
                        "cross_street": "Sackville",
                        "formatted_address": "2595 Fleury Rue E (Sackville), Montr\u00e9al QC H2B 1L7",
                        "locality": "Montreal",
                        "postcode": "H2B 1L7",
                        "region": "QC"
                  },
                  "name": "Domino's Pizza",
                  "popularity": 0.9432130015140046,
                  "price": 1,
                  "store_id": "10699"
            },
            {
                  "distance": 151,
                  "location": {
                        "address": "2481 Fleury Rue E",
                        "country": "CA",
                        "cross_street": "Iberville",
                        "formatted_address": "2481 Fleury Rue E (Iberville), Montr\u00e9al QC H2B 1L4",
                        "locality": "Montreal",
                        "postcode": "H2B 1L4",
                        "region": "QC"
                  },
                  "name": "Gourmet d'Asie",
                  "popularity": 0.8302067562452687,
                  "price": 2
            },
            {
                  "distance": 552,
                  "location": {
                        "address": "3322 Fleury Rue E",
                        "country": "CA",
                        "cross_street": "",
                        "formatted_address": "3322 Fleury Rue E, Montreal-Nord QC H1H 2R5",
                        "locality": "Montreal-Nord",
                        "postcode": "H1H 2R5",
                        "region": "QC"
                  },
                  "name": "Boulangerie P\u00e2tisserie Montebello Inc",
                  "popularity": 0.26783686601059803,
                  "price": 1
            },
            {
                  "distance": 692,
                  "location": {
                        "address": "2070A Fleury Rue E",
                        "country": "CA",
                        "cross_street": "",
                        "formatted_address": "2070A Fleury Rue E, Montr\u00e9al QC H2B 1J3",
                        "locality": "Montreal",
                        "postcode": "H2B 1J3",
                        "region": "QC"
                  },
                  "name": "Bar Brewskis",
                  "popularity": 0.8230980317940954,
                  "price": 1
            },
            {
                  "distance": 721,
                  "location": {
                        "address": "2070 Fleury E",
                        "country": "CA",
                        "cross_street": "",
                        "formatted_address": "2070 Fleury E, Montr\u00e9al QC",
                        "locality": "Montreal",
                        "region": "QC"
                  },
                  "name": "Bar Laitier",
                  "popularity": 0.02467354277062831,
                  "price": 1
            },
            {
                  "distance": 723,
                  "location": {
                        "address": "2050 Fleury Rue E",
                        "country": "CA",
                        "cross_street": "",
                        "formatted_address": "2050 Fleury Rue E, Montr\u00e9al QC H2B 1J3",
                        "locality": "Montreal",
                        "postcode": "H2B 1J3",
                        "region": "QC"
                  },
                  "name": "Restaurant la Piccola",
                  "popularity": 0.9443485049205148,
                  "price": 2
            },
            {
                  "distance": 937,
                  "location": {
                        "address": "2145 Gouin Blvd E",
                        "country": "CA",
                        "cross_street": "",
                        "formatted_address": "2145 Gouin Blvd E, Montr\u00e9al QC H2B 1X1",
                        "locality": "Montreal",
                        "postcode": "H2B 1X1",
                        "region": "QC"
                  },
                  "name": "Le Pressoir du Sault",
                  "popularity": 0.12643120741862227,
                  "price": 1
            },
            {
                  "distance": 949,
                  "location": {
                        "address": "6491 Beaubien Rue E",
                        "country": "CA",
                        "cross_street": "",
                        "formatted_address": "6491 Beaubien Rue E, Montr\u00e9al QC H1M 1B1",
                        "locality": "Montreal",
                        "postcode": "H1M 1B1",
                        "region": "QC"
                  },
                  "name": "Le Nouveau Paragon",
                  "popularity": 0.3875023656320969,
                  "price": 2
            },
            {
                  "distance": 955,
                  "location": {
                        "address": "2103 Gouin Blvd E",
                        "country": "CA",
                        "cross_street": "",
                        "formatted_address": "2103 Gouin Blvd E, Montr\u00e9al QC H2B 1X1",
                        "locality": "Montreal",
                        "postcode": "H2B 1X1",
                        "region": "QC"
                  },
                  "name": "Racer Caf\u00e9",
                  "popularity": 0.9679693414080243,
                  "price": 1
            },
            {
                  "distance": 150,
                  "location": {
                        "address": "2476 Fleury Rue E",
                        "country": "CA",
                        "formatted_address": "2476 Fleury Rue E, Montreal QC H2B 1L3",
                        "locality": "Montreal",
                        "postcode": "H2B 1L3",
                        "region": "QC"
                  },
                  "name": "Pizza Resto Charito"
            },
            {
                  "distance": 317,
                  "location": {
                        "address": "2895 Fleury Rue E",
                        "country": "CA",
                        "formatted_address": "2895 Fleury Rue E, Montreal QC H2B 1M1",
                        "locality": "Montreal",
                        "postcode": "H2B 1M1",
                        "region": "QC"
                  },
                  "name": "Trattoria Ii Ritrovo"
            },
            {
                  "distance": 317,
                  "location": {
                        "address": "2895 Fleury Rue E",
                        "country": "CA",
                        "formatted_address": "2895 Fleury Rue E, Montreal QC H2B 1M1",
                        "locality": "Montreal",
                        "postcode": "H2B 1M1",
                        "region": "QC"
                  },
                  "name": "Romcaffe Trattoria Gt"
            },
            {
                  "distance": 347,
                  "location": {
                        "address": "2905 Fleury Rue E",
                        "country": "CA",
                        "formatted_address": "2905 Fleury Rue E, Montreal QC H2B 1M3",
                        "locality": "Montreal",
                        "postcode": "H2B 1M3",
                        "region": "QC"
                  },
                  "name": "Maison du Cafe Terrasse Royal"
            },
            {
                  "distance": 382,
                  "location": {
                        "address": "2260 Fleury Rue E",
                        "country": "CA",
                        "formatted_address": "2260 Fleury Rue E, Montreal QC H2B 1K6",
                        "locality": "Montreal",
                        "postcode": "H2B 1K6",
                        "region": "QC"
                  },
                  "name": "Resto-Pizzeria DZ Taouk"
            },
            {
                  "distance": 393,
                  "location": {
                        "address": "2260 Fleury Rue E",
                        "country": "CA",
                        "formatted_address": "2260 Fleury Rue E, Montreal QC H2B 1K6",
                        "locality": "Montreal",
                        "postcode": "H2B 1K6",
                        "region": "QC"
                  },
                  "name": "Resto Bistro l'Antidote"
            },
            {
                  "distance": 428,
                  "location": {
                        "address": "3163 Fleury Rue E",
                        "country": "CA",
                        "formatted_address": "3163 Fleury Rue E, Montreal-Nord QC H1H 2R2",
                        "locality": "Montreal-Nord",
                        "postcode": "H1H 2R2",
                        "region": "QC"
                  },
                  "name": "Brasserie Chomar Lt\u00e9e"
            },
            {
                  "distance": 432,
                  "location": {
                        "address": "3155 Fleury Rue E",
                        "country": "CA",
                        "formatted_address": "3155 Fleury Rue E, Montreal-Nord QC H1H 2R2",
                        "locality": "Montreal-Nord",
                        "postcode": "H1H 2R2",
                        "region": "QC"
                  },
                  "name": "L'oudaya Cafe Restaurant"
            },
            {
                  "distance": 448,
                  "location": {
                        "address": "10380 Saint-Michel Blvd",
                        "country": "CA",
                        "formatted_address": "10380 Saint-Michel Blvd, Montreal-Nord QC H1H 5H3",
                        "locality": "Montreal-Nord",
                        "postcode": "H1H 5H3",
                        "region": "QC"
                  },
                  "name": "Restorant Costa Berde Inc"
            },
            {
                  "distance": 543,
                  "location": {
                        "address": "2179 Fleury Rue E",
                        "country": "CA",
                        "formatted_address": "2179 Fleury Rue E, Montreal QC H2B 1J9",
                        "locality": "Montreal",
                        "postcode": "H2B 1J9",
                        "region": "QC"
                  },
                  "name": "Resto-Bar Gelbison"
            },
            {
                  "distance": 585,
                  "location": {
                        "address": "2545 Henri-Bourassa Blvd E",
                        "country": "CA",
                        "formatted_address": "2545 Henri-Bourassa Blvd E, Montreal QC H2B 1V3",
                        "locality": "Montreal",
                        "postcode": "H2B 1V3",
                        "region": "QC"
                  },
                  "name": "Saveur Madou"
            },
            {
                  "distance": 586,
                  "location": {
                        "address": "2430 Sauve Rue E",
                        "country": "CA",
                        "formatted_address": "2430 Sauve Rue E, Montreal QC H2B 1B7",
                        "locality": "Montreal",
                        "postcode": "H2B 1B7",
                        "region": "QC"
                  },
                  "name": "Cremerie Douceur d Ete"
            },
            {
                  "distance": 667,
                  "location": {
                        "address": "2827 Henri-Bourassa Blvd E",
                        "country": "CA",
                        "formatted_address": "2827 Henri-Bourassa Blvd E, Montreal QC H2B 1V9",
                        "locality": "Montreal",
                        "postcode": "H2B 1V9",
                        "region": "QC"
                  },
                  "name": "Cafe Versace"
            },
            {
                  "distance": 716,
                  "location": {
                        "address": "3451 Fleury Rue E",
                        "country": "CA",
                        "formatted_address": "3451 Fleury Rue E, Montreal-Nord QC H1H 5R2",
                        "locality": "Montreal-Nord",
                        "postcode": "H1H 5R2",
                        "region": "QC"
                  },
                  "name": "Rolando Resto Bar Sportif"
            },
            {
                  "distance": 716,
                  "location": {
                        "address": "3451 Fleury Rue E",
                        "country": "CA",
                        "formatted_address": "3451 Fleury Rue E, Montreal-Nord QC H1H 5R2",
                        "locality": "Montreal-Nord",
                        "postcode": "H1H 5R2",
                        "region": "QC"
                  },
                  "name": "B Burger"
            },
            {
                  "distance": 822,
                  "location": {
                        "address": "2347 Charland Ave",
                        "country": "CA",
                        "formatted_address": "2347 Charland Ave, Montreal QC H1Z 1B8",
                        "locality": "Montreal",
                        "postcode": "H1Z 1B8",
                        "region": "QC"
                  },
                  "name": "Cafe Bistro Charland"
            },
            {
                  "distance": 825,
                  "location": {
                        "address": "2347 Charland Ave",
                        "country": "CA",
                        "formatted_address": "2347 Charland Ave, Montreal QC H1Z 1B8",
                        "locality": "Montreal",
                        "postcode": "H1Z 1B8",
                        "region": "QC"
                  },
                  "name": "Cafe Bistro"
            },
            {
                  "distance": 830,
                  "location": {
                        "address": "2347 Charland Ave",
                        "country": "CA",
                        "formatted_address": "2347 Charland Ave, Montreal QC H1Z 1B8",
                        "locality": "Montreal",
                        "postcode": "H1Z 1B8",
                        "region": "QC"
                  },
                  "name": "Restaurant Cafe Bistro"
            },
            {
                  "distance": 861,
                  "location": {
                        "address": "2330 Charland Ave",
                        "country": "CA",
                        "formatted_address": "2330 Charland Ave, Montreal QC H1Z 1B7",
                        "locality": "Montreal",
                        "postcode": "H1Z 1B7",
                        "region": "QC"
                  },
                  "name": "Restaurant Chez Ti-Blanc"
            },
            {
                  "distance": 862,
                  "location": {
                        "address": "2275 Charland Ave",
                        "country": "CA",
                        "formatted_address": "2275 Charland Ave, Montreal QC H1Z 1B5",
                        "locality": "Montreal",
                        "postcode": "H1Z 1B5",
                        "region": "QC"
                  },
                  "name": "Boulangerie et Patisserie Romina"
            },
            {
                  "distance": 884,
                  "location": {
                        "address": "9482 Saint-Michel Blvd",
                        "country": "CA",
                        "formatted_address": "9482 Saint-Michel Blvd, Montreal QC",
                        "locality": "Montreal",
                        "region": "QC"
                  },
                  "name": "GrillnGo"
            },
            {
                  "distance": 959,
                  "location": {
                        "address": "3251 Henri-Bourassa Blvd E",
                        "country": "CA",
                        "formatted_address": "3251 Henri-Bourassa Blvd E, Montreal-Nord QC H1H 1H3",
                        "locality": "Montreal-Nord",
                        "postcode": "H1H 1H3",
                        "region": "QC"
                  },
                  "name": "Nouveau Paragon II"
            },
            {
                  "distance": 984,
                  "location": {
                        "address": "3656 Fleury Rue E",
                        "country": "CA",
                        "formatted_address": "3656 Fleury Rue E, Montreal-Nord QC H1H 2S6",
                        "locality": "Montreal-Nord",
                        "postcode": "H1H 2S6",
                        "region": "QC"
                  },
                  "name": "Cicek P\u00e2tisserie"
            }
      ],
      "context": {
            "geo_bounds": {
                  "circle": {
                        "center": {
                              "latitude": 45.57629487,
                              "longitude": -73.64675939
                        },
                        "radius": 1000
                  }
            }
      }
}