{
      "results": [
            {
                  "distance": 183,
                  "location": {
                        "address": "7790 Sherbrooke Rue E",
                        "country": "CA",
                        "cross_street": "coin Lepailleur",
                        "formatted_address": "7790 Sherbrooke Rue E (coin Lepailleur), Montr\u00e9al QC H1L 1A5",
                        "locality": "Montreal",
                        "postcode": "H1L 1A5",
                        "region": "QC"
                  },
                  "name": "Bar Sushi Nippori",
                  "popularity": 0.976047975018925,
                  "price": 2,
                  "rating": 7.6
            },
            {
                  "distance": 876,
                  "location": {
                        "address": "8670 Sherbrooke Rue E",
                        "country": "CA",
                        "cross_street": "",
                        "formatted_address": "8670 Sherbrooke Rue E, Montr\u00e9al QC H1L 1B9",
                        "locality": "Montreal",
                        "postcode": "H1L 1B9",
                        "region": "QC"
                  },
                  "name": "Le Grill Barroso",
                  "popularity": 0.8786194171082513,
                  "price": 2,
                  "rating": 7.4
            },
            {
                  "distance": 817,
                  "location": {
                        "address": "7275 Sherbrooke Rue E",
                        "address_extended": "Floor 2",
                        "country": "CA",
                        "formatted_address": "7275 Sherbrooke Rue E, Montr\u00e9al QC H1N 1E9",
                        "locality": "Montreal",
                        "postcode": "H1N 1E9",
                        "region": "QC"
                  },
                  "name": "La Cage",
                  "popularity": 0.9927375094625284,
                  "price": 2,
                  "rating": 7.2,
                  "store_id": "LC_35"
            },
            {
                  "distance": 777,
                  "location": {
                        "address": "7275 Sherbrooke St E",
                        "address_extended": "Suite 193",
                        "country": "CA",
                        "cross_street": "",
                        "formatted_address": "7275 Sherbrooke St E, Montr\u00e9al QC H1N 1E9",
                        "locality": "Montreal",
                        "postcode": "H1N 1E9",
                        "region": "QC"
                  },
                  "name": "Second Cup CAF\u00c9 & Cie avec Pinkberry yogourt glac\u00e9",
                  "popularity": 0.9631552800908403,
                  "price": 1,
                  "rating": 6.7
            },
            {
                  "distance": 187,
                  "location": {
                        "address": "7780 Sherbrooke Rue E",
                        "address_extended": "Couche-Tard C-Store",
                        "country": "CA",
                        "cross_street": "coin Lepailleur",
                        "formatted_address": "7780 Sherbrooke Rue E (coin Lepailleur), Montr\u00e9al QC H1L 1A5",
                        "locality": "Montreal",
                        "postcode": "H1L 1A5",
                        "region": "QC"
                  },
                  "name": "Subway",
                  "popularity": 0.8829958364875095,
                  "price": 1,
                  "rating": 6.6,
                  "store_id": "23356"
            },
            {
                  "distance": 930,
                  "location": {
                        "address": "5272 Sherbrooke Rue O",
                        "country": "CA",
                        "cross_street": "",
                        "formatted_address": "5272 Sherbrooke Rue O, Montr\u00e9al QC H4A 1T9",
                        "locality": "Montreal",
                        "postcode": "H4A 1T9",
                        "region": "QC"
                  },
                  "name": "KFC",
                  "popularity": 0.9679929977289932,
                  "price": 1,
                  "rating": 6.4
            },
            {
                  "distance": 834,
                  "location": {
                        "address": "7275 Sherbrooke Rue E",
                        "address_extended": "Place Versailles",
                        "country": "CA",
                        "cross_street": "D\u00e9carie",
                        "formatted_address": "7275 Sherbrooke Rue E (D\u00e9carie), Montr\u00e9al QC H1N 1E9",
                        "locality": "Montreal",
                        "postcode": "H1N 1E9",
                        "region": "QC"
                  },
                  "name": "Thai Express",
                  "popularity": 0.93111279333838,
                  "price": 2,
                  "rating": 6.3,
                  "store_id": "85"
            },
            {
                  "distance": 128,
                  "location": {
                        "address": "7870 Sherbrooke Rue E",
                        "country": "CA",
                        "cross_street": "",
                        "formatted_address": "7870 Sherbrooke Rue E, Montr\u00e9al QC H1L 1A5",
                        "locality": "Montreal",
                        "postcode": "H1L 1A5",
                        "region": "QC"
                  },
                  "name": "St-Hubert Express",
                  "popularity": 0.8380724829674489,
                  "price": 2,
                  "rating": 5.9,
                  "store_id": "100163"
            },
            {
                  "distance": 751,
                  "location": {
                        "address": "7275 Sherbrooke Rue E",
                        "address_extended": "Floor 1",
                        "country": "CA",
                        "cross_street": "coin Du Trianon",
                        "formatted_address": "7275 Sherbrooke Rue E (coin Du Trianon), Montr\u00e9al QC H1N 1E9",
                        "locality": "Montreal",
                        "postcode": "H1N 1E9",
                        "region": "QC"
                  },
                  "name": "Nickels",
                  "popularity": 0.9797265329295988,
                  "price": 2,
                  "rating": 5.1
            },
            {
                  "distance": 851,
                  "location": {
                        "address": "7275 Sherbrooke Rue E",
                        "address_extended": "Local 102",
                        "country": "CA",
                        "formatted_address": "7275 Sherbrooke Rue E, Montr\u00e9al QC H1N 1E9",
                        "locality": "Montreal",
                        "postcode": "H1N 1E9",
                        "region": "QC"
                  },
                  "name": "McDonald's",
                  "popularity": 0.9785555450416351,
                  "price": 1,
                  "rating": 4.9
            },
            {
                  "distance": 48,
                  "location": {
                        "address": "7950 Sherbrooke Rue E",
                        "country": "CA",
                        "cross_street": "\u00c0 l'int\u00e9rieur du m\u00e9tro Honor\u00e9-Beaugrand",
                        "formatted_address": "7950 Sherbrooke Rue E (\u00c0 l'int\u00e9rieur du m\u00e9tro Honor\u00e9-Beaugrand), Montr\u00e9al QC",
                        "locality": "Montreal",
                        "region": "QC"
                  },
                  "name": "Caf\u00e9 William Spartivento",
                  "popularity": 0.46740158970476914,
                  "price": 1
            },
            {
                  "distance": 201,
                  "location": {
                        "address": "7880 Sherbrooke Rue E",
                        "country": "CA",
                        "cross_street": "",
                        "formatted_address": "7880 Sherbrooke Rue E, Montreal QC H1L 1A5",
                        "locality": "Montreal",
                        "postcode": "H1L 1A5",
                        "region": "QC"
                  },
                  "name": "Brasserie Champlain",
                  "popularity": 0.9256600113550341,
                  "price": 1
            },
            {
                  "distance": 743,
                  "location": {
                        "address": "7275 Sherbrooke Rue E",
                        "address_extended": "# 61",
                        "country": "CA",
                        "cross_street": "",
                        "formatted_address": "7275 Sherbrooke Rue E, Montr\u00e9al QC H1N 1E9",
                        "locality": "Montreal",
                        "postcode": "H1N 1E9",
                        "region": "QC"
                  },
                  "name": "Caf\u00e9 \u00c0 Rome",
                  "popularity": 0.8820377554882665,
                  "price": 1
            },
            {
                  "distance": 777,
                  "location": {
                        "address": "7275 Sherbrooke St E",
                        "address_extended": "Suite 193",
                        "country": "CA",
                        "cross_street": "",
                        "formatted_address": "7275 Sherbrooke St E, Montr\u00e9al QC H1N 1E9",
                        "locality": "Montreal",
                        "postcode": "H1N 1E9",
                        "region": "QC"
                  },
                  "name": "Second Cup CAF\u00c9 & Cie avec Pinkberry yogourt glac\u00e9",
                  "popularity": 0.15511449659348978,
                  "price": 1
            },
            {
                  "distance": 793,
                  "location": {
                        "address": "7275 Sherbrooke Rue E",
                        "country": "CA",
                        "cross_street": "",
                        "formatted_address": "7275 Sherbrooke Rue E, Montreal QC H1N 1E9",
                        "locality": "Montreal",
                        "postcode": "H1N 1E9",
                        "region": "QC"
                  },
                  "name": "Bistro l'Escale Gourmande",
                  "popularity": 0.3021030469341408,
                  "price": 3
            },
            {
                  "distance": 802,
                  "location": {
                        "address": "7275 Sherbrooke Rue E",
                        "address_extended": "Floor 1",
                        "country": "CA",
                        "cross_street": "",
                        "formatted_address": "7275 Sherbrooke Rue E, Montr\u00e9al QC H1N 1E9",
                        "locality": "Montreal",
                        "postcode": "H1N 1E9",
                        "region": "QC"
                  },
                  "name": "Popino",
                  "popularity": 0.6265258327024981
            },
            {
                  "distance": 817,
                  "location": {
                        "address": "8604 Sherbrooke Rue E",
                        "country": "CA",
                        "cross_street": "",
                        "formatted_address": "8604 Sherbrooke Rue E, Montr\u00e9al QC H1L 1B7",
                        "locality": "Montreal",
                        "postcode": "H1L 1B7",
                        "region": "QC"
                  },
                  "name": "Pizza Hut",
                  "popularity": 0.9349096328538986,
                  "price": 1,
                  "store_id": "R47401"
            },
            {
                  "distance": 834,
                  "location": {
                        "address": "7275 Sherbrooke Rue E",
                        "address_extended": "Place Versailles",
                        "country": "CA",
                        "cross_street": "",
                        "formatted_address": "7275 Sherbrooke Rue E, Montr\u00e9al QC H1N 1E9",
                        "locality": "Montreal",
                        "postcode": "H1N 1E9",
                        "region": "QC"
                  },
                  "name": "Cultures",
                  "popularity": 0.6800364307342922,
                  "price": 2
            },
            {
                  "distance": 834,
                  "location": {
                        "address": "7275 Sherbrooke Rue E",
                        "address_extended": "Place Versailles",
                        "country": "CA",
                        "cross_street": "",
                        "formatted_address": "7275 Sherbrooke Rue E, Montr\u00e9al QC H1N 1E9",
                        "locality": "Montreal",
                        "postcode": "H1N 1E9",
                        "region": "QC"
                  },
                  "name": "Sushi Shop",
                  "popularity": 0.9367903103709311,
                  "price": 2
            },
            {
                  "distance": 834,
                  "location": {
                        "address": "8655 Sherbrooke Rue E",
                        "country": "CA",
                        "cross_street": "",
                        "formatted_address": "8655 Sherbrooke Rue E, Montr\u00e9al QC H1L 1B8",
                        "locality": "Montreal",
                        "postcode": "H1L 1B8",
                        "region": "QC"
                  },
                  "name": "Broadway Pizzeria",
                  "popularity": 0.8714278955336866,
                  "price": 1
            },
            {
                  "distance": 834,
                  "location": {
                        "address": "7275 Sherbrooke Rue E",
                        "address_extended": "Place Versailles",
                        "country": "CA",
                        "cross_street": "du Trianon",
                        "formatted_address": "7275 Sherbrooke Rue E (du Trianon), Montr\u00e9al QC H1N 1E9",
                        "locality": "Montreal",
                        "postcode": "H1N 1E9",
                        "region": "QC"
                  },
                  "name": "Villa Madina",
                  "popularity": 0.9271148750946253,
                  "price": 2
            },
            {
                  "distance": 837,
                  "location": {
                        "address": "7275 Sherbrooke Rue E",
                        "address_extended": "# 33",
                        "country": "CA",
                        "cross_street": "",
                        "formatted_address": "7275 Sherbrooke Rue E, Montreal QC H1N 1E9",
                        "locality": "Montreal",
                        "postcode": "H1N 1E9",
                        "region": "QC"
                  },
                  "name": "Mr Pretzels",
                  "popularity": 0.6808762301286904,
                  "price": 1
            },
            {
                  "distance": 848,
                  "location": {
                        "address": "8660 Sherbrooke Rue E",
                        "country": "CA",
                        "formatted_address": "8660 Sherbrooke Rue E, Montr\u00e9al QC H1L 1B7",
                        "locality": "Montreal",
                        "postcode": "H1L 1B7",
                        "region": "QC"
                  },
                  "name": "Restaurant la Belle Province",
                  "popularity": 0.9033047880393641,
                  "price": 1
            },
            {
                  "distance": 852,
                  "location": {
                        "address": "8604 Sherbrooke Rue E",
                        "country": "CA",
                        "cross_street": "",
                        "formatted_address": "8604 Sherbrooke Rue E, Montr\u00e9al QC",
                        "locality": "Montreal",
                        "region": "QC"
                  },
                  "name": "Double Pizza",
                  "popularity": 0.826528198334595,
                  "price": 1
            },
            {
                  "distance": 857,
                  "location": {
                        "address": "7275 Sherbrooke Rue E",
                        "address_extended": "# 3",
                        "country": "CA",
                        "cross_street": "Place Versailles",
                        "formatted_address": "7275 Sherbrooke Rue E (Place Versailles), Montr\u00e9al QC H1N 1E9",
                        "locality": "Montreal",
                        "postcode": "H1N 1E9",
                        "region": "QC"
                  },
                  "name": "Dunkin'",
                  "popularity": 0.9015305639666918,
                  "price": 1,
                  "store_id": "308285"
            },
            {
                  "distance": 973,
                  "location": {
                        "address": "7737 Hochelaga Rue",
                        "country": "CA",
                        "cross_street": "",
                        "formatted_address": "7737 Hochelaga Rue, Montr\u00e9al QC H1L 2K4",
                        "locality": "Montreal",
                        "postcode": "H1L 2K4",
                        "region": "QC"
                  },
                  "name": "Belle Pros",
                  "popularity": 0.948653955336866,
                  "price": 1
            },
            {
                  "distance": 517,
                  "location": {
                        "address": "5020 Saint-Donat Rue",
                        "country": "CA",
                        "formatted_address": "5020 Saint-Donat Rue, Montreal QC H1K 3N8",
                        "locality": "Montreal",
                        "postcode": "H1K 3N8",
                        "region": "QC"
                  },
                  "name": "Lakay"
            },
            {
                  "distance": 666,
                  "location": {
                        "address": "7275 Sherbrooke Rue E",
                        "address_extended": "# 2226",
                        "country": "CA",
                        "formatted_address": "7275 Sherbrooke Rue E, Montreal QC H1N 1E9",
                        "locality": "Montreal",
                        "postcode": "H1N 1E9",
                        "region": "QC"
                  },
                  "name": "Cafe Creperie"
            },
            {
                  "distance": 671,
                  "location": {
                        "address": "7275 Sherbrooke Rue E",
                        "address_extended": "# 7",
                        "country": "CA",
                        "formatted_address": "7275 Sherbrooke Rue E, Montreal QC H1N 1E9",
                        "locality": "Montreal",
                        "postcode": "H1N 1E9",
                        "region": "QC"
                  },
                  "name": "Baskin-Robbins"
            },
            {
                  "distance": 694,
                  "location": {
                        "address": "7275 Sherbrooke Rue E",
                        "country": "CA",
                        "formatted_address": "7275 Sherbrooke Rue E, Montreal QC H1N 1E9",
                        "locality": "Montreal",
                        "postcode": "H1N 1E9",
                        "region": "QC"
                  },
                  "name": "Jus Jugo Juice"
            },
            {
                  "distance": 746,
                  "location": {
                        "address": "7275 Sherbrooke Rue E",
                        "country": "CA",
                        "formatted_address": "7275 Sherbrooke Rue E, Montreal QC",
                        "locality": "Montreal",
                        "region": "QC"
                  },
                  "name": "Nickels Restaurants-Place Versaille"
            },
            {
                  "distance": 749,
                  "location": {
                        "address": "7275 Sherbrooke Rue E",
                        "address_extended": "Floor 1",
                        "country": "CA",
                        "formatted_address": "7275 Sherbrooke Rue E, Montreal QC H1N 1E9",
                        "locality": "Montreal",
                        "postcode": "H1N 1E9",
                        "region": "QC"
                  },
                  "name": "Josephine la poutine"
            },
            {
                  "distance": 756,
                  "location": {
                        "address": "7275 Sherbrooke Rue E",
                        "address_extended": "Place Versailles",
                        "country": "CA",
                        "formatted_address": "7275 Sherbrooke Rue E, Montreal QC H1N 1E9",
                        "locality": "Montreal",
                        "postcode": "H1N 1E9",
                        "region": "QC"
                  },
                  "name": "Kim Chi - D\u00e9lice Cor\u00e9en"
            },
            {
                  "distance": 757,
                  "location": {
                        "address": "7275 Sherbrooke Rue E",
                        "country": "CA",
                        "formatted_address": "7275 Sherbrooke Rue E, Montreal QC H1N 1E9",
                        "locality": "Montreal",
                        "postcode": "H1N 1E9",
                        "region": "QC"
                  },
                  "name": "Almadina Mediterranean Cuisine"
            },
            {
                  "distance": 767,
                  "location": {
                        "address": "7275 Sherbrooke Rue E",
                        "address_extended": "Floor 1",
                        "country": "CA",
                        "formatted_address": "7275 Sherbrooke Rue E, Montreal QC H1N 1E9",
                        "locality": "Montreal",
                        "postcode": "H1N 1E9",
                        "region": "QC"
                  },
                  "name": "Bar Beaux Jeux"
            }
      ],
      "context": {
            "geo_bounds": {
                  "circle": {
                        "center": {
                              "latitude": 45.59679648,
                              "longitude": -73.5351795
                        },
                        "radius": 1000
                  }
            }
      }
}