{
      "results": [
            {
                  "distance": 916,
                  "location": {
                        "address": "7100 Sherbrooke Rue E",
                        "country": "CA",
                        "cross_street": "",
                        "formatted_address": "7100 Sherbrooke Rue E, Montr\u00e9al QC H1N 1E7",
                        "locality": "Montreal",
                        "postcode": "H1N 1E7",
                        "region": "QC"
                  },
                  "name": "Harvey's",
                  "popularity": 0.9709382096896291,
                  "price": 2,
                  "rating": 7.8,
                  "store_id": "2211"
            },
            {
                  "distance": 702,
                  "location": {
                        "address": "6780 Sherbrooke Rue E",
                        "country": "CA",
                        "formatted_address": "6780 Sherbrooke Rue E, Montr\u00e9al QC H1N 1E1",
                        "locality": "Montreal",
                        "postcode": "H1N 1E1",
                        "region": "QC"
                  },
                  "name": "Restaurant Chez Lien",
                  "popularity": 0.9078231453444361,
                  "price": 2,
                  "rating": 7.3
            },
            {
                  "distance": 362,
                  "location": {
                        "address": "6649 rue de Marseille",
                        "country": "CA",
                        "cross_street": "coin Langelier",
                        "formatted_address": "6649 rue de Marseille (coin Langelier), Montr\u00e9al QC H1N 1M1",
                        "locality": "Montreal",
                        "postcode": "H1N 1M1",
                        "region": "QC"
                  },
                  "name": "Vincent Sous-Marins",
                  "popularity": 0.9284396290688872,
                  "price": 1,
                  "rating": 7.2
            },
            {
                  "distance": 872,
                  "location": {
                        "address": "7066A Sherbrooke Rue E",
                        "country": "CA",
                        "cross_street": "entre \u00c9milie Legrand & Beauclerk",
                        "formatted_address": "7066A Sherbrooke Rue E (entre \u00c9milie Legrand & Beauclerk), Montr\u00e9al QC H1N 1E6",
                        "locality": "Montreal",
                        "postcode": "H1N 1E6",
                        "region": "QC"
                  },
                  "name": "La Dinette Montreal-Est",
                  "popularity": 0.8278529523088569,
                  "price": 1,
                  "rating": 7.2
            },
            {
                  "distance": 744,
                  "location": {
                        "address": "6860 Sherbrooke Rue E",
                        "country": "CA",
                        "cross_street": "",
                        "formatted_address": "6860 Sherbrooke Rue E, Montr\u00e9al QC H1N 1E2",
                        "locality": "Montreal",
                        "postcode": "H1N 1E2",
                        "region": "QC"
                  },
                  "name": "Tim Hortons",
                  "popularity": 0.8569029144587433,
                  "price": 1,
                  "rating": 6.7
            },
            {
                  "distance": 685,
                  "location": {
                        "address": "6583 Sherbrooke Rue E",
                        "country": "CA",
                        "formatted_address": "6583 Sherbrooke Rue E, Montr\u00e9al QC H1N 1C5",
                        "locality": "Montreal",
                        "postcode": "H1N 1C5",
                        "region": "QC"
                  },
                  "name": "Restaurant Pacini",
                  "popularity": 0.9377365632096897,
                  "price": 2,
                  "rating": 6.4
            },
            {
                  "distance": 733,
                  "location": {
                        "address": "6361 Sherbrooke Rue E",
                        "country": "CA",
                        "cross_street": "",
                        "formatted_address": "6361 Sherbrooke Rue E, Montr\u00e9al QC H1N 1C4",
                        "locality": "Montreal",
                        "postcode": "H1N 1C4",
                        "region": "QC"
                  },
                  "name": "Restaurant le Gout de Thailand",
                  "popularity": 0.8454414269492808,
                  "price": 2,
                  "rating": 6.3
            },
            {
                  "distance": 818,
                  "location": {
                        "address": "6225 Sherbrooke Rue E",
                        "country": "CA",
                        "cross_street": "",
                        "formatted_address": "6225 Sherbrooke Rue E, Montr\u00e9al QC H1N 1C3",
                        "locality": "Montreal",
                        "postcode": "H1N 1C3",
                        "region": "QC"
                  },
                  "name": "R\u00f4tisserie St-Hubert",
                  "popularity": 0.9696371120363361,
                  "price": 2,
                  "rating": 6.2,
                  "store_id": "100090"
            },
            {
                  "distance": 767,
                  "location": {
                        "address": "6355 Sherbrooke St E",
                        "country": "CA",
                        "cross_street": "coin Carignan",
                        "formatted_address": "6355 Sherbrooke St E (coin Carignan), Montr\u00e9al QC H1N 1C4",
                        "locality": "Montreal",
                        "postcode": "H1N 1C4",
                        "region": "QC"
                  },
                  "name": "Subway",
                  "popularity": 0.9711984292202877,
                  "price": 1,
                  "rating": 6.2,
                  "store_id": "16551"
            },
            {
                  "distance": 260,
                  "location": {
                        "address": "6765 Hochelaga Rue",
                        "country": "CA",
                        "cross_street": "Langelier",
                        "formatted_address": "6765 Hochelaga Rue (Langelier), Montr\u00e9al QC H1N 1Y2",
                        "locality": "Montreal",
                        "postcode": "H1N 1Y2",
                        "region": "QC"
                  },
                  "name": "Tim Hortons",
                  "popularity": 0.9929859008327026,
                  "price": 1,
                  "rating": 6.1
            },
            {
                  "distance": 561,
                  "location": {
                        "address": "3065 Ave de Granby",
                        "country": "CA",
                        "cross_street": "",
                        "formatted_address": "3065 Ave de Granby, Montr\u00e9al QC H1N 2Z7",
                        "locality": "Montreal",
                        "postcode": "H1N 2Z7",
                        "region": "QC"
                  },
                  "name": "Tim Hortons",
                  "popularity": 0.9168835162755489,
                  "price": 1,
                  "rating": 5.9
            },
            {
                  "distance": 724,
                  "location": {
                        "address": "6415 Sherbrooke Rue E",
                        "country": "CA",
                        "cross_street": "coin De Granby",
                        "formatted_address": "6415 Sherbrooke Rue E (coin De Granby), Montr\u00e9al QC H1N 1C5",
                        "locality": "Montreal",
                        "postcode": "H1N 1C5",
                        "region": "QC"
                  },
                  "name": "McDonald's",
                  "popularity": 0.991672975018925,
                  "price": 1,
                  "rating": 5.4,
                  "store_id": "2253"
            },
            {
                  "distance": 674,
                  "location": {
                        "address": "6348 Sherbrooke Rue E",
                        "country": "CA",
                        "cross_street": "De Carignan",
                        "formatted_address": "6348 Sherbrooke Rue E (De Carignan), Montr\u00e9al QC H1N 3P6",
                        "locality": "Montreal",
                        "postcode": "H1N 3P6",
                        "region": "QC"
                  },
                  "name": "Burger King",
                  "popularity": 0.9755393641180924,
                  "price": 1,
                  "rating": 5.3,
                  "store_id": "1886"
            },
            {
                  "distance": 366,
                  "location": {
                        "address": "6737 Rue de Marseille",
                        "country": "CA",
                        "formatted_address": "6737 Rue de Marseille, Montr\u00e9al QC H1N 1M4",
                        "locality": "Montreal",
                        "postcode": "H1N 1M4",
                        "region": "QC"
                  },
                  "name": "Cremerie Mix",
                  "popularity": 0.8993896669190008,
                  "price": 1
            },
            {
                  "distance": 443,
                  "location": {
                        "address": "6666 Rue de Marseille",
                        "country": "CA",
                        "cross_street": "langelier",
                        "formatted_address": "6666 Rue de Marseille (langelier), Montr\u00e9al QC H1N 1M3",
                        "locality": "Montreal",
                        "postcode": "H1N 1M3",
                        "region": "QC"
                  },
                  "name": "New Milano",
                  "popularity": 0.9698618470855412,
                  "price": 2
            },
            {
                  "distance": 495,
                  "location": {
                        "address": "3175 Ave de Granby",
                        "address_extended": "Bureau 14",
                        "country": "CA",
                        "cross_street": "Btw rue de Marseille & Faribault",
                        "formatted_address": "3175 Ave de Granby (Btw rue de Marseille & Faribault), Montr\u00e9al QC H1N 2Z7",
                        "locality": "Montreal",
                        "postcode": "H1N 2Z7",
                        "region": "QC"
                  },
                  "name": "Aurora Brasserie",
                  "popularity": 0.9075747539742619,
                  "price": 3
            },
            {
                  "distance": 502,
                  "location": {
                        "address": "3365 Ave de Granby",
                        "country": "CA",
                        "cross_street": "Sherbrooke",
                        "formatted_address": "3365 Ave de Granby (Sherbrooke), Montr\u00e9al QC H1N 2Z7",
                        "locality": "Montreal",
                        "postcode": "H1N 2Z7",
                        "region": "QC"
                  },
                  "name": "Paulos",
                  "popularity": 0.9388602384557153,
                  "price": 2
            },
            {
                  "distance": 718,
                  "location": {
                        "address": "6395 Sherbrooke Rue E",
                        "country": "CA",
                        "cross_street": "",
                        "formatted_address": "6395 Sherbrooke Rue E, Montr\u00e9al QC H1N 1C4",
                        "locality": "Montreal",
                        "postcode": "H1N 1C4",
                        "region": "QC"
                  },
                  "name": "La Belle Province",
                  "popularity": 0.9417463096139288,
                  "price": 1
            },
            {
                  "distance": 745,
                  "location": {
                        "address": "6365 Sherbrooke Rue E",
                        "country": "CA",
                        "cross_street": "",
                        "formatted_address": "6365 Sherbrooke Rue E, Montr\u00e9al QC H1N 1C4",
                        "locality": "Montreal",
                        "postcode": "H1N 1C4",
                        "region": "QC"
                  },
                  "name": "Sake Sushi Express",
                  "popularity": 0.8375638720666162,
                  "price": 2
            },
            {
                  "distance": 756,
                  "location": {
                        "address": "6018 Hochelaga Rue",
                        "country": "CA",
                        "cross_street": "",
                        "formatted_address": "6018 Hochelaga Rue, Montr\u00e9al QC H1N 1X6",
                        "locality": "Montreal",
                        "postcode": "H1N 1X6",
                        "region": "QC"
                  },
                  "name": "Bar 3 Barils",
                  "popularity": 0.6373604277062831,
                  "price": 1
            },
            {
                  "distance": 759,
                  "location": {
                        "address": "6325 Sherbrooke Rue E",
                        "country": "CA",
                        "formatted_address": "6325 Sherbrooke Rue E, Montr\u00e9al QC H1N 1C3",
                        "locality": "Montreal",
                        "postcode": "H1N 1C3",
                        "region": "QC"
                  },
                  "name": "Bar El Cid",
                  "popularity": 0.9127909727479182
            },
            {
                  "distance": 773,
                  "location": {
                        "address": "6343 Sherbrooke Rue E",
                        "country": "CA",
                        "cross_street": "",
                        "formatted_address": "6343 Sherbrooke Rue E, Montr\u00e9al QC H1N 1C3",
                        "locality": "Montreal",
                        "postcode": "H1N 1C3",
                        "region": "QC"
                  },
                  "name": "Ronde 1 Sushi",
                  "popularity": 0.868293433005299,
                  "price": 2
            },
            {
                  "distance": 879,
                  "location": {
                        "address": "7060 Sherbrooke Rue O",
                        "country": "CA",
                        "formatted_address": "7060 Sherbrooke Rue O, Montr\u00e9al QC H4B 1R2",
                        "locality": "Montreal",
                        "postcode": "H4B 1R2",
                        "region": "QC"
                  },
                  "name": "Ronda Sushi",
                  "popularity": 0.8326906699470098,
                  "price": 2
            },
            {
                  "distance": 893,
                  "location": {
                        "address": "7070 Sherbrooke Rue E",
                        "country": "CA",
                        "cross_street": "",
                        "formatted_address": "7070 Sherbrooke Rue E, Montr\u00e9al QC H1N 1E6",
                        "locality": "Montreal",
                        "postcode": "H1N 1E6",
                        "region": "QC"
                  },
                  "name": "R\u00f4tisseries Au Coq",
                  "popularity": 0.8896196063588191,
                  "price": 2
            },
            {
                  "distance": 896,
                  "location": {
                        "address": "7060 Sherbrooke Rue E",
                        "country": "CA",
                        "cross_street": "",
                        "formatted_address": "7060 Sherbrooke Rue E, Montr\u00e9al QC H1N 1E6",
                        "locality": "Montreal",
                        "postcode": "H1N 1E6",
                        "region": "QC"
                  },
                  "name": "O Asie",
                  "popularity": 0.9533497350492052,
                  "price": 2
            },
            {
                  "distance": 913,
                  "location": {
                        "address": "6060 Sherbrooke Rue E",
                        "country": "CA",
                        "cross_street": "Duquesne",
                        "formatted_address": "6060 Sherbrooke Rue E (Duquesne), Montr\u00e9al QC H1N 1C1",
                        "locality": "Montreal",
                        "postcode": "H1N 1C1",
                        "region": "QC"
                  },
                  "name": "Globe Caf\u00e9 Bistro",
                  "popularity": 0.8291185654806964,
                  "price": 2
            },
            {
                  "distance": 916,
                  "location": {
                        "address": "5865 Hochelaga Rue",
                        "country": "CA",
                        "cross_street": "Louis-Veuillot",
                        "formatted_address": "5865 Hochelaga Rue (Louis-Veuillot), Montr\u00e9al QC H1N 1X2",
                        "locality": "Montreal",
                        "postcode": "H1N 1X2",
                        "region": "QC"
                  },
                  "name": "Soupe and Roll",
                  "popularity": 0.9531841408024224,
                  "price": 2
            },
            {
                  "distance": 1001,
                  "location": {
                        "address": "5960 Sherbrooke Rue E",
                        "country": "CA",
                        "cross_street": "",
                        "formatted_address": "5960 Sherbrooke Rue E, Montreal QC H1N 1B8",
                        "locality": "Montreal",
                        "postcode": "H1N 1B8",
                        "region": "QC"
                  },
                  "name": "Genki Sushi",
                  "popularity": 0.10825132475397427,
                  "price": 2
            },
            {
                  "distance": 618,
                  "location": {
                        "address": "3365 Ave de Granby",
                        "country": "CA",
                        "formatted_address": "3365 Ave de Granby, Montreal QC H1N 2Z7",
                        "locality": "Montreal",
                        "postcode": "H1N 2Z7",
                        "region": "QC"
                  },
                  "name": "Atlas Amusement Enr"
            },
            {
                  "distance": 667,
                  "location": {
                        "address": "6720 Sherbrooke Rue E",
                        "country": "CA",
                        "formatted_address": "6720 Sherbrooke Rue E, Montreal QC H1N 0E3",
                        "locality": "Montreal",
                        "postcode": "H1N 0E3",
                        "region": "QC"
                  },
                  "name": "Restaurant Kob\u00e9 Lt\u00e9e"
            },
            {
                  "distance": 685,
                  "location": {
                        "address": "6780 Sherbrooke Rue E",
                        "country": "CA",
                        "formatted_address": "6780 Sherbrooke Rue E, Montreal QC H1N 1E1",
                        "locality": "Montreal",
                        "postcode": "H1N 1E1",
                        "region": "QC"
                  },
                  "name": "Grillade Vietnamienne Enr, la"
            },
            {
                  "distance": 759,
                  "location": {
                        "address": "6018 Hochelaga Rue",
                        "country": "CA",
                        "formatted_address": "6018 Hochelaga Rue, Montreal QC H1N 1X6",
                        "locality": "Montreal",
                        "postcode": "H1N 1X6",
                        "region": "QC"
                  },
                  "name": "Bar Aux Trois Barils"
            },
            {
                  "distance": 807,
                  "location": {
                        "address": "6086 Sherbrooke Rue E",
                        "country": "CA",
                        "formatted_address": "6086 Sherbrooke Rue E, Montreal QC H1N 1C1",
                        "locality": "Montreal",
                        "postcode": "H1N 1C1",
                        "region": "QC"
                  },
                  "name": "Buffet Antique"
            },
            {
                  "distance": 948,
                  "location": {
                        "address": "2896 Louis Veuillot Rue",
                        "country": "CA",
                        "formatted_address": "2896 Louis Veuillot Rue, Montreal QC H1N 2P6",
                        "locality": "Montreal",
                        "postcode": "H1N 2P6",
                        "region": "QC"
                  },
                  "name": "Shakir Indian Cuisine"
            }
      ],
      "context": {
            "geo_bounds": {
                  "circle": {
                        "center": {
                              "latitude": 45.58031455,
                              "longitude": -73.53531361
                        },
                        "radius": 1000
                  }
            }
      }
}