{
      "results": [
            {
                  "distance": 927,
                  "location": {
                        "address": "124 Saint- Viateur Rue O",
                        "country": "CA",
                        "cross_street": "coin Waverly",
                        "formatted_address": "124 Saint- Viateur Rue O (coin Waverly), Montr\u00e9al QC H2T 2L1",
                        "locality": "Montreal",
                        "postcode": "H2T 2L1",
                        "region": "QC"
                  },
                  "name": "Caf\u00e9 Olimpico",
                  "popularity": 0.9736468584405753,
                  "price": 1,
                  "rating": 9.2
            },
            {
                  "distance": 761,
                  "location": {
                        "address": "263 Saint- Viateur Rue O",
                        "country": "CA",
                        "cross_street": "entre Jeanne-Mance & du Parc",
                        "formatted_address": "263 Saint- Viateur Rue O (entre Jeanne-Mance & du Parc), Montr\u00e9al QC H2V 1Y1",
                        "locality": "Montreal",
                        "postcode": "H2V 1Y1",
                        "region": "QC"
                  },
                  "name": "St-Viateur Bagel",
                  "popularity": 0.9821986184708554,
                  "price": 1,
                  "rating": 9.1
            },
            {
                  "distance": 640,
                  "location": {
                        "address": "5357 Ave du Parc",
                        "country": "CA",
                        "cross_street": "entre St-Viateur & Fairmount",
                        "formatted_address": "5357 Ave du Parc (entre St-Viateur & Fairmount), Montr\u00e9al QC H2V 4G9",
                        "locality": "Montreal",
                        "postcode": "H2V 4G9",
                        "region": "QC"
                  },
                  "name": "Milos Restaurant",
                  "popularity": 0.9470098410295231,
                  "price": 4,
                  "rating": 9.1
            },
            {
                  "distance": 795,
                  "location": {
                        "address": "1311 Bernard Ave",
                        "country": "CA",
                        "cross_street": "coin Outremont",
                        "formatted_address": "1311 Bernard Ave (coin Outremont), Montr\u00e9al QC H2V 1W1",
                        "locality": "Montreal",
                        "postcode": "H2V 1W1",
                        "region": "QC"
                  },
                  "name": "Le Glacier Bilboquet",
                  "popularity": 0.9378075321725965,
                  "price": 2,
                  "rating": 9.0
            },
            {
                  "distance": 437,
                  "location": {
                        "address": "5200 Hutchison Rue",
                        "country": "CA",
                        "cross_street": "coin Fairmount",
                        "formatted_address": "5200 Hutchison Rue (coin Fairmount), Montr\u00e9al QC H2V 4B3",
                        "locality": "Montreal",
                        "postcode": "H2V 4B3",
                        "region": "QC"
                  },
                  "name": "La Croissanterie Figaro",
                  "popularity": 0.9416398561695685,
                  "price": 1,
                  "rating": 8.6
            },
            {
                  "distance": 567,
                  "location": {
                        "address": "5240 Ave du Parc",
                        "country": "CA",
                        "cross_street": "Fairmount",
                        "formatted_address": "5240 Ave du Parc (Fairmount), Montr\u00e9al QC H2V 4G7",
                        "locality": "Montreal",
                        "postcode": "H2V 4G7",
                        "region": "QC"
                  },
                  "name": "Th\u00e9\u00e2tre Fairmount",
                  "popularity": 0.9877696820590461,
                  "rating": 8.6
            },
            {
                  "distance": 895,
                  "location": {
                        "address": "176 Saint Viateur Rue O",
                        "address_extended": "# 174",
                        "country": "CA",
                        "cross_street": "",
                        "formatted_address": "176 Saint Viateur Rue O, Montr\u00e9al QC H2T 2L3",
                        "locality": "Montreal",
                        "postcode": "H2T 2L3",
                        "region": "QC"
                  },
                  "name": "\u00cele Flottante",
                  "popularity": 0.891583080999243,
                  "price": 3,
                  "rating": 8.5
            },
            {
                  "distance": 995,
                  "location": {
                        "address": "5150 St-Laurent Blvd",
                        "country": "CA",
                        "cross_street": "",
                        "formatted_address": "5150 St-Laurent Blvd, Montr\u00e9al QC H2T 1R8",
                        "locality": "Montreal",
                        "postcode": "H2T 1R8",
                        "region": "QC"
                  },
                  "name": "Cin\u00e9ma Moderne",
                  "popularity": 0.9271267032551098,
                  "price": 1,
                  "rating": 8.3
            },
            {
                  "distance": 861,
                  "location": {
                        "address": "1057 Bernard Ave",
                        "country": "CA",
                        "cross_street": "entre Durocher & Querbes",
                        "formatted_address": "1057 Bernard Ave (entre Durocher & Querbes), Outremont QC H2V 1V1",
                        "locality": "Outremont",
                        "postcode": "H2V 1V1",
                        "region": "QC"
                  },
                  "name": "Lester's Aaa Delicatessen",
                  "popularity": 0.9608606169568509,
                  "price": 2,
                  "rating": 8.3
            },
            {
                  "distance": 859,
                  "location": {
                        "address": "180 Saint- Viateur Rue O",
                        "country": "CA",
                        "cross_street": "angle Esplanade",
                        "formatted_address": "180 Saint- Viateur Rue O (angle Esplanade), Montr\u00e9al QC H2T 2L3",
                        "locality": "Montreal",
                        "postcode": "H2T 2L3",
                        "region": "QC"
                  },
                  "name": "Club Social",
                  "popularity": 0.9385408781226343,
                  "price": 1,
                  "rating": 8.2
            },
            {
                  "distance": 786,
                  "location": {
                        "address": "255A Saint Viateur Rue O",
                        "country": "CA",
                        "cross_street": "Jeanne-Mance",
                        "formatted_address": "255A Saint Viateur Rue O (Jeanne-Mance), Montr\u00e9al QC H2V 1Y1",
                        "locality": "Montreal",
                        "postcode": "H2V 1Y1",
                        "region": "QC"
                  },
                  "name": "Banh Mi Banh Yiu",
                  "popularity": 0.8924347085541257,
                  "price": 1,
                  "rating": 8.2
            },
            {
                  "distance": 941,
                  "location": {
                        "address": "34 Fairmount Ave O",
                        "country": "CA",
                        "cross_street": "coin Clark",
                        "formatted_address": "34 Fairmount Ave O (coin Clark), Montr\u00e9al QC H2T 2M1",
                        "locality": "Montreal",
                        "postcode": "H2T 2M1",
                        "region": "QC"
                  },
                  "name": "Wilensky's Light Lunch",
                  "popularity": 0.9229631907645723,
                  "price": 1,
                  "rating": 8.1
            },
            {
                  "distance": 787,
                  "location": {
                        "address": "5611 Ave du Parc",
                        "country": "CA",
                        "cross_street": "St-Viateur",
                        "formatted_address": "5611 Ave du Parc (St-Viateur), Montr\u00e9al QC H2V 4H2",
                        "locality": "Montreal",
                        "postcode": "H2V 4H2",
                        "region": "QC"
                  },
                  "name": "Ta Chido",
                  "popularity": 0.9069360333080999,
                  "price": 1,
                  "rating": 8.1
            },
            {
                  "distance": 786,
                  "location": {
                        "address": "11265 Bernard Ave",
                        "country": "CA",
                        "cross_street": "btwn Ave. Champagneur & Ave. Outremont",
                        "formatted_address": "11265 Bernard Ave (btwn Ave. Champagneur & Ave. Outremont), Montr\u00e9al QC H2V 1V8",
                        "locality": "Montreal",
                        "postcode": "H2V 1V8",
                        "region": "QC"
                  },
                  "name": "Restaurant le Petit Italien",
                  "popularity": 0.9217094057532172,
                  "price": 3,
                  "rating": 8.1
            },
            {
                  "distance": 664,
                  "location": {
                        "address": "4806 Ave du Parc",
                        "country": "CA",
                        "cross_street": "",
                        "formatted_address": "4806 Ave du Parc, Montr\u00e9al QC H2V 4E6",
                        "locality": "Montreal",
                        "postcode": "H2V 4E6",
                        "region": "QC"
                  },
                  "name": "Philinos Restaurant Bar",
                  "popularity": 0.9275406888720666,
                  "price": 2,
                  "rating": 8.1
            },
            {
                  "distance": 782,
                  "location": {
                        "address": "4581 Ave du Parc",
                        "country": "CA",
                        "cross_street": "",
                        "formatted_address": "4581 Ave du Parc, Montr\u00e9al QC H2V 4E4",
                        "locality": "Montreal",
                        "postcode": "H2V 4E4",
                        "region": "QC"
                  },
                  "name": "Lola Rosa",
                  "popularity": 0.9120931112793338,
                  "price": 2,
                  "rating": 8.1
            },
            {
                  "distance": 819,
                  "location": {
                        "address": "115 Laurier Ave O",
                        "country": "CA",
                        "cross_street": "entre St-Urbain & De l'Esplanade",
                        "formatted_address": "115 Laurier Ave O (entre St-Urbain & De l'Esplanade), Montr\u00e9al QC H2T 2N6",
                        "locality": "Montreal",
                        "postcode": "H2T 2N6",
                        "region": "QC"
                  },
                  "name": "Bar Henrietta",
                  "popularity": 0.9364591218773657,
                  "price": 2,
                  "rating": 8.1
            },
            {
                  "distance": 786,
                  "location": {
                        "address": "142 Fairmount Ave O",
                        "country": "CA",
                        "cross_street": "",
                        "formatted_address": "142 Fairmount Ave O, Montr\u00e9al QC H2T 2M5",
                        "locality": "Montreal",
                        "postcode": "H2T 2M5",
                        "region": "QC"
                  },
                  "name": "La Khaima",
                  "popularity": 0.9312310749432249,
                  "price": 2,
                  "rating": 8.0
            },
            {
                  "distance": 596,
                  "location": {
                        "address": "5000 Ave du Parc",
                        "country": "CA",
                        "cross_street": "",
                        "formatted_address": "5000 Ave du Parc, Montr\u00e9al QC H2V 4E8",
                        "locality": "Montreal",
                        "postcode": "H2V 4E8",
                        "region": "QC"
                  },
                  "name": "Farine & Vanille",
                  "popularity": 0.9133468962906889,
                  "price": 1,
                  "rating": 8.0
            },
            {
                  "distance": 841,
                  "location": {
                        "address": "104 Laurier Ave O",
                        "country": "CA",
                        "formatted_address": "104 Laurier Ave O, Montr\u00e9al QC H2T 2N7",
                        "locality": "Montreal",
                        "postcode": "H2T 2N7",
                        "region": "QC"
                  },
                  "name": "Restaurant la Chronique",
                  "popularity": 0.9418764193792581,
                  "price": 3,
                  "rating": 8.0
            },
            {
                  "distance": 525,
                  "location": {
                        "address": "365 Laurier Ave O",
                        "country": "CA",
                        "cross_street": "Parc",
                        "formatted_address": "365 Laurier Ave O (Parc), Montr\u00e9al QC H2V 2K5",
                        "locality": "Montreal",
                        "postcode": "H2V 2K5",
                        "region": "QC"
                  },
                  "name": "Il Pagliaccio",
                  "popularity": 0.9195566805450416,
                  "price": 2,
                  "rating": 7.9
            },
            {
                  "distance": 949,
                  "location": {
                        "address": "359 Bernard Rue O",
                        "country": "CA",
                        "cross_street": "coin Du Parc",
                        "formatted_address": "359 Bernard Rue O (coin Du Parc), Montr\u00e9al QC H2V 1T6",
                        "locality": "Montreal",
                        "postcode": "H2V 1T6",
                        "region": "QC"
                  },
                  "name": "Boulangerie Cheskie Inc",
                  "popularity": 0.9672005109765329,
                  "price": 1,
                  "rating": 7.8
            },
            {
                  "distance": 663,
                  "location": {
                        "address": "244 Laurier Ave O",
                        "country": "CA",
                        "cross_street": "coin Jeanne-Mance",
                        "formatted_address": "244 Laurier Ave O (coin Jeanne-Mance), Montr\u00e9al QC H2T 2N8",
                        "locality": "Montreal",
                        "postcode": "H2T 2N8",
                        "region": "QC"
                  },
                  "name": "Toi Moi & Caf\u00e9",
                  "popularity": 0.9174867524602573,
                  "price": 2,
                  "rating": 7.7
            },
            {
                  "distance": 825,
                  "location": {
                        "address": "4543 Ave du Parc",
                        "country": "CA",
                        "cross_street": "",
                        "formatted_address": "4543 Ave du Parc, Montr\u00e9al QC H2V 4E4",
                        "locality": "Montreal",
                        "postcode": "H2V 4E4",
                        "region": "QC"
                  },
                  "name": "Bar Monsieur Ricard",
                  "popularity": 0.9262987320211961,
                  "price": 1,
                  "rating": 7.7
            },
            {
                  "distance": 944,
                  "location": {
                        "address": "5733 Ave du Parc",
                        "country": "CA",
                        "cross_street": "coin Bernard",
                        "formatted_address": "5733 Ave du Parc (coin Bernard), Montr\u00e9al QC H2V 4H2",
                        "locality": "Montreal",
                        "postcode": "H2V 4H2",
                        "region": "QC"
                  },
                  "name": "Phyllo Bar Melina's",
                  "popularity": 0.9046886828160484,
                  "price": 2,
                  "rating": 7.7
            },
            {
                  "distance": 897,
                  "location": {
                        "address": "158 Saint Viateur Rue O",
                        "country": "CA",
                        "cross_street": "Rue Waverly",
                        "formatted_address": "158 Saint Viateur Rue O (Rue Waverly), Montr\u00e9al QC H2T 2L3",
                        "locality": "Montreal",
                        "postcode": "H2T 2L3",
                        "region": "QC"
                  },
                  "name": "St-Viateur Bagel",
                  "popularity": 0.9433194549583649,
                  "price": 1,
                  "rating": 7.4
            },
            {
                  "distance": 426,
                  "location": {
                        "address": "1014 Laurier Ave O",
                        "country": "CA",
                        "formatted_address": "1014 Laurier Ave O, Montr\u00e9al QC H2V 2K8",
                        "locality": "Montreal",
                        "postcode": "H2V 2K8",
                        "region": "QC"
                  },
                  "name": "Steak Frites St-Paul",
                  "popularity": 0.12759036714610145,
                  "price": 4,
                  "rating": 7.3
            },
            {
                  "distance": 982,
                  "location": {
                        "address": "273 Bernard Rue O",
                        "country": "CA",
                        "cross_street": "entre Du Parc & Jeanne-Mance",
                        "formatted_address": "273 Bernard Rue O (entre Du Parc & Jeanne-Mance), Montr\u00e9al QC H2V 1T5",
                        "locality": "Montreal",
                        "postcode": "H2V 1T5",
                        "region": "QC"
                  },
                  "name": "Helm Brasseur Gourmand",
                  "popularity": 0.9408237130961393,
                  "price": 2,
                  "rating": 7.3
            },
            {
                  "distance": 635,
                  "location": {
                        "address": "278 Laurier Ave O",
                        "country": "CA",
                        "cross_street": "",
                        "formatted_address": "278 Laurier Ave O, Montr\u00e9al QC H2V 2K2",
                        "locality": "Montreal",
                        "postcode": "H2V 2K2",
                        "region": "QC"
                  },
                  "name": "La Taverne du P\u00e9lican",
                  "popularity": 0.9399602573807722,
                  "price": 2,
                  "rating": 7.2
            },
            {
                  "distance": 866,
                  "location": {
                        "address": "98 Laurier Ave O",
                        "country": "CA",
                        "cross_street": "",
                        "formatted_address": "98 Laurier Ave O, Montr\u00e9al QC H2T 2N4",
                        "locality": "Montreal",
                        "postcode": "H2T 2N4",
                        "region": "QC"
                  },
                  "name": "Bar Datcha",
                  "popularity": 0.9007380772142316,
                  "price": 2,
                  "rating": 7.1
            },
            {
                  "distance": 870,
                  "location": {
                        "address": "5201 Saint-Urbain Rue",
                        "country": "CA",
                        "cross_street": "Fairmount",
                        "formatted_address": "5201 Saint-Urbain Rue (Fairmount), Montr\u00e9al QC H2T 2W8",
                        "locality": "Montreal",
                        "postcode": "H2T 2W8",
                        "region": "QC"
                  },
                  "name": "Barros Luco",
                  "popularity": 0.8524555261165784,
                  "price": 2,
                  "rating": 7.0
            },
            {
                  "distance": 597,
                  "location": {
                        "address": "5318 Ave du Parc",
                        "country": "CA",
                        "cross_street": "",
                        "formatted_address": "5318 Ave du Parc, Montr\u00e9al QC H2V 4G7",
                        "locality": "Montreal",
                        "postcode": "H2V 4G7",
                        "region": "QC"
                  },
                  "name": "Restaurant Mythos Ouzeri Estiatorio",
                  "popularity": 0.9447033497350492,
                  "price": 2,
                  "rating": 7.0
            },
            {
                  "distance": 758,
                  "location": {
                        "address": "5570 Ave du Parc",
                        "country": "CA",
                        "cross_street": "St. Viateur",
                        "formatted_address": "5570 Ave du Parc (St. Viateur), Montr\u00e9al QC H2V 4H1",
                        "locality": "Montreal",
                        "postcode": "H2V 4H1",
                        "region": "QC"
                  },
                  "name": "Restaurant Aux Lilas",
                  "popularity": 0.8087149886449659,
                  "price": 3,
                  "rating": 6.7
            },
            {
                  "distance": 384,
                  "location": {
                        "address": "1042 Laurier Ave O",
                        "country": "CA",
                        "cross_street": "Durocher",
                        "formatted_address": "1042 Laurier Ave O (Durocher), Outremont QC H2V 2K8",
                        "locality": "Outremont",
                        "postcode": "H2V 2K8",
                        "region": "QC"
                  },
                  "name": "Gourmet Laurier Inc",
                  "popularity": 0.1317538796366389,
                  "rating": 6.6
            },
            {
                  "distance": 884,
                  "location": {
                        "address": "4505 Ave du Parc",
                        "country": "CA",
                        "cross_street": "",
                        "formatted_address": "4505 Ave du Parc, Montr\u00e9al QC H2V 4E4",
                        "locality": "Montreal",
                        "postcode": "H2V 4E4",
                        "region": "QC"
                  },
                  "name": "A&W Restaurant",
                  "popularity": 0.9305923542770629,
                  "price": 1,
                  "rating": 6.3,
                  "store_id": "5511"
            }
      ],
      "context": {
            "geo_bounds": {
                  "circle": {
                        "center": {
                              "latitude": 45.51577505,
                              "longitude": -73.6006093
                        },
                        "radius": 1000
                  }
            }
      }
}