{
      "results": [
            {
                  "distance": 885,
                  "location": {
                        "address": "360 Saint-Jacques Rue",
                        "country": "CA",
                        "cross_street": "",
                        "formatted_address": "360 Saint-Jacques Rue, Montr\u00e9al QC H2Y 1P5",
                        "locality": "Montreal",
                        "postcode": "H2Y 1P5",
                        "region": "QC"
                  },
                  "name": "Crew Collective & Caf\u00e9",
                  "popularity": 0.9824115253595761,
                  "price": 1,
                  "rating": 9.3
            },
            {
                  "distance": 961,
                  "location": {
                        "address": "195 Young Rue",
                        "country": "CA",
                        "cross_street": "entre Ottawa & Wellington",
                        "formatted_address": "195 Young Rue (entre Ottawa & Wellington), Montr\u00e9al QC H3C 2E9",
                        "locality": "Montreal",
                        "postcode": "H3C 2E9",
                        "region": "QC"
                  },
                  "name": "La B\u00eate \u00e0 Pain",
                  "popularity": 0.967153198334595,
                  "price": 1,
                  "rating": 9.3
            },
            {
                  "distance": 586,
                  "location": {
                        "address": "705 Sainte-Catherine Rue O",
                        "country": "CA",
                        "cross_street": "",
                        "formatted_address": "705 Sainte-Catherine Rue O, Montr\u00e9al QC H3B 4G5",
                        "locality": "Montreal",
                        "postcode": "H3B 4G5",
                        "region": "QC"
                  },
                  "name": "Time Out Market Montr\u00e9al",
                  "popularity": 0.9987107305071915,
                  "price": 2,
                  "rating": 9.1
            },
            {
                  "distance": 851,
                  "location": {
                        "address": "1067 Rue de Bleury",
                        "country": "CA",
                        "cross_street": "De la Gaucheti\u00e8re",
                        "formatted_address": "1067 Rue de Bleury (De la Gaucheti\u00e8re), Montr\u00e9al QC H2Z 1N1",
                        "locality": "Montreal",
                        "postcode": "H2Z 1N1",
                        "region": "QC"
                  },
                  "name": "La Finca caf\u00e9 & bureau",
                  "popularity": 0.9523798258894777,
                  "price": 1,
                  "rating": 9.1
            },
            {
                  "distance": 281,
                  "location": {
                        "address": "1206 Stanley Rue",
                        "country": "CA",
                        "cross_street": "entre Ren\u00e9-L\u00e9vesque & Ste-Catherine",
                        "formatted_address": "1206 Stanley Rue (entre Ren\u00e9-L\u00e9vesque & Ste-Catherine), Montr\u00e9al QC H3B 2S7",
                        "locality": "Montreal",
                        "postcode": "H3B 2S7",
                        "region": "QC"
                  },
                  "name": "Melk Bar a Caf\u00e9",
                  "popularity": 0.9670704012112036,
                  "price": 2,
                  "rating": 9.0
            },
            {
                  "distance": 953,
                  "location": {
                        "address": "1250 Rue de Bleury",
                        "country": "CA",
                        "cross_street": "at Sainte-Catherine",
                        "formatted_address": "1250 Rue de Bleury (at Sainte-Catherine), Montr\u00e9al QC H3B 2W4",
                        "locality": "Montreal",
                        "postcode": "H3B 2W4",
                        "region": "QC"
                  },
                  "name": "Nyks Bistro Pub",
                  "popularity": 0.9770888531415595,
                  "price": 2,
                  "rating": 8.6
            },
            {
                  "distance": 815,
                  "location": {
                        "address": "460 McGill Rue",
                        "country": "CA",
                        "cross_street": "",
                        "formatted_address": "460 McGill Rue, Montr\u00e9al QC H2Y 2H2",
                        "locality": "Montreal",
                        "postcode": "H2Y 2H2",
                        "region": "QC"
                  },
                  "name": "Structure Torr\u00e9facteurs - Structure Coffee Roasters",
                  "popularity": 0.9362343868281605,
                  "price": 1,
                  "rating": 8.6
            },
            {
                  "distance": 412,
                  "location": {
                        "address": "1116 Sainte-Catherine Rue O",
                        "country": "CA",
                        "cross_street": "Peel",
                        "formatted_address": "1116 Sainte-Catherine Rue O (Peel), Montr\u00e9al QC H3B 1H4",
                        "locality": "Montreal",
                        "postcode": "H3B 1H4",
                        "region": "QC"
                  },
                  "name": "Reuben's Deli",
                  "popularity": 0.9828136828160484,
                  "price": 2,
                  "rating": 8.6
            },
            {
                  "distance": 525,
                  "location": {
                        "address": "1255 Crescent Rue",
                        "country": "CA",
                        "cross_street": "Sainte-Catherine",
                        "formatted_address": "1255 Crescent Rue (Sainte-Catherine), Montr\u00e9al QC H3G 2B1",
                        "locality": "Montreal",
                        "postcode": "H3G 2B1",
                        "region": "QC"
                  },
                  "name": "Gyu-Kaku BBQ",
                  "popularity": 0.9762253974261923,
                  "price": 2,
                  "rating": 8.6,
                  "store_id": "14142"
            },
            {
                  "distance": 861,
                  "location": {
                        "address": "433 McGill Rue",
                        "country": "CA",
                        "cross_street": "St-Maurice",
                        "formatted_address": "433 McGill Rue (St-Maurice), Montr\u00e9al QC H2Y 2H1",
                        "locality": "Montreal",
                        "postcode": "H2Y 2H1",
                        "region": "QC"
                  },
                  "name": "Brit & Chips",
                  "popularity": 0.9405280090840272,
                  "price": 2,
                  "rating": 8.6
            },
            {
                  "distance": 922,
                  "location": {
                        "address": "1448 Sherbrooke Rue O",
                        "country": "CA",
                        "formatted_address": "1448 Sherbrooke Rue O, Montr\u00e9al QC H3G 1K4",
                        "locality": "Montreal",
                        "postcode": "H3G 1K4",
                        "region": "QC"
                  },
                  "name": "Cafe Aunja",
                  "popularity": 0.9581401400454201,
                  "price": 1,
                  "rating": 8.6
            },
            {
                  "distance": 967,
                  "location": {
                        "address": "1485 Ottawa Rue",
                        "country": "CA",
                        "cross_street": "coin Guy",
                        "formatted_address": "1485 Ottawa Rue (coin Guy), Montr\u00e9al QC H3C 1S9",
                        "locality": "Montreal",
                        "postcode": "H3C 1S9",
                        "region": "QC"
                  },
                  "name": "Brasseur de Montr\u00e9al",
                  "popularity": 0.9854750189250567,
                  "price": 2,
                  "rating": 8.5
            },
            {
                  "distance": 746,
                  "location": {
                        "address": "2175 rue de la Montagne",
                        "address_extended": "# 100",
                        "country": "CA",
                        "cross_street": "",
                        "formatted_address": "2175 rue de la Montagne, Montr\u00e9al QC H3G 1Z8",
                        "locality": "Montreal",
                        "postcode": "H3G 1Z8",
                        "region": "QC"
                  },
                  "name": "Bar Cloakroom",
                  "popularity": 0.9470216691900075,
                  "price": 3,
                  "rating": 8.5
            },
            {
                  "distance": 721,
                  "location": {
                        "address": "1388 Blvd de Maisonneuve O",
                        "country": "CA",
                        "cross_street": "",
                        "formatted_address": "1388 Blvd de Maisonneuve O, Montr\u00e9al QC H3G 0C8",
                        "locality": "Montreal",
                        "postcode": "H3G 0C8",
                        "region": "QC"
                  },
                  "name": "Notre-Boeuf-de-Gr\u00e2ce",
                  "popularity": 0.9788394208932627,
                  "price": 1,
                  "rating": 8.4
            },
            {
                  "distance": 350,
                  "location": {
                        "address": "1224 Drummond Rue",
                        "country": "CA",
                        "cross_street": "",
                        "formatted_address": "1224 Drummond Rue, Montr\u00e9al QC H3G 1V7",
                        "locality": "Montreal",
                        "postcode": "H3G 1V7",
                        "region": "QC"
                  },
                  "name": "Restaurant Medusa",
                  "popularity": 0.9541895344436033,
                  "price": 2,
                  "rating": 8.3
            },
            {
                  "distance": 903,
                  "location": {
                        "address": "1626 Blvd de Maisonneuve Ouest",
                        "country": "CA",
                        "cross_street": "",
                        "formatted_address": "1626 Blvd de Maisonneuve Ouest, Montr\u00e9al QC H3H 1J5",
                        "locality": "Montreal",
                        "postcode": "H3H 1J5",
                        "region": "QC"
                  },
                  "name": "Antep Kabab",
                  "popularity": 0.9862201930355791,
                  "price": 1,
                  "rating": 8.3
            },
            {
                  "distance": 372,
                  "location": {
                        "address": "1189 Rue de la Montagne",
                        "country": "CA",
                        "cross_street": "at Ren\u00e9-Levesque",
                        "formatted_address": "1189 Rue de la Montagne (at Ren\u00e9-Levesque), Montr\u00e9al QC H3G 1Z2",
                        "locality": "Montreal",
                        "postcode": "H3G 1Z2",
                        "region": "QC"
                  },
                  "name": "Ye Olde Orchard Pub & Grill",
                  "popularity": 0.9698855034065103,
                  "price": 2,
                  "rating": 8.3
            },
            {
                  "distance": 574,
                  "location": {
                        "address": "1255 Bishop Rue",
                        "country": "CA",
                        "cross_street": "",
                        "formatted_address": "1255 Bishop Rue, Montr\u00e9al QC H3G 2E2",
                        "locality": "Montreal",
                        "postcode": "H3G 2E2",
                        "region": "QC"
                  },
                  "name": "C'Cho-Colat",
                  "popularity": 0.9571110900832702,
                  "price": 1,
                  "rating": 8.2
            },
            {
                  "distance": 722,
                  "location": {
                        "address": "2020 Crescent Rue",
                        "address_extended": "coin Maisonneuve",
                        "country": "CA",
                        "cross_street": "coin Maisonneuve",
                        "formatted_address": "2020 Crescent Rue (coin Maisonneuve), Montr\u00e9al QC H3G 2B8",
                        "locality": "Montreal",
                        "postcode": "H3G 2B8",
                        "region": "QC"
                  },
                  "name": "Restaurant Boustan",
                  "popularity": 0.9724049015897047,
                  "price": 1,
                  "rating": 8.2
            },
            {
                  "distance": 967,
                  "location": {
                        "address": "1441 Saint Mathieu Rue",
                        "country": "CA",
                        "cross_street": "entre De Maisonneuve & Ste-Catherine",
                        "formatted_address": "1441 Saint Mathieu Rue (entre De Maisonneuve & Ste-Catherine), Montr\u00e9al QC H3H 2M4",
                        "locality": "Montreal",
                        "postcode": "H3H 2M4",
                        "region": "QC"
                  },
                  "name": "Otto Yakitori Izakaya",
                  "popularity": 0.9624337623012869,
                  "price": 2,
                  "rating": 8.2
            },
            {
                  "distance": 553,
                  "location": {
                        "address": "1356 Sainte-Catherine Rue O",
                        "country": "CA",
                        "cross_street": "coin Crescent",
                        "formatted_address": "1356 Sainte-Catherine Rue O (coin Crescent), Montr\u00e9al QC H3G 1P6",
                        "locality": "Montreal",
                        "postcode": "H3G 1P6",
                        "region": "QC"
                  },
                  "name": "Les 3 Brasseurs",
                  "popularity": 0.9850728614685844,
                  "price": 2,
                  "rating": 8.2
            },
            {
                  "distance": 784,
                  "location": {
                        "address": "468 McGill Rue",
                        "country": "CA",
                        "cross_street": "",
                        "formatted_address": "468 McGill Rue, Montr\u00e9al QC H2Y 2H2",
                        "locality": "Montreal",
                        "postcode": "H2Y 2H2",
                        "region": "QC"
                  },
                  "name": "Five Guys Burgers & Fries",
                  "popularity": 0.9749361279333838,
                  "price": 2,
                  "rating": 8.2,
                  "store_id": "1281"
            },
            {
                  "distance": 785,
                  "location": {
                        "address": "1515 Sainte-Catherine Rue O",
                        "country": "CA",
                        "cross_street": "boul. de Maisonneuve",
                        "formatted_address": "1515 Sainte-Catherine Rue O (boul. de Maisonneuve), Montr\u00e9al QC H3G 2W1",
                        "locality": "Montreal",
                        "postcode": "H3G 2W1",
                        "region": "QC"
                  },
                  "name": "Jugo Juice",
                  "popularity": 0.9863976154428463,
                  "price": 1,
                  "rating": 8.2
            },
            {
                  "distance": 546,
                  "location": {
                        "address": "1250 Robert-Bourassa Blvd",
                        "country": "CA",
                        "cross_street": "",
                        "formatted_address": "1250 Robert-Bourassa Blvd, Montr\u00e9al QC H3B 3B8",
                        "locality": "Montreal",
                        "postcode": "H3B 3B8",
                        "region": "QC"
                  },
                  "name": "Le East",
                  "popularity": 0.9653316616199848,
                  "price": 2,
                  "rating": 8.1
            },
            {
                  "distance": 856,
                  "location": {
                        "address": "1080 Rue de Bleury",
                        "country": "CA",
                        "cross_street": "",
                        "formatted_address": "1080 Rue de Bleury, Montr\u00e9al QC H2Z 1N2",
                        "locality": "Montreal",
                        "postcode": "H2Z 1N2",
                        "region": "QC"
                  },
                  "name": "Chifa",
                  "popularity": 0.9603165215745647,
                  "price": 2,
                  "rating": 8.0
            },
            {
                  "distance": 1003,
                  "location": {
                        "address": "1059 Wellington Rue",
                        "country": "CA",
                        "cross_street": "Rue Peel",
                        "formatted_address": "1059 Wellington Rue (Rue Peel), Montr\u00e9al QC H3C 1V6",
                        "locality": "Montreal",
                        "postcode": "H3C 1V6",
                        "region": "QC"
                  },
                  "name": "Pizzeria Moretti",
                  "popularity": 0.965237036336109,
                  "price": 2,
                  "rating": 8.0
            },
            {
                  "distance": 510,
                  "location": {
                        "address": "732 Sainte-Catherine Rue O",
                        "country": "CA",
                        "cross_street": "McGill Av.",
                        "formatted_address": "732 Sainte-Catherine Rue O (McGill Av.), Montr\u00e9al QC H3B 1B9",
                        "locality": "Montreal",
                        "postcode": "H3B 1B9",
                        "region": "QC"
                  },
                  "name": "Les 3 Brasseurs",
                  "popularity": 0.9831566994700984,
                  "price": 2,
                  "rating": 8.0
            },
            {
                  "distance": 902,
                  "location": {
                        "address": "2000 Guy Rue",
                        "country": "CA",
                        "cross_street": "coin de Maisonneuve",
                        "formatted_address": "2000 Guy Rue (coin de Maisonneuve), Montr\u00e9al QC H3H 2L8",
                        "locality": "Montreal",
                        "postcode": "H3H 2L8",
                        "region": "QC"
                  },
                  "name": "Starbucks",
                  "popularity": 0.9943106548069645,
                  "price": 2,
                  "rating": 7.8,
                  "store_id": "4056-140777"
            },
            {
                  "distance": 990,
                  "location": {
                        "address": "1684 Blvd Maisonneuve Ouest",
                        "country": "CA",
                        "cross_street": "St. Mathieu",
                        "formatted_address": "1684 Blvd Maisonneuve Ouest (St. Mathieu), Montr\u00e9al QC H3H 1J7",
                        "locality": "Montreal",
                        "postcode": "H3H 1J7",
                        "region": "QC"
                  },
                  "name": "All\u00f4! Mon Coco",
                  "popularity": 0.9630843111279334,
                  "price": 1,
                  "rating": 7.8
            },
            {
                  "distance": 236,
                  "location": {
                        "address": "1221 Rene-Levesque Blvd O",
                        "country": "CA",
                        "cross_street": "coin Drummond",
                        "formatted_address": "1221 Rene-Levesque Blvd O (coin Drummond), Montr\u00e9al QC H3G 1T1",
                        "locality": "Montreal",
                        "postcode": "H3G 1T1",
                        "region": "QC"
                  },
                  "name": "Bier Markt",
                  "popularity": 0.9826244322482968,
                  "price": 2,
                  "rating": 7.7,
                  "store_id": "4862"
            },
            {
                  "distance": 819,
                  "location": {
                        "address": "2002 MacKay Rue",
                        "country": "CA",
                        "cross_street": "De Maisonneuve",
                        "formatted_address": "2002 MacKay Rue (De Maisonneuve), Montr\u00e9al QC H3G 2J1",
                        "locality": "Montreal",
                        "postcode": "H3G 2J1",
                        "region": "QC"
                  },
                  "name": "Hinnawi Bros Bagel & Caf\u00e9",
                  "popularity": 0.97194360333081,
                  "price": 1,
                  "rating": 7.7
            },
            {
                  "distance": 779,
                  "location": {
                        "address": "2065A Bishop Rue",
                        "country": "CA",
                        "cross_street": "",
                        "formatted_address": "2065A Bishop Rue, Montr\u00e9al QC H3G 2E8",
                        "locality": "Montreal",
                        "postcode": "H3G 2E8",
                        "region": "QC"
                  },
                  "name": "Ramen Misoya",
                  "popularity": 0.9683360143830432,
                  "price": 2,
                  "rating": 7.7
            },
            {
                  "distance": 438,
                  "location": {
                        "address": "1198 Sainte-Catherine Rue O",
                        "country": "CA",
                        "formatted_address": "1198 Sainte-Catherine Rue O, Montr\u00e9al QC H3B 1K1",
                        "locality": "Montreal",
                        "postcode": "H3B 1K1",
                        "region": "QC"
                  },
                  "name": "Mister Steer Restaurant",
                  "popularity": 0.9775974640423921,
                  "price": 1,
                  "rating": 7.7
            },
            {
                  "distance": 415,
                  "location": {
                        "address": "1 Ville-Marie Pl",
                        "country": "CA",
                        "cross_street": "Robert-Bourassa",
                        "formatted_address": "1 Ville-Marie Pl (Robert-Bourassa), Montr\u00e9al QC H3B 2C4",
                        "locality": "Montreal",
                        "postcode": "H3B 2C4",
                        "region": "QC"
                  },
                  "name": "Les Enfants Terribles",
                  "popularity": 0.9822814155942468,
                  "price": 3,
                  "rating": 7.7
            },
            {
                  "distance": 680,
                  "location": {
                        "address": "1426 Bishop Rue",
                        "country": "CA",
                        "cross_street": "btwn boul. de Maisonneuve O & rue Ste-Catherine O",
                        "formatted_address": "1426 Bishop Rue (btwn boul. de Maisonneuve O & rue Ste-Catherine O), Montr\u00e9al QC H3G 2E6",
                        "locality": "Montreal",
                        "postcode": "H3G 2E6",
                        "region": "QC"
                  },
                  "name": "McKibbin's Irish Pub",
                  "popularity": 0.9896030469341408,
                  "price": 2,
                  "rating": 7.7
            }
      ],
      "context": {
            "geo_bounds": {
                  "circle": {
                        "center": {
                              "latitude": 45.49788353,
                              "longitude": -73.56856763
                        },
                        "radius": 1000
                  }
            }
      }
}