{
      "results": [
            {
                  "distance": 932,
                  "location": {
                        "address": "6892 Victoria Ave",
                        "country": "CA",
                        "formatted_address": "6892 Victoria Ave, Montr\u00e9al QC H3W 2T4",
                        "locality": "Montreal",
                        "postcode": "H3W 2T4",
                        "region": "QC"
                  },
                  "name": "Caribbean Curry House",
                  "popularity": 0.9865986941710825,
                  "price": 2,
                  "rating": 8.3
            },
            {
                  "distance": 825,
                  "location": {
                        "address": "7340 Decarie Blvd",
                        "country": "CA",
                        "cross_street": "Rue des Jockeys",
                        "formatted_address": "7340 Decarie Blvd (Rue des Jockeys), Montr\u00e9al QC H4P 2N1",
                        "locality": "Montreal",
                        "postcode": "H4P 2N1",
                        "region": "QC"
                  },
                  "name": "Wendy's",
                  "popularity": 0.9891535768357305,
                  "price": 1,
                  "rating": 8.2,
                  "store_id": "6663"
            },
            {
                  "distance": 981,
                  "location": {
                        "address": "4759 Van Horne Ave",
                        "country": "CA",
                        "cross_street": "",
                        "formatted_address": "4759 Van Horne Ave, Montr\u00e9al QC H3W 1H8",
                        "locality": "Montreal",
                        "postcode": "H3W 1H8",
                        "region": "QC"
                  },
                  "name": "Thanjai Restaurant",
                  "popularity": 0.9719317751703255,
                  "price": 2,
                  "rating": 8.1
            },
            {
                  "distance": 886,
                  "location": {
                        "address": "5385 des Jockeys Rue",
                        "country": "CA",
                        "formatted_address": "5385 des Jockeys Rue, Montr\u00e9al QC H4P 2T8",
                        "locality": "Montreal",
                        "postcode": "H4P 2T8",
                        "region": "QC"
                  },
                  "name": "B\u00e2ton Rouge Steakhouse & Bar",
                  "popularity": 0.9934353709311128,
                  "price": 3,
                  "rating": 7.9,
                  "store_id": "4016"
            },
            {
                  "distance": 919,
                  "location": {
                        "address": "6625 Victoria Ave",
                        "country": "CA",
                        "cross_street": "",
                        "formatted_address": "6625 Victoria Ave, Montr\u00e9al QC H3W 2T2",
                        "locality": "Montreal",
                        "postcode": "H3W 2T2",
                        "region": "QC"
                  },
                  "name": "KFC",
                  "popularity": 0.9919450227100681,
                  "price": 1,
                  "rating": 7.4,
                  "store_id": "1257"
            },
            {
                  "distance": 943,
                  "location": {
                        "address": "4795 Van Horne Ave",
                        "country": "CA",
                        "cross_street": "coin Victoria",
                        "formatted_address": "4795 Van Horne Ave (coin Victoria), Montr\u00e9al QC H3W 1H8",
                        "locality": "Montreal",
                        "postcode": "H3W 1H8",
                        "region": "QC"
                  },
                  "name": "Second Cup Coffee Co",
                  "popularity": 0.9732920136260409,
                  "price": 1,
                  "rating": 7.1,
                  "store_id": "3115"
            },
            {
                  "distance": 724,
                  "location": {
                        "address": "5300 Jean-Talon Rue O",
                        "country": "CA",
                        "cross_street": "",
                        "formatted_address": "5300 Jean-Talon Rue O, Montr\u00e9al QC H4P 2T5",
                        "locality": "Montreal",
                        "postcode": "H4P 2T5",
                        "region": "QC"
                  },
                  "name": "Burger King",
                  "popularity": 0.9929267600302801,
                  "price": 1,
                  "rating": 6.8,
                  "store_id": "8497"
            },
            {
                  "distance": 837,
                  "location": {
                        "address": "7340 Decarie Blvd",
                        "country": "CA",
                        "cross_street": "Jean-Talon",
                        "formatted_address": "7340 Decarie Blvd (Jean-Talon), Montr\u00e9al QC H4P 2N1",
                        "locality": "Montreal",
                        "postcode": "H4P 2N1",
                        "region": "QC"
                  },
                  "name": "Tim Hortons",
                  "popularity": 0.9927611657834974,
                  "price": 1,
                  "rating": 6.7
            },
            {
                  "distance": 730,
                  "location": {
                        "address": "7373 Decarie Blvd",
                        "country": "CA",
                        "cross_street": "",
                        "formatted_address": "7373 Decarie Blvd, Montr\u00e9al QC H4P 2G8",
                        "locality": "Montreal",
                        "postcode": "H4P 2G8",
                        "region": "QC"
                  },
                  "name": "Kanda Sushi Bar",
                  "popularity": 0.978602857683573,
                  "price": 2,
                  "rating": 6.5
            },
            {
                  "distance": 944,
                  "location": {
                        "address": "6225 Victoria Ave",
                        "country": "CA",
                        "cross_street": "Avenue Van Horne",
                        "formatted_address": "6225 Victoria Ave (Avenue Van Horne), Montr\u00e9al QC H3W 2S2",
                        "locality": "Montreal",
                        "postcode": "H3W 2S2",
                        "region": "QC"
                  },
                  "name": "Subway",
                  "popularity": 0.8172785768357305,
                  "price": 1,
                  "rating": 6.4,
                  "store_id": "42698"
            },
            {
                  "distance": 734,
                  "location": {
                        "address": "5510 Jean-Talon Rue O",
                        "address_extended": "SmartCentres Montreal Decarie",
                        "country": "CA",
                        "cross_street": "",
                        "formatted_address": "5510 Jean-Talon Rue O, Montr\u00e9al QC H4P 2T5",
                        "locality": "Montreal",
                        "postcode": "H4P 2T5",
                        "region": "QC"
                  },
                  "name": "Thai Express",
                  "popularity": 0.9781888720666162,
                  "price": 2,
                  "rating": 6.4
            },
            {
                  "distance": 862,
                  "location": {
                        "address": "4819 Van Horne Ave",
                        "country": "CA",
                        "cross_street": "entre Lemieux et Victoria",
                        "formatted_address": "4819 Van Horne Ave (entre Lemieux et Victoria), Montr\u00e9al QC H3W 1J2",
                        "locality": "Montreal",
                        "postcode": "H3W 1J2",
                        "region": "QC"
                  },
                  "name": "Tim Hortons",
                  "popularity": 0.9886213096139288,
                  "price": 1,
                  "rating": 6.3
            },
            {
                  "distance": 886,
                  "location": {
                        "address": "7475 Decarie Blvd",
                        "country": "CA",
                        "cross_street": "",
                        "formatted_address": "7475 Decarie Blvd, Montr\u00e9al QC H4P 2G9",
                        "locality": "Montreal",
                        "postcode": "H4P 2G9",
                        "region": "QC"
                  },
                  "name": "Harvey's",
                  "popularity": 0.9934235427706283,
                  "price": 2,
                  "rating": 6.1,
                  "store_id": "2346"
            },
            {
                  "distance": 929,
                  "location": {
                        "address": "7555 Decarie Blvd",
                        "country": "CA",
                        "cross_street": "",
                        "formatted_address": "7555 Decarie Blvd, Montreal QC H4P 2G9",
                        "locality": "Montreal",
                        "postcode": "H4P 2G9",
                        "region": "QC"
                  },
                  "name": "La Belle Province",
                  "popularity": 0.9688682816048448,
                  "price": 1,
                  "rating": 5.8
            },
            {
                  "distance": 965,
                  "location": {
                        "address": "7570 Decarie Blvd",
                        "country": "CA",
                        "formatted_address": "7570 Decarie Blvd, Montr\u00e9al QC H4P 2N1",
                        "locality": "Montreal",
                        "postcode": "H4P 2N1",
                        "region": "QC"
                  },
                  "name": "McDonald's",
                  "popularity": 0.9980010408781226,
                  "price": 1,
                  "rating": 5.4,
                  "store_id": "40220"
            },
            {
                  "distance": 328,
                  "location": {
                        "address": "6900 Decarie Blvd",
                        "address_extended": "M240",
                        "country": "CA",
                        "cross_street": "",
                        "formatted_address": "6900 Decarie Blvd, Montr\u00e9al QC H3X 2T8",
                        "locality": "Montreal",
                        "postcode": "H3X 2T8",
                        "region": "QC"
                  },
                  "name": "Elna Bistro",
                  "popularity": 0.96875
            },
            {
                  "distance": 412,
                  "location": {
                        "address": "6939 Blvd D\u00e9carie",
                        "country": "CA",
                        "cross_street": "",
                        "formatted_address": "6939 Blvd D\u00e9carie, Montr\u00e9al QC H3W 3C1",
                        "locality": "Montreal",
                        "postcode": "H3W 3C1",
                        "region": "QC"
                  },
                  "name": "Blandino",
                  "popularity": 0.9300600870552612,
                  "price": 2
            },
            {
                  "distance": 795,
                  "location": {
                        "address": "5150 Jean-Talon Rue O",
                        "country": "CA",
                        "cross_street": "Mountain sights",
                        "formatted_address": "5150 Jean-Talon Rue O (Mountain sights), Montr\u00e9al QC H4P 1W9",
                        "locality": "Montreal",
                        "postcode": "H4P 1W9",
                        "region": "QC"
                  },
                  "name": "Boustan",
                  "popularity": 0.9758587244511734,
                  "price": 2
            },
            {
                  "distance": 828,
                  "location": {
                        "address": "5475 des Jockeys Rue",
                        "country": "CA",
                        "cross_street": "",
                        "formatted_address": "5475 des Jockeys Rue, Montr\u00e9al QC H4P 2T7",
                        "locality": "Montreal",
                        "postcode": "H4P 2T7",
                        "region": "QC"
                  },
                  "name": "Bomboloni Boss",
                  "popularity": 0.7915404996214989,
                  "price": 1
            },
            {
                  "distance": 849,
                  "location": {
                        "address": "5485 des Jockeys Rue",
                        "country": "CA",
                        "cross_street": "",
                        "formatted_address": "5485 des Jockeys Rue, Montr\u00e9al QC H4P 2T7",
                        "locality": "Montreal",
                        "postcode": "H4P 2T7",
                        "region": "QC"
                  },
                  "name": "La Cage",
                  "popularity": 0.9657574753974262,
                  "price": 2
            },
            {
                  "distance": 872,
                  "location": {
                        "address": "5405 des Jockeys Rue",
                        "address_extended": "Unit E2",
                        "country": "CA",
                        "cross_street": "",
                        "formatted_address": "5405 des Jockeys Rue, Montr\u00e9al QC H4P 2T7",
                        "locality": "Montreal",
                        "postcode": "H4P 2T7",
                        "region": "QC"
                  },
                  "name": "All\u00f4! Mon Coco",
                  "popularity": 0.9835233724451173,
                  "price": 1
            },
            {
                  "distance": 887,
                  "location": {
                        "address": "5505 Decarie Blvd",
                        "country": "CA",
                        "cross_street": "",
                        "formatted_address": "5505 Decarie Blvd, Montreal QC H3W 3C7",
                        "locality": "Montreal",
                        "postcode": "H3W 3C7",
                        "region": "QC"
                  },
                  "name": "Vodka Bar Inc",
                  "popularity": 0.7083648750946253,
                  "price": 2
            },
            {
                  "distance": 974,
                  "location": {
                        "address": "4759 Van Horne Ave",
                        "country": "CA",
                        "cross_street": "victoria",
                        "formatted_address": "4759 Van Horne Ave (victoria), Montr\u00e9al QC H3W 1H8",
                        "locality": "Montreal",
                        "postcode": "H3W 1H8",
                        "region": "QC"
                  },
                  "name": "Fireside Steakhouse",
                  "popularity": 0.4522497161241484,
                  "price": 4
            },
            {
                  "distance": 978,
                  "location": {
                        "address": "5940 Victoria Ave",
                        "country": "CA",
                        "cross_street": "",
                        "formatted_address": "5940 Victoria Ave, Montr\u00e9al QC H3W 2R8",
                        "locality": "Montreal",
                        "postcode": "H3W 2R8",
                        "region": "QC"
                  },
                  "name": "Pinoy Pansitan",
                  "popularity": 0.971647899318698,
                  "price": 2
            },
            {
                  "distance": 1012,
                  "location": {
                        "address": "4735 Van Horne Ave",
                        "country": "CA",
                        "cross_street": "",
                        "formatted_address": "4735 Van Horne Ave, Montr\u00e9al QC H3W 1H8",
                        "locality": "Montreal",
                        "postcode": "H3W 1H8",
                        "region": "QC"
                  },
                  "name": "La Paz Batchoy Montr\u00e9al",
                  "popularity": 0.8814463474640424,
                  "price": 2
            },
            {
                  "distance": 211,
                  "location": {
                        "address": "6456 MacDonald Ave",
                        "country": "CA",
                        "formatted_address": "6456 MacDonald Ave, Hampstead QC H3X 2X2",
                        "locality": "Hampstead",
                        "postcode": "H3X 2X2",
                        "region": "QC"
                  },
                  "name": "May's Gf"
            },
            {
                  "distance": 284,
                  "location": {
                        "address": "6445 Decarie Blvd",
                        "country": "CA",
                        "formatted_address": "6445 Decarie Blvd, Montreal QC H3W 3E1",
                        "locality": "Montreal",
                        "postcode": "H3W 3E1",
                        "region": "QC"
                  },
                  "name": "Luzzatto"
            },
            {
                  "distance": 322,
                  "location": {
                        "address": "Sq 6900 Blvd",
                        "address_extended": "Suite 202",
                        "country": "CA",
                        "formatted_address": "Sq 6900 Blvd, Montreal QC",
                        "locality": "Montreal",
                        "region": "QC"
                  },
                  "name": "I&C Cafe Home of the I&C Lite Muffins"
            },
            {
                  "distance": 344,
                  "location": {
                        "address": "6775 Decarie Blvd",
                        "country": "CA",
                        "formatted_address": "6775 Decarie Blvd, Montreal QC H3W 3E3",
                        "locality": "Montreal",
                        "postcode": "H3W 3E3",
                        "region": "QC"
                  },
                  "name": "Cafe Calypso"
            },
            {
                  "distance": 390,
                  "location": {
                        "address": "6640 Mtn Sights Ave",
                        "country": "CA",
                        "formatted_address": "6640 Mtn Sights Ave, Montreal QC H3W 2Z6",
                        "locality": "Montreal",
                        "postcode": "H3W 2Z6",
                        "region": "QC"
                  },
                  "name": "Chaim Shpigelman"
            },
            {
                  "distance": 591,
                  "location": {
                        "address": "5291 de Courtrai",
                        "country": "CA",
                        "formatted_address": "5291 de Courtrai, Montreal QC H3W 0B1",
                        "locality": "Montreal",
                        "postcode": "H3W 0B1",
                        "region": "QC"
                  },
                  "name": "Starbucks",
                  "store_id": "62617-294099"
            },
            {
                  "distance": 748,
                  "location": {
                        "address": "5372 Jean Talon Rue O",
                        "country": "CA",
                        "formatted_address": "5372 Jean Talon Rue O, Montreal QC H4P 2T5",
                        "locality": "Montreal",
                        "postcode": "H4P 2T5",
                        "region": "QC"
                  },
                  "name": "Classico Burger"
            },
            {
                  "distance": 877,
                  "location": {
                        "address": "6320 Victoria Ave",
                        "country": "CA",
                        "formatted_address": "6320 Victoria Ave, Montreal QC H3W 2S4",
                        "locality": "Montreal",
                        "postcode": "H3W 2S4",
                        "region": "QC"
                  },
                  "name": "Kusinamiya Cuisine Amia"
            },
            {
                  "distance": 947,
                  "location": {
                        "address": "4795 Van Horne Ave",
                        "country": "CA",
                        "formatted_address": "4795 Van Horne Ave, Montreal QC H3W 1H8",
                        "locality": "Montreal",
                        "postcode": "H3W 1H8",
                        "region": "QC"
                  },
                  "name": "Second Cup CAF\u00c9 & Cie avec Pinkberry yogourt glac\u00e9"
            },
            {
                  "distance": 962,
                  "location": {
                        "address": "4900 Jean-Talon Rue O",
                        "country": "CA",
                        "formatted_address": "4900 Jean-Talon Rue O, Montreal QC H4P 1W9",
                        "locality": "Montreal",
                        "postcode": "H4P 1W9",
                        "region": "QC"
                  },
                  "name": "Mc Donald S"
            }
      ],
      "context": {
            "geo_bounds": {
                  "circle": {
                        "center": {
                              "latitude": 45.48911309,
                              "longitude": -73.64701286
                        },
                        "radius": 1000
                  }
            }
      }
}