{
      "results": [
            {
                  "distance": 201,
                  "location": {
                        "address": "5485 Victoria Ave",
                        "country": "CA",
                        "cross_street": "Saint-Kevin",
                        "formatted_address": "5485 Victoria Ave (Saint-Kevin), Montr\u00e9al QC H3W 2P9",
                        "locality": "Montreal",
                        "postcode": "H3W 2P9",
                        "region": "QC"
                  },
                  "name": "Restaurant Hoai Huong",
                  "popularity": 0.9431420325510976,
                  "price": 1,
                  "rating": 8.5
            },
            {
                  "distance": 927,
                  "location": {
                        "address": "5703B de la Cote-Des-Neiges Ch",
                        "country": "CA",
                        "cross_street": "C\u00f4te-St-Catherine",
                        "formatted_address": "5703B de la Cote-Des-Neiges Ch (C\u00f4te-St-Catherine), Montr\u00e9al QC H3S 1Y7",
                        "locality": "Montreal",
                        "postcode": "H3S 1Y7",
                        "region": "QC"
                  },
                  "name": "Restaurant Pho Lien",
                  "popularity": 0.9779523088569265,
                  "price": 2,
                  "rating": 8.4
            },
            {
                  "distance": 981,
                  "location": {
                        "address": "5400 Ch de la C\u00f4te-des-Neiges",
                        "country": "CA",
                        "cross_street": "coin \u00c9douard-Montpetit",
                        "formatted_address": "5400 Ch de la C\u00f4te-des-Neiges (coin \u00c9douard-Montpetit), Montr\u00e9al QC H3T 1Y5",
                        "locality": "Montreal",
                        "postcode": "H3T 1Y5",
                        "region": "QC"
                  },
                  "name": "McCarold",
                  "popularity": 0.985333080999243,
                  "price": 2,
                  "rating": 8.2
            },
            {
                  "distance": 739,
                  "location": {
                        "address": "5265 Decarie Blvd",
                        "country": "CA",
                        "cross_street": "Isabella",
                        "formatted_address": "5265 Decarie Blvd (Isabella), Montr\u00e9al QC H3W 3C2",
                        "locality": "Montreal",
                        "postcode": "H3W 3C2",
                        "region": "QC"
                  },
                  "name": "Snowdon Deli",
                  "popularity": 0.9864922407267221,
                  "price": 2,
                  "rating": 7.9
            },
            {
                  "distance": 890,
                  "location": {
                        "address": "5136 Decarie Blvd",
                        "country": "CA",
                        "cross_street": "",
                        "formatted_address": "5136 Decarie Blvd, Montreal QC H3X 2H9",
                        "locality": "Hampstead",
                        "postcode": "H3X 2H9",
                        "region": "QC"
                  },
                  "name": "Pho 88",
                  "popularity": 0.9451055071915215,
                  "price": 2,
                  "rating": 7.9
            },
            {
                  "distance": 102,
                  "location": {
                        "address": "5690 Victoria Ave",
                        "country": "CA",
                        "cross_street": "C\u00f4te St-Catherine",
                        "formatted_address": "5690 Victoria Ave (C\u00f4te St-Catherine), Montr\u00e9al QC H3W 2P8",
                        "locality": "Montreal",
                        "postcode": "H3W 2P8",
                        "region": "QC"
                  },
                  "name": "Sen Vang",
                  "popularity": 0.9870363361090083,
                  "price": 2,
                  "rating": 7.9
            },
            {
                  "distance": 766,
                  "location": {
                        "address": "5208 Decarie Blvd",
                        "country": "CA",
                        "cross_street": "",
                        "formatted_address": "5208 Decarie Blvd, Montr\u00e9al QC H3X 2H9",
                        "locality": "Montreal",
                        "postcode": "H3X 2H9",
                        "region": "QC"
                  },
                  "name": "Tropical Paradise",
                  "popularity": 0.9385527062831188,
                  "price": 2,
                  "rating": 7.9
            },
            {
                  "distance": 933,
                  "location": {
                        "address": "5685 Ch C\u00f4te-Des-Neiges",
                        "country": "CA",
                        "cross_street": "",
                        "formatted_address": "5685 Ch C\u00f4te-Des-Neiges, Montr\u00e9al QC H3T 1Y8",
                        "locality": "Montreal",
                        "postcode": "H3T 1Y8",
                        "region": "QC"
                  },
                  "name": "All\u00f4! Mon Coco",
                  "popularity": 0.9823523845571537,
                  "price": 1,
                  "rating": 7.6
            },
            {
                  "distance": 824,
                  "location": {
                        "address": "6625 Victoria Ave",
                        "country": "CA",
                        "cross_street": "",
                        "formatted_address": "6625 Victoria Ave, Montr\u00e9al QC H3W 2T2",
                        "locality": "Montreal",
                        "postcode": "H3W 2T2",
                        "region": "QC"
                  },
                  "name": "KFC",
                  "popularity": 0.9919450227100681,
                  "price": 1,
                  "rating": 7.4,
                  "store_id": "1257"
            },
            {
                  "distance": 789,
                  "location": {
                        "address": "5095 Queen Mary Ch",
                        "country": "CA",
                        "cross_street": "Westbury",
                        "formatted_address": "5095 Queen Mary Ch (Westbury), Montr\u00e9al QC H3W 1X4",
                        "locality": "Montreal",
                        "postcode": "H3W 1X4",
                        "region": "QC"
                  },
                  "name": "Tim Hortons",
                  "popularity": 0.9688091408024224,
                  "price": 1,
                  "rating": 6.8
            },
            {
                  "distance": 944,
                  "location": {
                        "address": "5540-A C\u00f4TE-DES-NEIGES",
                        "country": "CA",
                        "cross_street": "",
                        "formatted_address": "5540-A C\u00f4TE-DES-NEIGES, Montr\u00e9al QC",
                        "locality": "Montreal",
                        "region": "QC"
                  },
                  "name": "Ngan Dinh",
                  "popularity": 0.9620670893262679,
                  "price": 2,
                  "rating": 6.7
            },
            {
                  "distance": 811,
                  "location": {
                        "address": "5071 Queen Mary Rd",
                        "country": "CA",
                        "cross_street": "",
                        "formatted_address": "5071 Queen Mary Rd, Montr\u00e9al QC H3W 1X4",
                        "locality": "Montreal",
                        "postcode": "H3W 1X4",
                        "region": "QC"
                  },
                  "name": "Second Cup CAF\u00c9 & Cie avec Pinkberry yogourt glac\u00e9",
                  "popularity": 0.9350870552611658,
                  "price": 1,
                  "rating": 6.4
            },
            {
                  "distance": 979,
                  "location": {
                        "address": "6000 Ch de la C\u00f4te-des-Neiges",
                        "country": "CA",
                        "cross_street": "Avenue Linton",
                        "formatted_address": "6000 Ch de la C\u00f4te-des-Neiges (Avenue Linton), Montr\u00e9al QC H3S 1Z8",
                        "locality": "Montreal",
                        "postcode": "H3S 1Z8",
                        "region": "QC"
                  },
                  "name": "Second Cup",
                  "popularity": 0.9513507759273278,
                  "price": 1,
                  "rating": 6.3
            },
            {
                  "distance": 887,
                  "location": {
                        "address": "3700 Ch de la C\u00f4te-sainte-catherine",
                        "country": "CA",
                        "cross_street": "",
                        "formatted_address": "3700 Ch de la C\u00f4te-sainte-catherine, Montr\u00e9al QC H3T 1E1",
                        "locality": "Montreal",
                        "postcode": "H3T 1E1",
                        "region": "QC"
                  },
                  "name": "Tim Hortons",
                  "popularity": 0.9728543716881151,
                  "price": 1,
                  "rating": 6.2
            },
            {
                  "distance": 3529,
                  "location": {
                        "address": "5177 Decarie Blvd",
                        "country": "CA",
                        "cross_street": "at Cornation",
                        "formatted_address": "5177 Decarie Blvd (at Cornation), Montr\u00e9al QC H3W 3C2",
                        "locality": "Montreal",
                        "postcode": "H3W 3C2",
                        "region": "QC"
                  },
                  "name": "Souvlaki George",
                  "popularity": 0.9824233535200606,
                  "price": 3,
                  "rating": 6.2
            },
            {
                  "distance": 833,
                  "location": {
                        "address": "5180 Decarie Blvd",
                        "country": "CA",
                        "cross_street": "",
                        "formatted_address": "5180 Decarie Blvd, Montr\u00e9al QC H3X 2H9",
                        "locality": "Montreal",
                        "postcode": "H3X 2H9",
                        "region": "QC"
                  },
                  "name": "Wendy's",
                  "popularity": 0.9889170136260409,
                  "price": 1,
                  "rating": 6.1,
                  "store_id": "6630"
            },
            {
                  "distance": 817,
                  "location": {
                        "address": "5155 Queen-Mary Ch",
                        "country": "CA",
                        "cross_street": "Station Snowdon",
                        "formatted_address": "5155 Queen-Mary Ch (Station Snowdon), Montr\u00e9al QC H3W 1X6",
                        "locality": "Montreal",
                        "postcode": "H3W 1X6",
                        "region": "QC"
                  },
                  "name": "McDonald's",
                  "popularity": 0.9941214042392127,
                  "price": 1,
                  "rating": 6.0,
                  "store_id": "13766"
            },
            {
                  "distance": 231,
                  "location": {
                        "address": "5487 Victoria Ave",
                        "country": "CA",
                        "cross_street": "",
                        "formatted_address": "5487 Victoria Ave, Montr\u00e9al QC H3W 2P9",
                        "locality": "Montreal",
                        "postcode": "H3W 2P9",
                        "region": "QC"
                  },
                  "name": "Pizza Gourmetti",
                  "popularity": 0.9082962717638153,
                  "price": 3
            },
            {
                  "distance": 296,
                  "location": {
                        "address": "5940 Victoria Ave",
                        "country": "CA",
                        "cross_street": "",
                        "formatted_address": "5940 Victoria Ave, Montr\u00e9al QC H3W 2R8",
                        "locality": "Montreal",
                        "postcode": "H3W 2R8",
                        "region": "QC"
                  },
                  "name": "Pinoy Pansitan",
                  "popularity": 0.971647899318698,
                  "price": 2
            },
            {
                  "distance": 485,
                  "location": {
                        "address": "4759 Van Horne Ave",
                        "country": "CA",
                        "cross_street": "victoria",
                        "formatted_address": "4759 Van Horne Ave (victoria), Montr\u00e9al QC H3W 1H8",
                        "locality": "Montreal",
                        "postcode": "H3W 1H8",
                        "region": "QC"
                  },
                  "name": "Fireside Steakhouse",
                  "popularity": 0.4522497161241484,
                  "price": 4
            },
            {
                  "distance": 521,
                  "location": {
                        "address": "4655 Van Horne Ave",
                        "country": "CA",
                        "cross_street": "",
                        "formatted_address": "4655 Van Horne Ave, Montr\u00e9al QC H3W 1H8",
                        "locality": "Montreal",
                        "postcode": "H3W 1H8",
                        "region": "QC"
                  },
                  "name": "Domino's Pizza",
                  "popularity": 0.9313730128690386,
                  "price": 1,
                  "store_id": "10707"
            },
            {
                  "distance": 809,
                  "location": {
                        "address": "4986B Queen Mary Ch",
                        "country": "CA",
                        "cross_street": "",
                        "formatted_address": "4986B Queen Mary Ch, Montr\u00e9al QC H3W 1X2",
                        "locality": "Montreal",
                        "postcode": "H3W 1X2",
                        "region": "QC"
                  },
                  "name": "One More Th\u00e9",
                  "popularity": 0.7747090272520818,
                  "price": 1
            },
            {
                  "distance": 866,
                  "location": {
                        "address": "5202 Queen-Mary Ch",
                        "country": "CA",
                        "cross_street": "Trans Island",
                        "formatted_address": "5202 Queen-Mary Ch (Trans Island), Montr\u00e9al QC H3W 1X5",
                        "locality": "Montreal",
                        "postcode": "H3W 1X5",
                        "region": "QC"
                  },
                  "name": "Finegan's Irish Pub",
                  "popularity": 0.8670278198334594,
                  "price": 2
            },
            {
                  "distance": 904,
                  "location": {
                        "address": "3680 Ch de la C\u00f4te-Sainte-Catherine",
                        "country": "CA",
                        "cross_street": "",
                        "formatted_address": "3680 Ch de la C\u00f4te-Sainte-Catherine, Montr\u00e9al QC H3T 1E1",
                        "locality": "Montreal",
                        "postcode": "H3T 1E1",
                        "region": "QC"
                  },
                  "name": "Quesada Burritos and Tacos",
                  "popularity": 0.977964137017411
            },
            {
                  "distance": 946,
                  "location": {
                        "address": "5693 ch de la cote-des-Neiges",
                        "country": "CA",
                        "cross_street": "C\u00f4te des Neiges",
                        "formatted_address": "5693 ch de la cote-des-Neiges (C\u00f4te des Neiges), Montr\u00e9al QC H3S 1Y7",
                        "locality": "Montreal",
                        "postcode": "H3S 1Y7",
                        "region": "QC"
                  },
                  "name": "Caf\u00e9 Nido",
                  "popularity": 0.8397402535957608,
                  "price": 2
            },
            {
                  "distance": 950,
                  "location": {
                        "address": "5647 Ch de la C\u00f4te-des-Neiges",
                        "country": "CA",
                        "cross_street": "",
                        "formatted_address": "5647 Ch de la C\u00f4te-des-Neiges, Montr\u00e9al QC H3T 1Y8",
                        "locality": "Montreal",
                        "postcode": "H3T 1Y8",
                        "region": "QC"
                  },
                  "name": "La Diperie",
                  "popularity": 0.9308998864496594,
                  "price": 1
            },
            {
                  "distance": 954,
                  "location": {
                        "address": "5536A de la Cote-Des-Neiges Ch",
                        "country": "CA",
                        "cross_street": "rue St-Laurent",
                        "formatted_address": "5536A de la Cote-Des-Neiges Ch (rue St-Laurent), Montr\u00e9al QC H3T 1Y9",
                        "locality": "Montreal",
                        "postcode": "H3T 1Y9",
                        "region": "QC"
                  },
                  "name": "Le Petit Vibe",
                  "popularity": 0.9580336866010598,
                  "price": 2
            },
            {
                  "distance": 955,
                  "location": {
                        "address": "5470 Ch. de la C\u00f4te des Neiges",
                        "country": "CA",
                        "cross_street": "",
                        "formatted_address": "5470 Ch. de la C\u00f4te des Neiges, Montr\u00e9al QC H3T 1Y5",
                        "locality": "Montreal",
                        "postcode": "H3T 1Y5",
                        "region": "QC"
                  },
                  "name": "Mont Tacos",
                  "popularity": 0.8148892884178652,
                  "price": 3
            },
            {
                  "distance": 969,
                  "location": {
                        "address": "5412 Cote des Neiges Rd",
                        "country": "CA",
                        "cross_street": "",
                        "formatted_address": "5412 Cote des Neiges Rd, Montr\u00e9al QC H3T 1Y5",
                        "locality": "Montreal",
                        "postcode": "H3T 1Y5",
                        "region": "QC"
                  },
                  "name": "L2 Lounge Cote des Neiges",
                  "popularity": 0.8827829295987888
            },
            {
                  "distance": 1056,
                  "location": {
                        "address": "5412 ch de la C\u00f4te-des-Neiges",
                        "country": "CA",
                        "cross_street": "",
                        "formatted_address": "5412 ch de la C\u00f4te-des-Neiges, Montr\u00e9al QC H3T 1Y5",
                        "locality": "Montreal",
                        "postcode": "H3T 1Y5",
                        "region": "QC"
                  },
                  "name": "M Star Sandwich",
                  "popularity": 0.8849711392884179,
                  "price": 1
            },
            {
                  "distance": 244,
                  "location": {
                        "address": "5473 Victoria Ave",
                        "country": "CA",
                        "formatted_address": "5473 Victoria Ave, Montreal QC H3W 2P7",
                        "locality": "Montreal",
                        "postcode": "H3W 2P7",
                        "region": "QC"
                  },
                  "name": "Restaurant Pho Bac"
            },
            {
                  "distance": 331,
                  "location": {
                        "address": "5997 Victoria Ave",
                        "country": "CA",
                        "formatted_address": "5997 Victoria Ave, Montreal QC H3W 2R9",
                        "locality": "Montreal",
                        "postcode": "H3W 2R9",
                        "region": "QC"
                  },
                  "name": "Restaurant Al's C\u00f4te-des-Neiges"
            },
            {
                  "distance": 550,
                  "location": {
                        "address": "6320 Victoria Ave",
                        "country": "CA",
                        "formatted_address": "6320 Victoria Ave, Montreal QC H3W 2S4",
                        "locality": "Montreal",
                        "postcode": "H3W 2S4",
                        "region": "QC"
                  },
                  "name": "Kusinamiya Cuisine Amia"
            },
            {
                  "distance": 786,
                  "location": {
                        "address": "5220 Decarie Blvd",
                        "country": "CA",
                        "formatted_address": "5220 Decarie Blvd, Montreal QC H3X 2H9",
                        "locality": "Montreal",
                        "postcode": "H3X 2H9",
                        "region": "QC"
                  },
                  "name": "Ristorante Riventino Decarie"
            },
            {
                  "distance": 858,
                  "location": {
                        "address": "6445 Decarie Blvd",
                        "country": "CA",
                        "formatted_address": "6445 Decarie Blvd, Montreal QC H3W 3E1",
                        "locality": "Montreal",
                        "postcode": "H3W 3E1",
                        "region": "QC"
                  },
                  "name": "Luzzatto"
            }
      ],
      "context": {
            "geo_bounds": {
                  "circle": {
                        "center": {
                              "latitude": 45.491513,
                              "longitude": -73.633649
                        },
                        "radius": 1000
                  }
            }
      }
}