{
      "results": [
            {
                  "distance": 472,
                  "location": {
                        "address": "1360 Rosemont Blvd",
                        "country": "CA",
                        "cross_street": "",
                        "formatted_address": "1360 Rosemont Blvd, Montr\u00e9al QC H2G 1V4",
                        "locality": "Montreal",
                        "postcode": "H2G 1V4",
                        "region": "QC"
                  },
                  "name": "Caf\u00e9 Dei Campi",
                  "popularity": 0.9428108440575321,
                  "price": 1,
                  "rating": 9.1
            },
            {
                  "distance": 620,
                  "location": {
                        "address": "1039 Beaubien Rue E",
                        "country": "CA",
                        "cross_street": "Christophe-Colomb",
                        "formatted_address": "1039 Beaubien Rue E (Christophe-Colomb), Montr\u00e9al QC H2S 1T3",
                        "locality": "Montreal",
                        "postcode": "H2S 1T3",
                        "region": "QC"
                  },
                  "name": "Isle de Garde",
                  "popularity": 0.9462055261165784,
                  "price": 3,
                  "rating": 9.1
            },
            {
                  "distance": 819,
                  "location": {
                        "address": "809 Laurier Ave E",
                        "country": "CA",
                        "formatted_address": "809 Laurier Ave E, Montr\u00e9al QC H2J 1G2",
                        "locality": "Montreal",
                        "postcode": "H2J 1G2",
                        "region": "QC"
                  },
                  "name": "Fous Desserts",
                  "popularity": 0.9535389856169568,
                  "rating": 9.0
            },
            {
                  "distance": 686,
                  "location": {
                        "address": "500 Beaubien Rue E",
                        "country": "CA",
                        "cross_street": "",
                        "formatted_address": "500 Beaubien Rue E, Montr\u00e9al QC H2S 1S5",
                        "locality": "Montreal",
                        "postcode": "H2S 1S5",
                        "region": "QC"
                  },
                  "name": "Caf\u00e9 Pista",
                  "popularity": 0.9594294095382286,
                  "price": 1,
                  "rating": 8.9
            },
            {
                  "distance": 900,
                  "location": {
                        "address": "5761 Saint-Laurent Blvd",
                        "country": "CA",
                        "cross_street": "coin Bernard",
                        "formatted_address": "5761 Saint-Laurent Blvd (coin Bernard), Montr\u00e9al QC H2T 1S9",
                        "locality": "Montreal",
                        "postcode": "H2T 1S9",
                        "region": "QC"
                  },
                  "name": "Pastel Rita",
                  "popularity": 0.9478141559424679,
                  "price": 1,
                  "rating": 8.9
            },
            {
                  "distance": 945,
                  "location": {
                        "address": "901 Saint-Zotique Rue E",
                        "country": "CA",
                        "cross_street": "Saint-Andr\u00e9",
                        "formatted_address": "901 Saint-Zotique Rue E (Saint-Andr\u00e9), Montr\u00e9al QC H2S 1M9",
                        "locality": "Montreal",
                        "postcode": "H2S 1M9",
                        "region": "QC"
                  },
                  "name": "Y\u00efsst",
                  "popularity": 0.9474829674489024,
                  "price": 2,
                  "rating": 8.8
            },
            {
                  "distance": 895,
                  "location": {
                        "address": "430 Laurier Ave E",
                        "country": "CA",
                        "cross_street": "coin Rivard",
                        "formatted_address": "430 Laurier Ave E (coin Rivard), Montr\u00e9al QC H2J 1E5",
                        "locality": "Montreal",
                        "postcode": "H2J 1E5",
                        "region": "QC"
                  },
                  "name": "Noble Caf\u00e9",
                  "popularity": 0.9352526495079485,
                  "price": 1,
                  "rating": 8.8
            },
            {
                  "distance": 385,
                  "location": {
                        "address": "6230 Saint-Hubert Rue",
                        "country": "CA",
                        "cross_street": "",
                        "formatted_address": "6230 Saint-Hubert Rue, Montr\u00e9al QC H2S 2M2",
                        "locality": "Montreal",
                        "postcode": "H2S 2M2",
                        "region": "QC"
                  },
                  "name": "Montreal Plaza",
                  "popularity": 0.9133350681302044,
                  "price": 2,
                  "rating": 8.8
            },
            {
                  "distance": 964,
                  "location": {
                        "address": "1212 Saint-Zotique Rue E",
                        "country": "CA",
                        "cross_street": "",
                        "formatted_address": "1212 Saint-Zotique Rue E, Montr\u00e9al QC H2S 1N5",
                        "locality": "Montreal",
                        "postcode": "H2S 1N5",
                        "region": "QC"
                  },
                  "name": "Luciano Trattoria",
                  "popularity": 0.9558099924299773,
                  "price": 2,
                  "rating": 8.7
            },
            {
                  "distance": 626,
                  "location": {
                        "address": "6500 Christophe-Colomb Ave",
                        "country": "CA",
                        "cross_street": "Beaubien",
                        "formatted_address": "6500 Christophe-Colomb Ave (Beaubien), Montr\u00e9al QC H2S 2G8",
                        "locality": "Montreal",
                        "postcode": "H2S 2G8",
                        "region": "QC"
                  },
                  "name": "Automne Boulangerie",
                  "popularity": 0.9466431680545042,
                  "price": 1,
                  "rating": 8.7
            },
            {
                  "distance": 693,
                  "location": {
                        "address": "5605 Ave de Gasp\u00e9",
                        "country": "CA",
                        "cross_street": "coin St-Viateur Est",
                        "formatted_address": "5605 Ave de Gasp\u00e9 (coin St-Viateur Est), Montr\u00e9al QC H2T 2A4",
                        "locality": "Montreal",
                        "postcode": "H2T 2A4",
                        "region": "QC"
                  },
                  "name": "Caf\u00e9 Falco",
                  "popularity": 0.942952781983346,
                  "price": 2,
                  "rating": 8.7
            },
            {
                  "distance": 922,
                  "location": {
                        "address": "5836 Saint-Laurent Blvd",
                        "country": "CA",
                        "cross_street": "",
                        "formatted_address": "5836 Saint-Laurent Blvd, Montr\u00e9al QC H2T 1T3",
                        "locality": "Montreal",
                        "postcode": "H2T 1T3",
                        "region": "QC"
                  },
                  "name": "Le Butterblume",
                  "popularity": 0.9501443035579107,
                  "price": 1,
                  "rating": 8.6
            },
            {
                  "distance": 712,
                  "location": {
                        "address": "6414 Saint-Denis Rue",
                        "country": "CA",
                        "cross_street": "Rue Beaubien",
                        "formatted_address": "6414 Saint-Denis Rue (Rue Beaubien), Montr\u00e9al QC H2S 2R7",
                        "locality": "Montreal",
                        "postcode": "H2S 2R7",
                        "region": "QC"
                  },
                  "name": "Restaurant Pho Tay Ho",
                  "popularity": 0.944525927327782,
                  "price": 1,
                  "rating": 8.5
            },
            {
                  "distance": 697,
                  "location": {
                        "address": "1290 Beaubien Rue E",
                        "country": "CA",
                        "cross_street": "",
                        "formatted_address": "1290 Beaubien Rue E, Montr\u00e9al QC H2S 1T9",
                        "locality": "Montreal",
                        "postcode": "H2S 1T9",
                        "region": "QC"
                  },
                  "name": "Vinvinvin",
                  "popularity": 0.9328751892505678,
                  "price": 2,
                  "rating": 8.4
            },
            {
                  "distance": 929,
                  "location": {
                        "address": "5788 Saint-Laurent Blvd",
                        "country": "CA",
                        "cross_street": "Bernard",
                        "formatted_address": "5788 Saint-Laurent Blvd (Bernard), Montr\u00e9al QC H2T 1S8",
                        "locality": "Montreal",
                        "postcode": "H2T 1S8",
                        "region": "QC"
                  },
                  "name": "Ping Pong Club",
                  "popularity": 0.9317869984859954,
                  "price": 2,
                  "rating": 8.4
            },
            {
                  "distance": 950,
                  "location": {
                        "address": "351 Laurier Ave E",
                        "country": "CA",
                        "cross_street": "coin Drolet",
                        "formatted_address": "351 Laurier Ave E (coin Drolet), Montr\u00e9al QC H2T 1G7",
                        "locality": "Montreal",
                        "postcode": "H2T 1G7",
                        "region": "QC"
                  },
                  "name": "Restaurant Chez Claudette",
                  "popularity": 0.9536454390613172,
                  "price": 1,
                  "rating": 8.3
            },
            {
                  "distance": 672,
                  "location": {
                        "address": "520 Beaubien Rue E",
                        "country": "CA",
                        "cross_street": "De Chateaubriand",
                        "formatted_address": "520 Beaubien Rue E (De Chateaubriand), Montr\u00e9al QC H2S 1S5",
                        "locality": "Montreal",
                        "postcode": "H2S 1S5",
                        "region": "QC"
                  },
                  "name": "Restaurant El Chalateco",
                  "popularity": 0.9479679220287661,
                  "rating": 8.2
            },
            {
                  "distance": 217,
                  "location": {
                        "address": "5938 Saint-Hubert Rue",
                        "country": "CA",
                        "cross_street": "",
                        "formatted_address": "5938 Saint-Hubert Rue, Montr\u00e9al QC H2S 2L7",
                        "locality": "Montreal",
                        "postcode": "H2S 2L7",
                        "region": "QC"
                  },
                  "name": "Restaurant Casa Alentejo",
                  "popularity": 0.9143522899318698,
                  "price": 2,
                  "rating": 7.9
            },
            {
                  "distance": 587,
                  "location": {
                        "address": "351 Rue de Bellechasse",
                        "country": "CA",
                        "cross_street": "btwn Drolet & St-Denis",
                        "formatted_address": "351 Rue de Bellechasse (btwn Drolet & St-Denis), Montr\u00e9al QC H2S 1X1",
                        "locality": "Montreal",
                        "postcode": "H2S 1X1",
                        "region": "QC"
                  },
                  "name": "Elio Pizzeria",
                  "popularity": 0.9754683951551855,
                  "price": 1,
                  "rating": 7.9
            },
            {
                  "distance": 622,
                  "location": {
                        "address": "913 Beaubien Rue E",
                        "country": "CA",
                        "cross_street": "coin Saint-Andr\u00e9",
                        "formatted_address": "913 Beaubien Rue E (coin Saint-Andr\u00e9), Montr\u00e9al QC H2S 1T2",
                        "locality": "Montreal",
                        "postcode": "H2S 1T2",
                        "region": "QC"
                  },
                  "name": "Nacho Libre",
                  "popularity": 0.9517765897047691,
                  "price": 2,
                  "rating": 7.9
            },
            {
                  "distance": 995,
                  "location": {
                        "address": "1499 Laurier Ave E",
                        "country": "CA",
                        "cross_street": "coin Fabre",
                        "formatted_address": "1499 Laurier Ave E (coin Fabre), Montr\u00e9al QC H2J 1H8",
                        "locality": "Montreal",
                        "postcode": "H2J 1H8",
                        "region": "QC"
                  },
                  "name": "Byblos le Petit Caf\u00e9",
                  "popularity": 0.8978046934140802,
                  "price": 2,
                  "rating": 7.8
            },
            {
                  "distance": 454,
                  "location": {
                        "address": "6289 Saint-Hubert Rue",
                        "country": "CA",
                        "cross_street": "",
                        "formatted_address": "6289 Saint-Hubert Rue, Montr\u00e9al QC H2S 2L9",
                        "locality": "Montreal",
                        "postcode": "H2S 2L9",
                        "region": "QC"
                  },
                  "name": "Nestor",
                  "popularity": 0.931160105980318,
                  "price": 2,
                  "rating": 7.8
            },
            {
                  "distance": 1008,
                  "location": {
                        "address": "414 Saint-Zotique Rue E",
                        "country": "CA",
                        "cross_street": "St-Denis",
                        "formatted_address": "414 Saint-Zotique Rue E (St-Denis), Montr\u00e9al QC H2S 1L9",
                        "locality": "Montreal",
                        "postcode": "H2S 1L9",
                        "region": "QC"
                  },
                  "name": "Beaufort - Bistro",
                  "popularity": 0.9029144587433763,
                  "price": 2,
                  "rating": 7.7
            },
            {
                  "distance": 941,
                  "location": {
                        "address": "1389 Laurier Ave E",
                        "country": "CA",
                        "cross_street": "Garnier",
                        "formatted_address": "1389 Laurier Ave E (Garnier), Montr\u00e9al QC H2J 1H6",
                        "locality": "Montreal",
                        "postcode": "H2J 1H6",
                        "region": "QC"
                  },
                  "name": "Brulerie Saint-Denis",
                  "popularity": 0.9221115632096897,
                  "price": 1,
                  "rating": 7.7
            },
            {
                  "distance": 921,
                  "location": {
                        "address": "5368 Papineau Ave",
                        "country": "CA",
                        "cross_street": "",
                        "formatted_address": "5368 Papineau Ave, Montr\u00e9al QC H2H 1W2",
                        "locality": "Montreal",
                        "postcode": "H2H 1W2",
                        "region": "QC"
                  },
                  "name": "Caf\u00e9 Orr",
                  "popularity": 0.9599853330809992,
                  "price": 1,
                  "rating": 7.6
            },
            {
                  "distance": 959,
                  "location": {
                        "address": "6705 Saint-Hubert Rue",
                        "country": "CA",
                        "cross_street": "",
                        "formatted_address": "6705 Saint-Hubert Rue, Montr\u00e9al QC H2S 2M7",
                        "locality": "Montreal",
                        "postcode": "H2S 2M7",
                        "region": "QC"
                  },
                  "name": "Le Roi du Smoked Meat",
                  "popularity": 0.9673069644208933,
                  "price": 1,
                  "rating": 7.6
            },
            {
                  "distance": 805,
                  "location": {
                        "address": "1404 Beaubien Rue E",
                        "country": "CA",
                        "cross_street": "",
                        "formatted_address": "1404 Beaubien Rue E, Montr\u00e9al QC H2G 1K9",
                        "locality": "Montreal",
                        "postcode": "H2G 1K9",
                        "region": "QC"
                  },
                  "name": "Caf\u00e9 Chiado28",
                  "popularity": 0.9532551097653293,
                  "price": 1,
                  "rating": 7.5
            },
            {
                  "distance": 965,
                  "location": {
                        "address": "5550 Saint-Laurent Blvd",
                        "country": "CA",
                        "cross_street": "coin St-Viateur",
                        "formatted_address": "5550 Saint-Laurent Blvd (coin St-Viateur), Montr\u00e9al QC H2T 1S8",
                        "locality": "Montreal",
                        "postcode": "H2T 1S8",
                        "region": "QC"
                  },
                  "name": "Bar Waverly",
                  "popularity": 0.9304149318697956,
                  "price": 1,
                  "rating": 7.3
            },
            {
                  "distance": 197,
                  "location": {
                        "address": "5800 rue de la Roche",
                        "country": "CA",
                        "cross_street": "coin Rosemont",
                        "formatted_address": "5800 rue de la Roche (coin Rosemont), Montr\u00e9al QC H2S 2C7",
                        "locality": "Montreal",
                        "postcode": "H2S 2C7",
                        "region": "QC"
                  },
                  "name": "Le North End",
                  "popularity": 0.8863077214231643,
                  "price": 3,
                  "rating": 7.2
            },
            {
                  "distance": 649,
                  "location": {
                        "address": "540 Boucher Rue",
                        "country": "CA",
                        "cross_street": "coin Resther",
                        "formatted_address": "540 Boucher Rue (coin Resther), Montr\u00e9al QC H2J 1C2",
                        "locality": "Montreal",
                        "postcode": "H2J 1C2",
                        "region": "QC"
                  },
                  "name": "Taverne Bar la Remise Inc",
                  "popularity": 0.9550056775170326,
                  "price": 2,
                  "rating": 6.9
            },
            {
                  "distance": 761,
                  "location": {
                        "address": "5237 Saint-Denis Rue",
                        "country": "CA",
                        "cross_street": "",
                        "formatted_address": "5237 Saint-Denis Rue, Montr\u00e9al QC H2J 2M1",
                        "locality": "Montreal",
                        "postcode": "H2J 2M1",
                        "region": "QC"
                  },
                  "name": "Restaurant le Bleu Raisin",
                  "popularity": 0.8919497539742619,
                  "price": 3,
                  "rating": 6.6
            },
            {
                  "distance": 950,
                  "location": {
                        "address": "5363 St Zotique E",
                        "country": "CA",
                        "cross_street": "",
                        "formatted_address": "5363 St Zotique E, Montr\u00e9al QC",
                        "locality": "Montreal",
                        "region": "QC"
                  },
                  "name": "Amir",
                  "popularity": 0.9322482967448902,
                  "price": 2,
                  "rating": 6.5
            },
            {
                  "distance": 86,
                  "location": {
                        "address": "5800 Christophe-Colomb Ave",
                        "country": "CA",
                        "cross_street": "Boulevard Rosemont",
                        "formatted_address": "5800 Christophe-Colomb Ave (Boulevard Rosemont), Montr\u00e9al QC H2S 2G2",
                        "locality": "Montreal",
                        "postcode": "H2S 2G2",
                        "region": "QC"
                  },
                  "name": "Tim Hortons",
                  "popularity": 0.8799559992429977,
                  "price": 1,
                  "rating": 6.3
            },
            {
                  "distance": 878,
                  "location": {
                        "address": "445 Laurier Ave E",
                        "country": "CA",
                        "formatted_address": "445 Laurier Ave E, Montr\u00e9al QC H2J 1E6",
                        "locality": "Montreal",
                        "postcode": "H2J 1E6",
                        "region": "QC"
                  },
                  "name": "La Boite Gourmande",
                  "popularity": 0.8986563209689629,
                  "price": 2,
                  "rating": 6.2
            },
            {
                  "distance": 904,
                  "location": {
                        "address": "221 Beaubien Rue E",
                        "country": "CA",
                        "formatted_address": "221 Beaubien Rue E, Montr\u00e9al QC H2S 1R5",
                        "locality": "Montreal",
                        "postcode": "H2S 1R5",
                        "region": "QC"
                  },
                  "name": "Bar l'Emisph\u00e8re Gauche",
                  "popularity": 0.8879754920514762,
                  "price": 2,
                  "rating": 6.0
            }
      ],
      "context": {
            "geo_bounds": {
                  "circle": {
                        "center": {
                              "latitude": 45.53409867,
                              "longitude": -73.59553456
                        },
                        "radius": 1000
                  }
            }
      }
}