{
      "results": [
            {
                  "distance": 44,
                  "location": {
                        "address": "275 Hickson Rue",
                        "country": "CA",
                        "cross_street": "coin Wellington",
                        "formatted_address": "275 Hickson Rue (coin Wellington), Verdun QC H4G 2J7",
                        "locality": "Verdun",
                        "postcode": "H4G 2J7",
                        "region": "QC"
                  },
                  "name": "Garage Cafe",
                  "popularity": 0.9310773088569265,
                  "price": 2,
                  "rating": 9.0
            },
            {
                  "distance": 68,
                  "location": {
                        "address": "3852 Wellington Rue",
                        "country": "CA",
                        "cross_street": "",
                        "formatted_address": "3852 Wellington Rue, Verdun QC H4G 1V2",
                        "locality": "Verdun",
                        "postcode": "H4G 1V2",
                        "region": "QC"
                  },
                  "name": "Station W",
                  "popularity": 0.9501916161998486,
                  "price": 1,
                  "rating": 8.8
            },
            {
                  "distance": 159,
                  "location": {
                        "address": "4026 Wellington Rue",
                        "country": "CA",
                        "cross_street": "entre De L'\u00c9glise & Hickson",
                        "formatted_address": "4026 Wellington Rue (entre De L'\u00c9glise & Hickson), Verdun QC H4G 1V3",
                        "locality": "Verdun",
                        "postcode": "H4G 1V3",
                        "region": "QC"
                  },
                  "name": "Benelux",
                  "popularity": 0.9749834405753217,
                  "price": 2,
                  "rating": 8.7
            },
            {
                  "distance": 222,
                  "location": {
                        "address": "3681 Wellington Rue",
                        "country": "CA",
                        "cross_street": "",
                        "formatted_address": "3681 Wellington Rue, Montr\u00e9al QC H4G 1V1",
                        "locality": "Montreal",
                        "postcode": "H4G 1V1",
                        "region": "QC"
                  },
                  "name": "Rita",
                  "popularity": 0.9461936979560939,
                  "price": 2,
                  "rating": 8.2
            },
            {
                  "distance": 80,
                  "location": {
                        "address": "3819 Wellington Rue",
                        "country": "CA",
                        "cross_street": "",
                        "formatted_address": "3819 Wellington Rue, Verdun QC H4G 1V1",
                        "locality": "Verdun",
                        "postcode": "H4G 1V1",
                        "region": "QC"
                  },
                  "name": "Bar Social Verdun",
                  "popularity": 0.9276353141559425,
                  "price": 2,
                  "rating": 8.0
            },
            {
                  "distance": 38,
                  "location": {
                        "address": "3876 Wellington Rue",
                        "country": "CA",
                        "cross_street": "coin Hickson",
                        "formatted_address": "3876 Wellington Rue (coin Hickson), Verdun QC H4G 1V2",
                        "locality": "Verdun",
                        "postcode": "H4G 1V2",
                        "region": "QC"
                  },
                  "name": "Nouveau Delhi Express",
                  "popularity": 0.9155232778198334,
                  "price": 2,
                  "rating": 8.0
            },
            {
                  "distance": 861,
                  "location": {
                        "address": "4811 Wellington Rue",
                        "country": "CA",
                        "cross_street": "",
                        "formatted_address": "4811 Wellington Rue, Verdun QC H4G 1X5",
                        "locality": "Verdun",
                        "postcode": "H4G 1X5",
                        "region": "QC"
                  },
                  "name": "Rex Pizza",
                  "popularity": 0.69742382664648,
                  "price": 1,
                  "rating": 7.8
            },
            {
                  "distance": 773,
                  "location": {
                        "address": "4718 Wellington Rue",
                        "country": "CA",
                        "cross_street": "2e avenue",
                        "formatted_address": "4718 Wellington Rue (2e avenue), Montr\u00e9al QC H4G 1X3",
                        "locality": "Montreal",
                        "postcode": "H4G 1X3",
                        "region": "QC"
                  },
                  "name": "Le Tr\u00e8fle",
                  "popularity": 0.9579982021196064,
                  "rating": 7.8
            },
            {
                  "distance": 149,
                  "location": {
                        "address": "4019 Wellington Rue",
                        "country": "CA",
                        "cross_street": "De L'\u00c9glise",
                        "formatted_address": "4019 Wellington Rue (De L'\u00c9glise), Verdun QC H4G 1V6",
                        "locality": "Verdun",
                        "postcode": "H4G 1V6",
                        "region": "QC"
                  },
                  "name": "Bar Palco",
                  "popularity": 0.9636993754731265,
                  "price": 2,
                  "rating": 7.7
            },
            {
                  "distance": 54,
                  "location": {
                        "address": "3819 Wellington Rue",
                        "address_extended": "Suite 102",
                        "country": "CA",
                        "cross_street": "",
                        "formatted_address": "3819 Wellington Rue, Montr\u00e9al QC H4G 1V1",
                        "locality": "Montreal",
                        "postcode": "H4G 1V1",
                        "region": "QC"
                  },
                  "name": "Chez Robin Bistro Local",
                  "popularity": 0.8777204769114307,
                  "price": 1,
                  "rating": 7.6
            },
            {
                  "distance": 42,
                  "location": {
                        "address": "3872 Wellington Rue",
                        "country": "CA",
                        "cross_street": "Hickson",
                        "formatted_address": "3872 Wellington Rue (Hickson), Verdun QC H4G 1V2",
                        "locality": "Verdun",
                        "postcode": "H4G 1V2",
                        "region": "QC"
                  },
                  "name": "Aka-Fuji",
                  "popularity": 0.8395036903860712,
                  "price": 2,
                  "rating": 7.6
            },
            {
                  "distance": 798,
                  "location": {
                        "address": "4707 Wellington Rue",
                        "country": "CA",
                        "cross_street": "",
                        "formatted_address": "4707 Wellington Rue, Montr\u00e9al QC H4G 1X2",
                        "locality": "Montreal",
                        "postcode": "H4G 1X2",
                        "region": "QC"
                  },
                  "name": "Pho Bac No1",
                  "popularity": 0.8680332134746405,
                  "price": 2,
                  "rating": 7.5
            },
            {
                  "distance": 886,
                  "location": {
                        "address": "4844 Wellington Rue",
                        "country": "CA",
                        "cross_street": "",
                        "formatted_address": "4844 Wellington Rue, Verdun QC H4G 1X4",
                        "locality": "Verdun",
                        "postcode": "H4G 1X4",
                        "region": "QC"
                  },
                  "name": "Comptoir 21",
                  "popularity": 0.9071962528387585,
                  "price": 1,
                  "rating": 7.5
            },
            {
                  "distance": 118,
                  "location": {
                        "address": "3990 Wellington Rue",
                        "country": "CA",
                        "cross_street": "entre De l'\u00c9glise & Hickson",
                        "formatted_address": "3990 Wellington Rue (entre De l'\u00c9glise & Hickson), Verdun QC H4G 1V3",
                        "locality": "Verdun",
                        "postcode": "H4G 1V3",
                        "region": "QC"
                  },
                  "name": "Boulangerie P\u00e2tisserie Wellington",
                  "popularity": 0.9482872823618471,
                  "price": 1,
                  "rating": 7.4
            },
            {
                  "distance": 785,
                  "location": {
                        "address": "4701 Wellington Rue",
                        "country": "CA",
                        "cross_street": "coin 2e avenue",
                        "formatted_address": "4701 Wellington Rue (coin 2e avenue), Montr\u00e9al QC H4G 1X2",
                        "locality": "Montreal",
                        "postcode": "H4G 1X2",
                        "region": "QC"
                  },
                  "name": "Villa Wellington",
                  "popularity": 0.9000638720666162,
                  "price": 2,
                  "rating": 6.8
            },
            {
                  "distance": 236,
                  "location": {
                        "address": "3625 Wellington Rue",
                        "country": "CA",
                        "cross_street": "",
                        "formatted_address": "3625 Wellington Rue, Montr\u00e9al QC H4G 1T9",
                        "locality": "Montreal",
                        "postcode": "H4G 1T9",
                        "region": "QC"
                  },
                  "name": "Les Street Monkeys",
                  "popularity": 0.9585659538228615,
                  "rating": 6.4
            },
            {
                  "distance": 83,
                  "location": {
                        "address": "3969 Wellington St",
                        "country": "CA",
                        "cross_street": "",
                        "formatted_address": "3969 Wellington St, Verdun QC H4G 1V6",
                        "locality": "Verdun",
                        "postcode": "H4G 1V6",
                        "region": "QC"
                  },
                  "name": "Pizza Hut",
                  "popularity": 0.89028198334595,
                  "price": 1,
                  "rating": 6.4,
                  "store_id": "R43401"
            },
            {
                  "distance": 411,
                  "location": {
                        "address": "4120 Lasalle Blvd",
                        "country": "CA",
                        "cross_street": "",
                        "formatted_address": "4120 Lasalle Blvd, Verdun QC H4G 2A5",
                        "locality": "Verdun",
                        "postcode": "H4G 2A5",
                        "region": "QC"
                  },
                  "name": "St-Hubert Express",
                  "popularity": 0.9810985995457986,
                  "price": 2,
                  "rating": 6.1,
                  "store_id": "100179"
            },
            {
                  "distance": 345,
                  "location": {
                        "address": "30 Rue de l'eglise",
                        "country": "CA",
                        "cross_street": "Boulevard Lasalle",
                        "formatted_address": "30 Rue de l'eglise (Boulevard Lasalle), Verdun QC H4G 2L9",
                        "locality": "Verdun",
                        "postcode": "H4G 2L9",
                        "region": "QC"
                  },
                  "name": "Tim Hortons",
                  "popularity": 0.9914364118092355,
                  "price": 1,
                  "rating": 5.5
            },
            {
                  "distance": 562,
                  "location": {
                        "address": "4300 la Salle Blvd",
                        "country": "CA",
                        "cross_street": "Rue Gordon",
                        "formatted_address": "4300 la Salle Blvd (Rue Gordon), Verdun QC H4G 2A8",
                        "locality": "Verdun",
                        "postcode": "H4G 2A8",
                        "region": "QC"
                  },
                  "name": "McDonald's",
                  "popularity": 0.9971139288417865,
                  "price": 1,
                  "rating": 5.1,
                  "store_id": "5465"
            },
            {
                  "distance": 41,
                  "location": {
                        "address": "3870 Wellington Rue",
                        "country": "CA",
                        "cross_street": "",
                        "formatted_address": "3870 Wellington Rue, Verdun QC H4G 1V2",
                        "locality": "Verdun",
                        "postcode": "H4G 1V2",
                        "region": "QC"
                  },
                  "name": "Alice & Theo",
                  "popularity": 0.9226556585919757,
                  "price": 1
            },
            {
                  "distance": 41,
                  "location": {
                        "address": "3922 Wellington Rue",
                        "country": "CA",
                        "cross_street": "Hickson",
                        "formatted_address": "3922 Wellington Rue (Hickson), Verdun QC H4G 1V3",
                        "locality": "Verdun",
                        "postcode": "H4G 1V3",
                        "region": "QC"
                  },
                  "name": "Le Pok\u00e9 Station",
                  "popularity": 0.2845618849356548
            },
            {
                  "distance": 60,
                  "location": {
                        "address": "3900 Ethel Rue",
                        "country": "CA",
                        "cross_street": "Rue Hickson",
                        "formatted_address": "3900 Ethel Rue (Rue Hickson), Montr\u00e9al QC H4G 1S4",
                        "locality": "Montreal",
                        "postcode": "H4G 1S4",
                        "region": "QC"
                  },
                  "name": "Restaurant Beba",
                  "popularity": 0.9459216502649508,
                  "price": 2
            },
            {
                  "distance": 83,
                  "location": {
                        "address": "3966 Wellington Rue",
                        "country": "CA",
                        "cross_street": "",
                        "formatted_address": "3966 Wellington Rue, Verdun QC H4G 1V3",
                        "locality": "Verdun",
                        "postcode": "H4G 1V3",
                        "region": "QC"
                  },
                  "name": "Souvlaki Bar",
                  "popularity": 0.9533852195306586,
                  "price": 2
            },
            {
                  "distance": 117,
                  "location": {
                        "address": "4090 Wellington Rue",
                        "country": "CA",
                        "cross_street": "De L'\u00c9glise",
                        "formatted_address": "4090 Wellington Rue (De L'\u00c9glise), Verdun QC H4G 1V3",
                        "locality": "Verdun",
                        "postcode": "H4G 1V3",
                        "region": "QC"
                  },
                  "name": "Baguette Cali",
                  "popularity": 0.47829532551097653,
                  "price": 2
            },
            {
                  "distance": 172,
                  "location": {
                        "address": "3741 Wellington Rue",
                        "country": "CA",
                        "cross_street": "",
                        "formatted_address": "3741 Wellington Rue, Verdun QC H4G 1V1",
                        "locality": "Verdun",
                        "postcode": "H4G 1V1",
                        "region": "QC"
                  },
                  "name": "La Maison Egg Roll",
                  "popularity": 0.7864898750946253
            },
            {
                  "distance": 174,
                  "location": {
                        "address": "4030 Wellington Rue",
                        "country": "CA",
                        "cross_street": "De L'\u00e9glise",
                        "formatted_address": "4030 Wellington Rue (De L'\u00e9glise), Verdun QC H4G 1V3",
                        "locality": "Verdun",
                        "postcode": "H4G 1V3",
                        "region": "QC"
                  },
                  "name": "Kwizinn Verdun",
                  "popularity": 0.9302493376230129,
                  "price": 2
            },
            {
                  "distance": 230,
                  "location": {
                        "address": "3683 Wellington Rue",
                        "country": "CA",
                        "cross_street": "",
                        "formatted_address": "3683 Wellington Rue, Montr\u00e9al QC H4G 1V1",
                        "locality": "Montreal",
                        "postcode": "H4G 1V1",
                        "region": "QC"
                  },
                  "name": "Archway Bar Sant\u00e9",
                  "popularity": 0.9512443224829674,
                  "price": 2
            },
            {
                  "distance": 373,
                  "location": {
                        "address": "4230 Wellington Rue",
                        "country": "CA",
                        "cross_street": "",
                        "formatted_address": "4230 Wellington Rue, Verdun QC H4G 1W2",
                        "locality": "Verdun",
                        "postcode": "H4G 1W2",
                        "region": "QC"
                  },
                  "name": "Namast\u00e9 Inde",
                  "popularity": 0.9424559992429977,
                  "price": 2,
                  "store_id": "528531"
            },
            {
                  "distance": 401,
                  "location": {
                        "address": "552 rue de l\u2019\u00c9glise",
                        "country": "CA",
                        "cross_street": "",
                        "formatted_address": "552 rue de l\u2019\u00c9glise, Montr\u00e9al QC H4G 2M7",
                        "locality": "Montreal",
                        "postcode": "H4G 2M7",
                        "region": "QC"
                  },
                  "name": "Pub Church St",
                  "popularity": 0.9804953633610901,
                  "price": 1
            },
            {
                  "distance": 412,
                  "location": {
                        "address": "4120 Lasalle Blvd",
                        "country": "CA",
                        "cross_street": "",
                        "formatted_address": "4120 Lasalle Blvd, Verdun QC H4G 2A5",
                        "locality": "Verdun",
                        "postcode": "H4G 2A5",
                        "region": "QC"
                  },
                  "name": "Harvey's",
                  "popularity": 0.9717780090840272,
                  "price": 2,
                  "store_id": "2753"
            },
            {
                  "distance": 419,
                  "location": {
                        "address": "4222 Wellington Rue",
                        "country": "CA",
                        "cross_street": "",
                        "formatted_address": "4222 Wellington Rue, Montr\u00e9al QC H4G 1W2",
                        "locality": "Montreal",
                        "postcode": "H4G 1W2",
                        "region": "QC"
                  },
                  "name": "L2 Bubble Tea Wellington",
                  "popularity": 0.8999929031037093
            },
            {
                  "distance": 468,
                  "location": {
                        "address": "4327 Wellington Rue",
                        "country": "CA",
                        "cross_street": "",
                        "formatted_address": "4327 Wellington Rue, Verdun QC H4G 1W3",
                        "locality": "Verdun",
                        "postcode": "H4G 1W3",
                        "region": "QC"
                  },
                  "name": "Caf\u00e9 Saint-Henri",
                  "popularity": 0.9106264193792581,
                  "price": 1
            },
            {
                  "distance": 495,
                  "location": {
                        "address": "4354 Wellington Rue",
                        "country": "CA",
                        "cross_street": "",
                        "formatted_address": "4354 Wellington Rue, Montr\u00e9al QC H4G 1W4",
                        "locality": "Montreal",
                        "postcode": "H4G 1W4",
                        "region": "QC"
                  },
                  "name": "BOSSA Pr\u00eat-\u00e0-manger",
                  "popularity": 0.9858298637395913,
                  "price": 2
            },
            {
                  "distance": 548,
                  "location": {
                        "address": "739 de l'Eglise",
                        "country": "CA",
                        "formatted_address": "739 de l'Eglise, Verdun QC H4G 2N1",
                        "locality": "Verdun",
                        "postcode": "H4G 2N1",
                        "region": "QC"
                  },
                  "name": "Sandwicherie le Bouche Trou BBQ",
                  "popularity": 0.5004139856169568,
                  "price": 1
            }
      ],
      "context": {
            "geo_bounds": {
                  "circle": {
                        "center": {
                              "latitude": 45.4648802,
                              "longitude": -73.56696957
                        },
                        "radius": 1000
                  }
            }
      }
}