{
      "results": [
            {
                  "distance": 576,
                  "location": {
                        "address": "8868 Langelier Blvd",
                        "country": "CA",
                        "formatted_address": "8868 Langelier Blvd, Saint-Leonard QC H1P 3C8",
                        "locality": "Saint-L\u00e9onard",
                        "postcode": "H1P 3C8",
                        "region": "QC"
                  },
                  "name": "Ciociaro Sport Bar",
                  "popularity": 0.994890234670704,
                  "price": 1,
                  "rating": 8.7
            },
            {
                  "distance": 745,
                  "location": {
                        "address": "8415 Lafrenaie Rue",
                        "country": "CA",
                        "formatted_address": "8415 Lafrenaie Rue, Saint-Leonard QC H1P 2B3",
                        "locality": "Saint-L\u00e9onard",
                        "postcode": "H1P 2B3",
                        "region": "QC"
                  },
                  "name": "Les D\u00e9lices Lafrenaie Inc",
                  "popularity": 0.9940504352763059,
                  "price": 1,
                  "rating": 8.5
            },
            {
                  "distance": 474,
                  "location": {
                        "address": "8600 Langelier Blvd",
                        "country": "CA",
                        "cross_street": "Metro Langelier",
                        "formatted_address": "8600 Langelier Blvd (Metro Langelier), Montr\u00e9al QC H1P 2Y7",
                        "locality": "Montreal",
                        "postcode": "H1P 2Y7",
                        "region": "QC"
                  },
                  "name": "Caf\u00e9 Victoria's",
                  "popularity": 0.9765329295987888,
                  "price": 1,
                  "rating": 7.5
            },
            {
                  "distance": 974,
                  "location": {
                        "address": "6313 Jarry Rue E",
                        "country": "CA",
                        "cross_street": "Langelier",
                        "formatted_address": "6313 Jarry Rue E (Langelier), Saint-Leonard QC H1P 1W1",
                        "locality": "Saint-L\u00e9onard",
                        "postcode": "H1P 1W1",
                        "region": "QC"
                  },
                  "name": "Restaurant Di Menna",
                  "popularity": 0.9867642884178652,
                  "price": 3,
                  "rating": 7.1
            },
            {
                  "distance": 903,
                  "location": {
                        "address": "8460 Lacordaire Blvd",
                        "country": "CA",
                        "formatted_address": "8460 Lacordaire Blvd, Saint-Leonard QC H1R 2A5",
                        "locality": "Saint-Leonard",
                        "postcode": "H1R 2A5",
                        "region": "QC"
                  },
                  "name": "Radikal Dezzertz",
                  "popularity": 0.9048306207418623,
                  "price": 1,
                  "rating": 6.7
            },
            {
                  "distance": 895,
                  "location": {
                        "address": "8492 Lacordaire Blvd",
                        "address_extended": "Place Toulon",
                        "country": "CA",
                        "cross_street": "",
                        "formatted_address": "8492 Lacordaire Blvd, Saint-Leonard QC H1R 2A5",
                        "locality": "Saint-Leonard",
                        "postcode": "H1R 2A5",
                        "region": "QC"
                  },
                  "name": "Subway",
                  "popularity": 0.8626987130961393,
                  "price": 1,
                  "rating": 6.4,
                  "store_id": "57208"
            },
            {
                  "distance": 457,
                  "location": {
                        "address": "8453 Langelier Blvd",
                        "country": "CA",
                        "cross_street": "",
                        "formatted_address": "8453 Langelier Blvd, Saint-Leonard QC H1P 2C3",
                        "locality": "Saint-L\u00e9onard",
                        "postcode": "H1P 2C3",
                        "region": "QC"
                  },
                  "name": "Cafe Royal",
                  "popularity": 0.2566355980317941,
                  "price": 2
            },
            {
                  "distance": 8557,
                  "location": {
                        "address": "8090 Langelier Blvd",
                        "country": "CA",
                        "cross_street": "",
                        "formatted_address": "8090 Langelier Blvd, Saint-Leonard QC H1P 2B9",
                        "locality": "Saint-L\u00e9onard",
                        "postcode": "H1P 2B9",
                        "region": "QC"
                  },
                  "name": "Poissonnerie Rayan",
                  "popularity": 0.7082892948814736,
                  "price": 3
            },
            {
                  "distance": 397,
                  "location": {
                        "address": "6005 Robert Blvd",
                        "country": "CA",
                        "formatted_address": "6005 Robert Blvd, Saint-Leonard QC H1P 1M9",
                        "locality": "Saint-Leonard",
                        "postcode": "H1P 1M9",
                        "region": "QC"
                  },
                  "name": "Vincent Ristorante & Pasteria"
            },
            {
                  "distance": 414,
                  "location": {
                        "address": "8760 Langelier Blvd",
                        "country": "CA",
                        "formatted_address": "8760 Langelier Blvd, Saint-Leonard QC H1P 3C6",
                        "locality": "Saint-Leonard",
                        "postcode": "H1P 3C6",
                        "region": "QC"
                  },
                  "name": "Paninneria da Marco"
            },
            {
                  "distance": 443,
                  "location": {
                        "address": "6055 Robert Blvd",
                        "country": "CA",
                        "formatted_address": "6055 Robert Blvd, Saint-Leonard QC H1P 1M9",
                        "locality": "Saint-Leonard",
                        "postcode": "H1P 1M9",
                        "region": "QC"
                  },
                  "name": "Patisserie Laura"
            },
            {
                  "distance": 572,
                  "location": {
                        "address": "8452 Langelier Blvd",
                        "country": "CA",
                        "formatted_address": "8452 Langelier Blvd, Saint-Leonard QC H1P 2C2",
                        "locality": "Saint-Leonard",
                        "postcode": "H1P 2C2",
                        "region": "QC"
                  },
                  "name": "Cafe Royal Sps"
            },
            {
                  "distance": 679,
                  "location": {
                        "address": "8974 Langelier Blvd",
                        "country": "CA",
                        "formatted_address": "8974 Langelier Blvd, Saint-Leonard QC H1P 3E6",
                        "locality": "Saint-Leonard",
                        "postcode": "H1P 3E6",
                        "region": "QC"
                  },
                  "name": "Beaches Pub"
            },
            {
                  "distance": 730,
                  "location": {
                        "address": "8315 Langelier Blvd",
                        "country": "CA",
                        "formatted_address": "8315 Langelier Blvd, Saint-Leonard QC H1P 2B7",
                        "locality": "Saint-Leonard",
                        "postcode": "H1P 2B7",
                        "region": "QC"
                  },
                  "name": "Gelato Zoom Caf\u00e9"
            },
            {
                  "distance": 741,
                  "location": {
                        "address": "8994 Langelier Blvd",
                        "country": "CA",
                        "formatted_address": "8994 Langelier Blvd, Saint-Leonard QC H1P 3E6",
                        "locality": "Saint-Leonard",
                        "postcode": "H1P 3E6",
                        "region": "QC"
                  },
                  "name": "Patisserie Boulangerie"
            },
            {
                  "distance": 765,
                  "location": {
                        "address": "8275 Langelier Blvd",
                        "country": "CA",
                        "formatted_address": "8275 Langelier Blvd, Saint-Leonard QC H1P 2B7",
                        "locality": "Saint-Leonard",
                        "postcode": "H1P 2B7",
                        "region": "QC"
                  },
                  "name": "Beniamino Traiteur"
            },
            {
                  "distance": 801,
                  "location": {
                        "address": "7373 Langelier Blvd",
                        "country": "CA",
                        "formatted_address": "7373 Langelier Blvd, Saint-Leonard QC H1S 1V7",
                        "locality": "Saint-Leonard",
                        "postcode": "H1S 1V7",
                        "region": "QC"
                  },
                  "name": "Restaurant Valentine"
            },
            {
                  "distance": 801,
                  "location": {
                        "address": "7373 Langelier Blvd",
                        "address_extended": "C28",
                        "country": "CA",
                        "formatted_address": "7373 Langelier Blvd, Saint-Leonard QC H1S 1V7",
                        "locality": "Saint-Leonard",
                        "postcode": "H1S 1V7",
                        "region": "QC"
                  },
                  "name": "Les Taouk Express"
            },
            {
                  "distance": 964,
                  "location": {
                        "address": "6299 Jarry Rue E",
                        "country": "CA",
                        "formatted_address": "6299 Jarry Rue E, Saint-Leonard QC H1P 1W1",
                        "locality": "Saint-Leonard",
                        "postcode": "H1P 1W1",
                        "region": "QC"
                  },
                  "name": "Patisserie Antep Baklava"
            },
            {
                  "distance": 967,
                  "location": {
                        "address": "9220 Picasso Pl",
                        "country": "CA",
                        "formatted_address": "9220 Picasso Pl, Saint-Leonard QC H1P 3J8",
                        "locality": "Saint-Leonard",
                        "postcode": "H1P 3J8",
                        "region": "QC"
                  },
                  "name": "P\u00e2tisserie Rococo"
            }
      ],
      "context": {
            "geo_bounds": {
                  "circle": {
                        "center": {
                              "latitude": 45.59573798,
                              "longitude": -73.59529853
                        },
                        "radius": 1000
                  }
            }
      }
}