{
      "results": [
            {
                  "distance": 870,
                  "location": {
                        "address": "3927 Saint-Denis Rue",
                        "country": "CA",
                        "cross_street": "entre Duluth & Roy",
                        "formatted_address": "3927 Saint-Denis Rue (entre Duluth & Roy), Montr\u00e9al QC H2W 2M4",
                        "locality": "Montreal",
                        "postcode": "H2W 2M4",
                        "region": "QC"
                  },
                  "name": "L'Express",
                  "popularity": 0.9460517600302801,
                  "price": 3,
                  "rating": 9.1
            },
            {
                  "distance": 944,
                  "location": {
                        "address": "3801 Saint-Denis Rue",
                        "country": "CA",
                        "cross_street": "",
                        "formatted_address": "3801 Saint-Denis Rue, Montr\u00e9al QC H2W 2M4",
                        "locality": "Montreal",
                        "postcode": "H2W 2M4",
                        "region": "QC"
                  },
                  "name": "Le Club Espresso Bar",
                  "popularity": 0.9342945685087055,
                  "price": 1,
                  "rating": 9.0
            },
            {
                  "distance": 492,
                  "location": {
                        "address": "1266 Ave du Mont-Royal Est",
                        "country": "CA",
                        "cross_street": "entre Br\u00e9beuf & Chambord",
                        "formatted_address": "1266 Ave du Mont-Royal Est (entre Br\u00e9beuf & Chambord), Montr\u00e9al QC H2J 1Y3",
                        "locality": "Montreal",
                        "postcode": "H2J 1Y3",
                        "region": "QC"
                  },
                  "name": "Point G",
                  "popularity": 0.9041800719152158,
                  "price": 1,
                  "rating": 8.9
            },
            {
                  "distance": 901,
                  "location": {
                        "address": "4185 Drolet Rue",
                        "country": "CA",
                        "cross_street": "coin Rachel",
                        "formatted_address": "4185 Drolet Rue (coin Rachel), Montr\u00e9al QC H2W 2L5",
                        "locality": "Montreal",
                        "postcode": "H2W 2L5",
                        "region": "QC"
                  },
                  "name": "Yokato Yokabai",
                  "popularity": 0.9432957986373959,
                  "price": 2,
                  "rating": 8.9
            },
            {
                  "distance": 613,
                  "location": {
                        "address": "1810 Ave du MONT-ROYAL Est",
                        "country": "CA",
                        "cross_street": "",
                        "formatted_address": "1810 Ave du MONT-ROYAL Est, Montr\u00e9al QC H2H 1J1",
                        "locality": "Montreal",
                        "postcode": "H2H 1J1",
                        "region": "QC"
                  },
                  "name": "Mr. Puffs",
                  "popularity": 0.9136307721423165,
                  "price": 1,
                  "rating": 8.8
            },
            {
                  "distance": 508,
                  "location": {
                        "address": "865 Rachel Rue E",
                        "country": "CA",
                        "cross_street": "coin St-Andr\u00e9",
                        "formatted_address": "865 Rachel Rue E (coin St-Andr\u00e9), Montr\u00e9al QC H2J 2H9",
                        "locality": "Montreal",
                        "postcode": "H2J 2H9",
                        "region": "QC"
                  },
                  "name": "La Maison des P\u00e2tes Fra\u00eeches",
                  "popularity": 0.938115064345193,
                  "price": 2,
                  "rating": 8.8
            },
            {
                  "distance": 557,
                  "location": {
                        "address": "1127 Ave du Mont-Royal Est",
                        "country": "CA",
                        "cross_street": "coin Christophe-Colomb",
                        "formatted_address": "1127 Ave du Mont-Royal Est (coin Christophe-Colomb), Montr\u00e9al QC H2J 1X9",
                        "locality": "Montreal",
                        "postcode": "H2J 1X9",
                        "region": "QC"
                  },
                  "name": "St-Viateur Bagel & Cafe",
                  "popularity": 0.9727715745647237,
                  "price": 1,
                  "rating": 8.7
            },
            {
                  "distance": 650,
                  "location": {
                        "address": "536 Duluth Ave E",
                        "country": "CA",
                        "cross_street": "at Ave. Duluth Est & Ave. de Chateaubriand",
                        "formatted_address": "536 Duluth Ave E (at Ave. Duluth Est & Ave. de Chateaubriand), Montr\u00e9al QC H2L 1A9",
                        "locality": "Montreal",
                        "postcode": "H2L 1A9",
                        "region": "QC"
                  },
                  "name": "Au Pied de Cochon",
                  "popularity": 0.9154404806964421,
                  "price": 3,
                  "rating": 8.7
            },
            {
                  "distance": 823,
                  "location": {
                        "address": "4115A Saint-Denis Rue",
                        "country": "CA",
                        "cross_street": "coin Duluth",
                        "formatted_address": "4115A Saint-Denis Rue (coin Duluth), Montr\u00e9al QC H2W 2M7",
                        "locality": "Montreal",
                        "postcode": "H2W 2M7",
                        "region": "QC"
                  },
                  "name": "Diese Onze",
                  "popularity": 0.9298944928084785,
                  "rating": 8.6
            },
            {
                  "distance": 416,
                  "location": {
                        "address": "951 Rachel Rue E",
                        "country": "CA",
                        "cross_street": "",
                        "formatted_address": "951 Rachel Rue E, Montr\u00e9al QC H2J 2J4",
                        "locality": "Montreal",
                        "postcode": "H2J 2J4",
                        "region": "QC"
                  },
                  "name": "Pub Pit Caribou",
                  "popularity": 0.9519658402725208,
                  "rating": 8.6
            },
            {
                  "distance": 866,
                  "location": {
                        "address": "1059 Gilford Rue",
                        "country": "CA",
                        "cross_street": "Christophe-Colomb",
                        "formatted_address": "1059 Gilford Rue (Christophe-Colomb), Montr\u00e9al QC H2J 1P7",
                        "locality": "Montreal",
                        "postcode": "H2J 1P7",
                        "region": "QC"
                  },
                  "name": "Restaurant la Raclette",
                  "popularity": 0.9396527252081757,
                  "price": 3,
                  "rating": 8.5
            },
            {
                  "distance": 624,
                  "location": {
                        "address": "4449 Rue de Mentana",
                        "country": "CA",
                        "cross_street": "Avenue du Mont-Royal",
                        "formatted_address": "4449 Rue de Mentana (Avenue du Mont-Royal), Montr\u00e9al QC H2J 3B4",
                        "locality": "Montreal",
                        "postcode": "H2J 3B4",
                        "region": "QC"
                  },
                  "name": "Tampopo",
                  "popularity": 0.8850539364118092,
                  "price": 2,
                  "rating": 8.5
            },
            {
                  "distance": 356,
                  "location": {
                        "address": "994 Rachel Rue E",
                        "country": "CA",
                        "cross_street": "entre de Boyer & du Parc-Lafontaine",
                        "formatted_address": "994 Rachel Rue E (entre de Boyer & du Parc-Lafontaine), Montr\u00e9al QC H2J 2J3",
                        "locality": "Montreal",
                        "postcode": "H2J 2J3",
                        "region": "QC"
                  },
                  "name": "La Banquise",
                  "popularity": 0.9872374148372445,
                  "price": 1,
                  "rating": 8.5
            },
            {
                  "distance": 695,
                  "location": {
                        "address": "506 Duluth Ave E",
                        "country": "CA",
                        "cross_street": "coin av. de Chateaubriand",
                        "formatted_address": "506 Duluth Ave E (coin av. de Chateaubriand), Montr\u00e9al QC H2L 1A7",
                        "locality": "Montreal",
                        "postcode": "H2L 1A7",
                        "region": "QC"
                  },
                  "name": "Khyber Pass Restaurant",
                  "popularity": 0.9183738644965935,
                  "price": 2,
                  "rating": 8.4
            },
            {
                  "distance": 669,
                  "location": {
                        "address": "922 Ave du Mont-Royal Est",
                        "country": "CA",
                        "cross_street": "entre St-Andr\u00e9 & De Mentana",
                        "formatted_address": "922 Ave du Mont-Royal Est (entre St-Andr\u00e9 & De Mentana), Montr\u00e9al QC H2J 1X2",
                        "locality": "Montreal",
                        "postcode": "H2J 1X2",
                        "region": "QC"
                  },
                  "name": "Restaurant l'Avenue",
                  "popularity": 0.9553132096896291,
                  "price": 2,
                  "rating": 8.4
            },
            {
                  "distance": 845,
                  "location": {
                        "address": "4720 Marquette Rue",
                        "country": "CA",
                        "cross_street": "coin Gilford",
                        "formatted_address": "4720 Marquette Rue (coin Gilford), Montr\u00e9al QC H2J 3Y6",
                        "locality": "Montreal",
                        "postcode": "H2J 3Y6",
                        "region": "QC"
                  },
                  "name": "Maison Publique",
                  "popularity": 0.9193674299772899,
                  "price": 3,
                  "rating": 8.4
            },
            {
                  "distance": 868,
                  "location": {
                        "address": "4338 Saint-Denis Rue",
                        "address_extended": "Bureau B",
                        "country": "CA",
                        "cross_street": "coin Marianne",
                        "formatted_address": "4338 Saint-Denis Rue (coin Marianne), Montr\u00e9al QC H2J 2K8",
                        "locality": "Montreal",
                        "postcode": "H2J 2K8",
                        "region": "QC"
                  },
                  "name": "Ceramic Cafe-Studio Inc",
                  "popularity": 0.9050553557910673,
                  "price": 1,
                  "rating": 8.3
            },
            {
                  "distance": 801,
                  "location": {
                        "address": "4710 rue de Lanaudi\u00e8re",
                        "country": "CA",
                        "cross_street": "coin Gilford",
                        "formatted_address": "4710 rue de Lanaudi\u00e8re (coin Gilford), Montr\u00e9al QC H2J 3P7",
                        "locality": "Montreal",
                        "postcode": "H2J 3P7",
                        "region": "QC"
                  },
                  "name": "Le Chien Fumant",
                  "popularity": 0.9083435844057532,
                  "price": 3,
                  "rating": 8.2
            },
            {
                  "distance": 702,
                  "location": {
                        "address": "860 Ave du Mont-Royal Est",
                        "country": "CA",
                        "cross_street": "coin Saint-Andr\u00e9",
                        "formatted_address": "860 Ave du Mont-Royal Est (coin Saint-Andr\u00e9), Montr\u00e9al QC H2J 1X1",
                        "locality": "Montreal",
                        "postcode": "H2J 1X1",
                        "region": "QC"
                  },
                  "name": "Boulangerie Premi\u00e8re Moisson",
                  "popularity": 0.9510787282361847,
                  "price": 1,
                  "rating": 8.0
            },
            {
                  "distance": 918,
                  "location": {
                        "address": "3845 Saint-Denis Rue",
                        "country": "CA",
                        "cross_street": "",
                        "formatted_address": "3845 Saint-Denis Rue, Montr\u00e9al QC H2W 2M4",
                        "locality": "Montreal",
                        "postcode": "H2W 2M4",
                        "region": "QC"
                  },
                  "name": "Restaurant Au Pres de MA Blonde",
                  "popularity": 0.924110522331567,
                  "rating": 7.9
            },
            {
                  "distance": 982,
                  "location": {
                        "address": "1365 Ontario Rue E",
                        "country": "CA",
                        "formatted_address": "1365 Ontario Rue E, Montr\u00e9al QC H2L 1S2",
                        "locality": "Montreal",
                        "postcode": "H2L 1S2",
                        "region": "QC"
                  },
                  "name": "Poutineville",
                  "popularity": 0.9661241483724451,
                  "price": 2,
                  "rating": 7.9
            },
            {
                  "distance": 896,
                  "location": {
                        "address": "370 Marie-Anne Rue E",
                        "country": "CA",
                        "cross_street": "Saint-Denis",
                        "formatted_address": "370 Marie-Anne Rue E (Saint-Denis), Montr\u00e9al QC H2W 1B3",
                        "locality": "Montreal",
                        "postcode": "H2W 1B3",
                        "region": "QC"
                  },
                  "name": "Caf\u00e9 Tuyo",
                  "popularity": 0.8958293906131718,
                  "price": 1,
                  "rating": 7.8
            },
            {
                  "distance": 879,
                  "location": {
                        "address": "360 Rachel Rue E",
                        "country": "CA",
                        "cross_street": "coin Drolet",
                        "formatted_address": "360 Rachel Rue E (coin Drolet), Montr\u00e9al QC H2W 1E9",
                        "locality": "Montreal",
                        "postcode": "H2W 1E9",
                        "region": "QC"
                  },
                  "name": "Ichigo Ichie",
                  "popularity": 0.9055994511733535,
                  "price": 2,
                  "rating": 7.8
            },
            {
                  "distance": 945,
                  "location": {
                        "address": "3828 Saint-Denis Rue",
                        "country": "CA",
                        "cross_street": "",
                        "formatted_address": "3828 Saint-Denis Rue, Montr\u00e9al QC H2W 2M2",
                        "locality": "Montreal",
                        "postcode": "H2W 2M2",
                        "region": "QC"
                  },
                  "name": "Tacos Tin Tan",
                  "popularity": 0.9322601249053747,
                  "price": 1,
                  "rating": 7.7
            },
            {
                  "distance": 807,
                  "location": {
                        "address": "1030 Cherrier Rue",
                        "country": "CA",
                        "cross_street": "at Parc-Lafontaine Ave.",
                        "formatted_address": "1030 Cherrier Rue (at Parc-Lafontaine Ave.), Montr\u00e9al QC H2L 1H9",
                        "locality": "Montreal",
                        "postcode": "H2L 1H9",
                        "region": "QC"
                  },
                  "name": "Bistro T\u00f4t ou Tard",
                  "popularity": 0.9615821347464042,
                  "price": 1,
                  "rating": 7.7
            },
            {
                  "distance": 760,
                  "location": {
                        "address": "781 Ave du Mont-Royal E",
                        "country": "CA",
                        "cross_street": "",
                        "formatted_address": "781 Ave du Mont-Royal E, Montr\u00e9al QC H2J 1W8",
                        "locality": "Montreal",
                        "postcode": "H2J 1W8",
                        "region": "QC"
                  },
                  "name": "Caf\u00e9 N\u00e9v\u00e9",
                  "popularity": 0.9258847464042392,
                  "price": 1,
                  "rating": 7.7
            },
            {
                  "distance": 789,
                  "location": {
                        "address": "751 Ave du Mont-Royal E",
                        "country": "CA",
                        "cross_street": "coin Resther",
                        "formatted_address": "751 Ave du Mont-Royal E (coin Resther), Montr\u00e9al QC H2J 1W8",
                        "locality": "Montreal",
                        "postcode": "H2J 1W8",
                        "region": "QC"
                  },
                  "name": "Starbucks",
                  "popularity": 0.9651305828917487,
                  "price": 1,
                  "rating": 7.7,
                  "store_id": "16435-170964"
            },
            {
                  "distance": 665,
                  "location": {
                        "address": "920 Mont Royal E",
                        "country": "CA",
                        "cross_street": "rue Pierce",
                        "formatted_address": "920 Mont Royal E (rue Pierce), Montr\u00e9al QC H2J 1X2",
                        "locality": "Montreal",
                        "postcode": "H2J 1X2",
                        "region": "QC"
                  },
                  "name": "Yeh! Yogourt Glac\u00e9 et Caf\u00e9",
                  "popularity": 0.37741294473883424,
                  "price": 1,
                  "rating": 7.6
            },
            {
                  "distance": 486,
                  "location": {
                        "address": "901 Rachel Rue E",
                        "country": "CA",
                        "cross_street": "Saint-Andr\u00e9",
                        "formatted_address": "901 Rachel Rue E (Saint-Andr\u00e9), Montr\u00e9al QC H2J 2J2",
                        "locality": "Montreal",
                        "postcode": "H2J 2J2",
                        "region": "QC"
                  },
                  "name": "Fen\u00eatre Sur Kaboul",
                  "popularity": 0.8795774981074943,
                  "price": 2,
                  "rating": 7.6
            },
            {
                  "distance": 669,
                  "location": {
                        "address": "521 Duluth Ave E",
                        "country": "CA",
                        "cross_street": "btw Berri & St-Hubert",
                        "formatted_address": "521 Duluth Ave E (btw Berri & St-Hubert), Montreal QC H2L 1A8",
                        "locality": "Montreal",
                        "postcode": "H2L 1A8",
                        "region": "QC"
                  },
                  "name": "Le Jardin de Panos",
                  "popularity": 0.9252341975775927,
                  "price": 2,
                  "rating": 7.5
            },
            {
                  "distance": 853,
                  "location": {
                        "address": "3967 Saint-Denis Rue",
                        "country": "CA",
                        "cross_street": "Entre rue Duluth et rue Roy",
                        "formatted_address": "3967 Saint-Denis Rue (Entre rue Duluth et rue Roy), Montr\u00e9al QC H2W 2M4",
                        "locality": "Montreal",
                        "postcode": "H2W 2M4",
                        "region": "QC"
                  },
                  "name": "Brulerie St Denis",
                  "popularity": 0.9254234481453444,
                  "price": 1,
                  "rating": 7.4
            },
            {
                  "distance": 976,
                  "location": {
                        "address": "1652 Ontario Rue E",
                        "country": "CA",
                        "cross_street": "",
                        "formatted_address": "1652 Ontario Rue E, Montr\u00e9al QC H2L 1S7",
                        "locality": "Montreal",
                        "postcode": "H2L 1S7",
                        "region": "QC"
                  },
                  "name": "Dame Tartine D\u00e9jeuner et D\u00eener",
                  "popularity": 0.9304031037093111,
                  "price": 1,
                  "rating": 7.3
            },
            {
                  "distance": 769,
                  "location": {
                        "address": "2017 Ave du Mont-Royal Est",
                        "country": "CA",
                        "formatted_address": "2017 Ave du Mont-Royal Est, Montr\u00e9al QC H2H 1J7",
                        "locality": "Montreal",
                        "postcode": "H2H 1J7",
                        "region": "QC"
                  },
                  "name": "L'Oeufrier",
                  "popularity": 0.955360522331567,
                  "price": 1,
                  "rating": 7.2
            },
            {
                  "distance": 666,
                  "location": {
                        "address": "1875 Ave du Mont-Royal Est",
                        "country": "CA",
                        "cross_street": "coin Cartier",
                        "formatted_address": "1875 Ave du Mont-Royal Est (coin Cartier), Montr\u00e9al QC H2H 1J3",
                        "locality": "Montreal",
                        "postcode": "H2H 1J3",
                        "region": "QC"
                  },
                  "name": "Le Terminal",
                  "popularity": 0.9634036714610144,
                  "price": 2,
                  "rating": 7.1
            },
            {
                  "distance": 820,
                  "location": {
                        "address": "404 Duluth Ave E",
                        "country": "CA",
                        "cross_street": "St-Denis",
                        "formatted_address": "404 Duluth Ave E (St-Denis), Montr\u00e9al QC H2L 1A3",
                        "locality": "Montreal",
                        "postcode": "H2L 1A3",
                        "region": "QC"
                  },
                  "name": "Restaurant Eduardo Duluth",
                  "popularity": 0.8810323618470856,
                  "price": 2,
                  "rating": 7.1
            }
      ],
      "context": {
            "geo_bounds": {
                  "circle": {
                        "center": {
                              "latitude": 45.52783154,
                              "longitude": -73.57190967
                        },
                        "radius": 1000
                  }
            }
      }
}