{
      "results": [
            {
                  "distance": 992,
                  "location": {
                        "address": "1911 Keller Blvd",
                        "country": "CA",
                        "cross_street": "",
                        "formatted_address": "1911 Keller Blvd, Montr\u00e9al QC H4K 2V6",
                        "locality": "Montreal",
                        "postcode": "H4K 2V6",
                        "region": "QC"
                  },
                  "name": "Restaurant Kuljit India",
                  "popularity": 0.9449517411052233,
                  "price": 2,
                  "rating": 8.5
            },
            {
                  "distance": 849,
                  "location": {
                        "address": "5771 Gouin Blvd O",
                        "country": "CA",
                        "cross_street": "coin Genet",
                        "formatted_address": "5771 Gouin Blvd O (coin Genet), Montr\u00e9al QC H4J 1E3",
                        "locality": "Montreal",
                        "postcode": "H4J 1E3",
                        "region": "QC"
                  },
                  "name": "Fourchette Antillaise",
                  "popularity": 0.11221375851627555,
                  "price": 2,
                  "rating": 7.5
            },
            {
                  "distance": 920,
                  "location": {
                        "address": "11990 Lachapelle St",
                        "country": "CA",
                        "cross_street": "",
                        "formatted_address": "11990 Lachapelle St, Montr\u00e9al QC H4J 2M3",
                        "locality": "Montreal",
                        "postcode": "H4J 2M3",
                        "region": "QC"
                  },
                  "name": "Dairy Queen",
                  "popularity": 0.9874384935654807,
                  "price": 1,
                  "rating": 7.0
            },
            {
                  "distance": 911,
                  "location": {
                        "address": "11880 Laurentien Blvd",
                        "country": "CA",
                        "cross_street": "Keller",
                        "formatted_address": "11880 Laurentien Blvd (Keller), Saint-Laurent QC H4K 2G1",
                        "locality": "Saint-Laurent",
                        "postcode": "H4K 2G1",
                        "region": "QC"
                  },
                  "name": "Tim Hortons",
                  "popularity": 0.9968418811506434,
                  "price": 1,
                  "rating": 6.5
            },
            {
                  "distance": 930,
                  "location": {
                        "address": "11960 Lachapelle St",
                        "country": "CA",
                        "cross_street": "",
                        "formatted_address": "11960 Lachapelle St, Montr\u00e9al QC H4J 2M3",
                        "locality": "Montreal",
                        "postcode": "H4J 2M3",
                        "region": "QC"
                  },
                  "name": "Subway",
                  "popularity": 0.8828775548826646,
                  "price": 1,
                  "rating": 6.4,
                  "store_id": "30574"
            },
            {
                  "distance": 718,
                  "location": {
                        "address": "2912 Rue de Salaberry",
                        "country": "CA",
                        "cross_street": "Autoroute 15",
                        "formatted_address": "2912 Rue de Salaberry (Autoroute 15), Montr\u00e9al QC H3M 1L3",
                        "locality": "Montreal",
                        "postcode": "H3M 1L3",
                        "region": "QC"
                  },
                  "name": "Tim Hortons",
                  "popularity": 0.9921224451173354,
                  "price": 1,
                  "rating": 5.6
            },
            {
                  "distance": 746,
                  "location": {
                        "address": "2920 Rue de Salaberry",
                        "country": "CA",
                        "formatted_address": "2920 Rue de Salaberry, Montr\u00e9al QC H3M 1L3",
                        "locality": "Montreal",
                        "postcode": "H3M 1L3",
                        "region": "QC"
                  },
                  "name": "McDonald's",
                  "popularity": 0.9963214420893263,
                  "price": 1,
                  "rating": 5.1,
                  "store_id": "29151"
            },
            {
                  "distance": 753,
                  "location": {
                        "address": "2910 Rue de Salaberry",
                        "address_extended": "Les Galeries Normandie",
                        "country": "CA",
                        "cross_street": "",
                        "formatted_address": "2910 Rue de Salaberry, Montr\u00e9al QC H3M 1L3",
                        "locality": "Montreal",
                        "postcode": "H3M 1L3",
                        "region": "QC"
                  },
                  "name": "Thai Express",
                  "popularity": 0.9848836109008327,
                  "price": 2,
                  "store_id": "193"
            },
            {
                  "distance": 816,
                  "location": {
                        "address": "2733 Rue de Salaberry",
                        "country": "CA",
                        "cross_street": "",
                        "formatted_address": "2733 Rue de Salaberry, Montreal QC H3M 1L4",
                        "locality": "Montreal",
                        "postcode": "H3M 1L4",
                        "region": "QC"
                  },
                  "name": "DO-Re-MI Pizza",
                  "popularity": 0.650820874337623,
                  "price": 2
            },
            {
                  "distance": 847,
                  "location": {
                        "address": "2860 Salaberry",
                        "country": "CA",
                        "cross_street": "",
                        "formatted_address": "2860 Salaberry, Montr\u00e9al QC",
                        "locality": "Montreal",
                        "region": "QC"
                  },
                  "name": "Nouilles Orientales",
                  "popularity": 0.9914127554882665,
                  "price": 1
            },
            {
                  "distance": 865,
                  "location": {
                        "address": "2864 rue de Salaberry",
                        "country": "CA",
                        "cross_street": "Galeries Normandie",
                        "formatted_address": "2864 rue de Salaberry (Galeries Normandie), Montr\u00e9al QC H3M 1L3",
                        "locality": "Montreal",
                        "postcode": "H3M 1L3",
                        "region": "QC"
                  },
                  "name": "Cafe de la Presse",
                  "popularity": 0.9428581566994702,
                  "price": 1
            },
            {
                  "distance": 906,
                  "location": {
                        "address": "2980 Marcel Laurin",
                        "country": "CA",
                        "cross_street": "",
                        "formatted_address": "2980 Marcel Laurin, Saint-Laurent QC",
                        "locality": "Saint-Laurent",
                        "region": "QC"
                  },
                  "name": "Restaurant Marco",
                  "popularity": 0.3335422975018925,
                  "price": 2
            },
            {
                  "distance": 918,
                  "location": {
                        "address": "2996 Marcel Laurin Blvd",
                        "country": "CA",
                        "cross_street": "Keller",
                        "formatted_address": "2996 Marcel Laurin Blvd (Keller), Saint-Laurent QC",
                        "locality": "Saint-Laurent",
                        "region": "QC"
                  },
                  "name": "Chez Lien",
                  "popularity": 0.11646006813020439,
                  "price": 2
            },
            {
                  "distance": 375,
                  "location": {
                        "address": "4400 rue de Salaberry",
                        "country": "CA",
                        "formatted_address": "4400 rue de Salaberry, Montreal QC H4J 1H4",
                        "locality": "Montreal",
                        "postcode": "H4J 1H4",
                        "region": "QC"
                  },
                  "name": "Harmony Entertainment"
            },
            {
                  "distance": 553,
                  "location": {
                        "address": "5611 Dudemaine Rue",
                        "country": "CA",
                        "formatted_address": "5611 Dudemaine Rue, Montreal QC H4J 1P2",
                        "locality": "Montreal",
                        "postcode": "H4J 1P2",
                        "region": "QC"
                  },
                  "name": "Oba Japanese Restaurant"
            },
            {
                  "distance": 770,
                  "location": {
                        "address": "2727 de Blvd",
                        "country": "CA",
                        "formatted_address": "2727 de Blvd, Montreal QC H3M 1L4",
                        "locality": "Montreal",
                        "postcode": "H3M 1L4",
                        "region": "QC"
                  },
                  "name": "Subway"
            },
            {
                  "distance": 788,
                  "location": {
                        "address": "2838 rue de Salaberry",
                        "country": "CA",
                        "formatted_address": "2838 rue de Salaberry, Montreal QC H3M 1L3",
                        "locality": "Montreal",
                        "postcode": "H3M 1L3",
                        "region": "QC"
                  },
                  "name": "Double Pizza"
            },
            {
                  "distance": 790,
                  "location": {
                        "address": "5922 Salaberry St",
                        "country": "CA",
                        "formatted_address": "5922 Salaberry St, Montreal QC H4J 1J8",
                        "locality": "Montreal",
                        "postcode": "H4J 1J8",
                        "region": "QC"
                  },
                  "name": "Dhaybi"
            },
            {
                  "distance": 795,
                  "location": {
                        "address": "2774 Rue de Salaberry",
                        "country": "CA",
                        "formatted_address": "2774 Rue de Salaberry, Montreal QC H3M 1L3",
                        "locality": "Montreal",
                        "postcode": "H3M 1L3",
                        "region": "QC"
                  },
                  "name": "Nouille Orientale"
            },
            {
                  "distance": 824,
                  "location": {
                        "address": "11835 Laurentien Blvd",
                        "country": "CA",
                        "formatted_address": "11835 Laurentien Blvd, Montreal QC H4J 2M1",
                        "locality": "Montreal",
                        "postcode": "H4J 2M1",
                        "region": "QC"
                  },
                  "name": "Biryani & Co"
            },
            {
                  "distance": 991,
                  "location": {
                        "address": "2525 rue de Salaberry",
                        "country": "CA",
                        "formatted_address": "2525 rue de Salaberry, Montreal QC H3M 1L1",
                        "locality": "Montreal",
                        "postcode": "H3M 1L1",
                        "region": "QC"
                  },
                  "name": "Nouveau Felix Pizza & Deli"
            },
            {
                  "distance": 994,
                  "location": {
                        "address": "11898 Laurentien Blvd",
                        "country": "CA",
                        "formatted_address": "11898 Laurentien Blvd, Saint-Laurent QC H4K 2V5",
                        "locality": "Saint-Laurent",
                        "postcode": "H4K 2V5",
                        "region": "QC"
                  },
                  "name": "9407-6759 Quebec Inc"
            },
            {
                  "distance": 999,
                  "location": {
                        "address": "2525 Rue de Salaberry",
                        "country": "CA",
                        "formatted_address": "2525 Rue de Salaberry, Montreal QC H3M 1L1",
                        "locality": "Montreal",
                        "postcode": "H3M 1L1",
                        "region": "QC"
                  },
                  "name": "Yum Yum Chicken Restaurant"
            }
      ],
      "context": {
            "geo_bounds": {
                  "circle": {
                        "center": {
                              "latitude": 45.5303945,
                              "longitude": -73.70393218
                        },
                        "radius": 1000
                  }
            }
      }
}