{
      "results": [
            {
                  "distance": 929,
                  "location": {
                        "address": "5196 Jarry Rue E",
                        "country": "CA",
                        "formatted_address": "5196 Jarry Rue E, Montr\u00e9al QC H1R 1Y4",
                        "locality": "Montreal",
                        "postcode": "H1R 1Y4",
                        "region": "QC"
                  },
                  "name": "Caf\u00e9 Milano",
                  "popularity": 0.9936009651778955,
                  "price": 2,
                  "rating": 8.9
            },
            {
                  "distance": 466,
                  "location": {
                        "address": "5235 Belanger Rue",
                        "country": "CA",
                        "cross_street": "",
                        "formatted_address": "5235 Belanger Rue, Montr\u00e9al QC H1T 1E1",
                        "locality": "Montreal",
                        "postcode": "H1T 1E1",
                        "region": "QC"
                  },
                  "name": "Patisserie Di Bella",
                  "popularity": 0.9872255866767601,
                  "price": 1,
                  "rating": 8.6
            },
            {
                  "distance": 725,
                  "location": {
                        "address": "5884 Jean-Talon Rue E",
                        "country": "CA",
                        "cross_street": "",
                        "formatted_address": "5884 Jean-Talon Rue E, Montr\u00e9al QC H1S 1M2",
                        "locality": "Montreal",
                        "postcode": "H1S 1M2",
                        "region": "QC"
                  },
                  "name": "La Bella Italiana",
                  "popularity": 0.9815480696442089,
                  "price": 4,
                  "rating": 8.5
            },
            {
                  "distance": 298,
                  "location": {
                        "address": "5106 Jean-Talon Rue E",
                        "country": "CA",
                        "cross_street": "",
                        "formatted_address": "5106 Jean-Talon Rue E, Montr\u00e9al QC H1S 1K7",
                        "locality": "Montreal",
                        "postcode": "H1S 1K7",
                        "region": "QC"
                  },
                  "name": "Maison Istanbul",
                  "popularity": 0.9577734670704012,
                  "price": 2,
                  "rating": 7.2
            },
            {
                  "distance": 483,
                  "location": {
                        "address": "5005 Jean-Talon Rue E",
                        "country": "CA",
                        "cross_street": "at Viau",
                        "formatted_address": "5005 Jean-Talon Rue E (at Viau), Saint-Leonard QC H1S 1K5",
                        "locality": "Saint-L\u00e9onard",
                        "postcode": "H1S 1K5",
                        "region": "QC"
                  },
                  "name": "Tim Hortons",
                  "popularity": 0.9980483535200606,
                  "price": 1,
                  "rating": 7.1
            },
            {
                  "distance": 410,
                  "location": {
                        "address": "5060 Jean-Talon Rue E",
                        "country": "CA",
                        "cross_street": "",
                        "formatted_address": "5060 Jean-Talon Rue E, Saint-Leonard QC H1S 1K6",
                        "locality": "Saint-L\u00e9onard",
                        "postcode": "H1S 1K6",
                        "region": "QC"
                  },
                  "name": "A&W Restaurant",
                  "popularity": 0.976367335352006,
                  "price": 1,
                  "rating": 7.1,
                  "store_id": "5195"
            },
            {
                  "distance": 956,
                  "location": {
                        "address": "5138 Jarry Rue E",
                        "country": "CA",
                        "cross_street": "",
                        "formatted_address": "5138 Jarry Rue E, Saint-Leonard QC H1R 1Y4",
                        "locality": "Saint-L\u00e9onard",
                        "postcode": "H1R 1Y4",
                        "region": "QC"
                  },
                  "name": "Gallo Nero Restaurant Statoria",
                  "popularity": 0.9087339137017411,
                  "price": 2,
                  "rating": 6.7
            },
            {
                  "distance": 447,
                  "location": {
                        "address": "5040 Jean-Talon Rue E",
                        "address_extended": "Place Michelet",
                        "country": "CA",
                        "cross_street": "Boul. Viau",
                        "formatted_address": "5040 Jean-Talon Rue E (Boul. Viau), Saint-Leonard QC H1S 1K6",
                        "locality": "Saint-L\u00e9onard",
                        "postcode": "H1S 1K6",
                        "region": "QC"
                  },
                  "name": "Thai Express",
                  "popularity": 0.9278009084027252,
                  "price": 2,
                  "rating": 6.0,
                  "store_id": "205"
            },
            {
                  "distance": 585,
                  "location": {
                        "address": "4900 Jean-Talon Rue E",
                        "country": "CA",
                        "cross_street": "coin Viau",
                        "formatted_address": "4900 Jean-Talon Rue E (coin Viau), Saint-Leonard QC H1S 2V9",
                        "locality": "Saint-L\u00e9onard",
                        "postcode": "H1S 2V9",
                        "region": "QC"
                  },
                  "name": "McDonald's",
                  "popularity": 0.8837055261165784,
                  "price": 1,
                  "rating": 5.6
            },
            {
                  "distance": 690,
                  "location": {
                        "address": "5090 Metropolitain Blvd E",
                        "country": "CA",
                        "cross_street": "at Boischatel",
                        "formatted_address": "5090 Metropolitain Blvd E (at Boischatel), Saint-Leonard QC H1S 2V7",
                        "locality": "Saint-L\u00e9onard",
                        "postcode": "H1S 2V7",
                        "region": "QC"
                  },
                  "name": "McDonald's",
                  "popularity": 0.9976816805450416,
                  "price": 1,
                  "rating": 4.9,
                  "store_id": "26046"
            },
            {
                  "distance": 10,
                  "location": {
                        "address": "5320 Jean-Talon Rue E",
                        "country": "CA",
                        "cross_street": "",
                        "formatted_address": "5320 Jean-Talon Rue E, Saint-Leonard QC H1S 1L3",
                        "locality": "Saint-Leonard",
                        "postcode": "H1S 1L3",
                        "region": "QC"
                  },
                  "name": "Restaurant Takashi",
                  "popularity": 0.9484173921271764,
                  "price": 2
            },
            {
                  "distance": 37,
                  "location": {
                        "address": "5292 Jean-Talon Rue E",
                        "country": "CA",
                        "cross_street": "",
                        "formatted_address": "5292 Jean-Talon Rue E, Saint-Leonard QC H1S 1L3",
                        "locality": "Saint-L\u00e9onard",
                        "postcode": "H1S 1L3",
                        "region": "QC"
                  },
                  "name": "Caf\u00e9 Southside",
                  "popularity": 0.9055166540499622,
                  "price": 2
            },
            {
                  "distance": 405,
                  "location": {
                        "address": "7190 Michelet Rue",
                        "country": "CA",
                        "cross_street": "",
                        "formatted_address": "7190 Michelet Rue, Montreal QC H1S 2L9",
                        "locality": "Saint-L\u00e9onard",
                        "postcode": "H1S 2L9",
                        "region": "QC"
                  },
                  "name": "St-Hubert Express",
                  "popularity": 0.9727952308856926,
                  "price": 2,
                  "store_id": "100171"
            },
            {
                  "distance": 580,
                  "location": {
                        "address": "5761 Jean Talon Rue E",
                        "country": "CA",
                        "cross_street": "",
                        "formatted_address": "5761 Jean Talon Rue E, Montr\u00e9al QC H1S 1M3",
                        "locality": "Montreal",
                        "postcode": "H1S 1M3",
                        "region": "QC"
                  },
                  "name": "Restaurant Espadon",
                  "popularity": 0.9847416729750189
            },
            {
                  "distance": 752,
                  "location": {
                        "address": "5830 Belanger Rue",
                        "country": "CA",
                        "cross_street": "angle Lacordaire",
                        "formatted_address": "5830 Belanger Rue (angle Lacordaire), Montr\u00e9al QC H1T 1G6",
                        "locality": "Montreal",
                        "postcode": "H1T 1G6",
                        "region": "QC"
                  },
                  "name": "Corona Caf\u00e9",
                  "popularity": 0.9481690007570023,
                  "price": 2
            },
            {
                  "distance": 774,
                  "location": {
                        "address": "5840 Belanger Rue",
                        "country": "CA",
                        "cross_street": "Lacordaire",
                        "formatted_address": "5840 Belanger Rue (Lacordaire), Montr\u00e9al QC H1T 1G6",
                        "locality": "Montreal",
                        "postcode": "H1T 1G6",
                        "region": "QC"
                  },
                  "name": "Luso",
                  "popularity": 0.5323855034065103,
                  "price": 2
            },
            {
                  "distance": 790,
                  "location": {
                        "address": "5957 Jean-Talon Rue E",
                        "country": "CA",
                        "cross_street": "",
                        "formatted_address": "5957 Jean-Talon Rue E, Montr\u00e9al QC H1S 1M5",
                        "locality": "Montreal",
                        "postcode": "H1S 1M5",
                        "region": "QC"
                  },
                  "name": "Vincent S Variete Limitee",
                  "popularity": 0.34977053368660105
            },
            {
                  "distance": 803,
                  "location": {
                        "address": "4745 Jean-Talon Rue E",
                        "country": "CA",
                        "cross_street": "",
                        "formatted_address": "4745 Jean-Talon Rue E, Montr\u00e9al QC H1S 1K4",
                        "locality": "Montreal",
                        "postcode": "H1S 1K4",
                        "region": "QC"
                  },
                  "name": "Restaurant TGV",
                  "popularity": 0.9070897993943982
            },
            {
                  "distance": 880,
                  "location": {
                        "address": "7600 Viau Blvd",
                        "country": "CA",
                        "cross_street": "",
                        "formatted_address": "7600 Viau Blvd, Saint-Leonard QC H1S 2P3",
                        "locality": "Saint-L\u00e9onard",
                        "postcode": "H1S 2P3",
                        "region": "QC"
                  },
                  "name": "Restaurant Istambul Gunes Kebab",
                  "popularity": 0.9856051286903861,
                  "price": 2
            },
            {
                  "distance": 905,
                  "location": {
                        "address": "5250 Jarry Rue E",
                        "country": "CA",
                        "cross_street": "",
                        "formatted_address": "5250 Jarry Rue E, Saint-Leonard QC H1R 3A9",
                        "locality": "Saint-Leonard",
                        "postcode": "H1R 3A9",
                        "region": "QC"
                  },
                  "name": "Restaurant Miramar Express",
                  "popularity": 0.28625331188493564,
                  "price": 2
            },
            {
                  "distance": 995,
                  "location": {
                        "address": "5670 Jarry Rue E",
                        "country": "CA",
                        "cross_street": "",
                        "formatted_address": "5670 Jarry Rue E, Montr\u00e9al QC H1P 1V4",
                        "locality": "Montreal",
                        "postcode": "H1P 1V4",
                        "region": "QC"
                  },
                  "name": "Bretzel & Compagnie",
                  "popularity": 0.8600018925056775,
                  "price": 1
            },
            {
                  "distance": 1001,
                  "location": {
                        "address": "6045 Belanger Rue",
                        "country": "CA",
                        "formatted_address": "6045 Belanger Rue, Saint-Leonard QC H1T 3T4",
                        "locality": "Saint-Leonard",
                        "postcode": "H1T 3T4",
                        "region": "QC"
                  },
                  "name": "Bar Billard le Losange",
                  "popularity": 0.9740253595760787,
                  "price": 2
            },
            {
                  "distance": 94,
                  "location": {
                        "address": "5250 Jean-Talon Rue E",
                        "country": "CA",
                        "formatted_address": "5250 Jean-Talon Rue E, Saint-Leonard QC H1S 1L1",
                        "locality": "Saint-Leonard",
                        "postcode": "H1S 1L1",
                        "region": "QC"
                  },
                  "name": "Epicerie Ricuras Colombianas"
            },
            {
                  "distance": 232,
                  "location": {
                        "address": "5502 Jean Talon Rue E",
                        "country": "CA",
                        "formatted_address": "5502 Jean Talon Rue E, Saint-Leonard QC H1S 1L9",
                        "locality": "Saint-Leonard",
                        "postcode": "H1S 1L9",
                        "region": "QC"
                  },
                  "name": "Amistad Cybercaf\u00e9"
            },
            {
                  "distance": 243,
                  "location": {
                        "address": "5158 Jean-Talon Rue E",
                        "country": "CA",
                        "formatted_address": "5158 Jean-Talon Rue E, Saint-Leonard QC H1S 1K7",
                        "locality": "Saint-Leonard",
                        "postcode": "H1S 1K7",
                        "region": "QC"
                  },
                  "name": "Caf\u00e9 Marenella"
            },
            {
                  "distance": 264,
                  "location": {
                        "address": "5540 Jean-Talon Rue E",
                        "country": "CA",
                        "formatted_address": "5540 Jean-Talon Rue E, Saint-Leonard QC H1S 1L9",
                        "locality": "Saint-Leonard",
                        "postcode": "H1S 1L9",
                        "region": "QC"
                  },
                  "name": "Sisterly Sweets"
            },
            {
                  "distance": 294,
                  "location": {
                        "address": "5570 Jean-Talon Rue E",
                        "country": "CA",
                        "formatted_address": "5570 Jean-Talon Rue E, Saint-Leonard QC H1S 1L9",
                        "locality": "Saint-Leonard",
                        "postcode": "H1S 1L9",
                        "region": "QC"
                  },
                  "name": "EpicesKay"
            },
            {
                  "distance": 303,
                  "location": {
                        "address": "5110 Jean Talon Rue E",
                        "country": "CA",
                        "formatted_address": "5110 Jean Talon Rue E, Saint-Leonard QC H1S 1K7",
                        "locality": "Saint-Leonard",
                        "postcode": "H1S 1K7",
                        "region": "QC"
                  },
                  "name": "Gourmet d'Asie Express"
            },
            {
                  "distance": 385,
                  "location": {
                        "address": "7190 Michelet Rue",
                        "country": "CA",
                        "formatted_address": "7190 Michelet Rue, Saint-Leonard QC H1S 3H4",
                        "locality": "Saint-Leonard",
                        "postcode": "H1S 3H4",
                        "region": "QC"
                  },
                  "name": "Rotisserie St-Hubert"
            },
            {
                  "distance": 447,
                  "location": {
                        "address": "5241 Belanger Rue",
                        "country": "CA",
                        "formatted_address": "5241 Belanger Rue, Montreal QC H1T 1E1",
                        "locality": "Montreal",
                        "postcode": "H1T 1E1",
                        "region": "QC"
                  },
                  "name": "Caf\u00e9 Bar Padula"
            },
            {
                  "distance": 549,
                  "location": {
                        "address": "5759 Jean-Talon Rue E",
                        "country": "CA",
                        "formatted_address": "5759 Jean-Talon Rue E, Saint-Leonard QC H1S 1M3",
                        "locality": "Saint-Leonard",
                        "postcode": "H1S 1M3",
                        "region": "QC"
                  },
                  "name": "Pizza Manou"
            },
            {
                  "distance": 689,
                  "location": {
                        "address": "5833 Jean Talon Rue E",
                        "country": "CA",
                        "formatted_address": "5833 Jean Talon Rue E, Saint-Leonard QC H1S 1M4",
                        "locality": "Saint-Leonard",
                        "postcode": "H1S 1M4",
                        "region": "QC"
                  },
                  "name": "Caf\u00e9 Buongiorno"
            },
            {
                  "distance": 772,
                  "location": {
                        "address": "5840 Belanger Rue",
                        "country": "CA",
                        "formatted_address": "5840 Belanger Rue, Saint-Leonard QC H1T 1G6",
                        "locality": "Saint-Leonard",
                        "postcode": "H1T 1G6",
                        "region": "QC"
                  },
                  "name": "Restaurant Leso"
            },
            {
                  "distance": 803,
                  "location": {
                        "address": "4950 Metropolitain Blvd E",
                        "country": "CA",
                        "formatted_address": "4950 Metropolitain Blvd E, Saint-Leonard QC H1S 2Y4",
                        "locality": "Saint-Leonard",
                        "postcode": "H1S 2Y4",
                        "region": "QC"
                  },
                  "name": "Parasol Canada"
            },
            {
                  "distance": 868,
                  "location": {
                        "address": "4662 rue de Viterbe",
                        "country": "CA",
                        "formatted_address": "4662 rue de Viterbe, Saint-Leonard QC H1S 1H2",
                        "locality": "Saint-Leonard",
                        "postcode": "H1S 1H2",
                        "region": "QC"
                  },
                  "name": "Parc Caf\u00e9"
            }
      ],
      "context": {
            "geo_bounds": {
                  "circle": {
                        "center": {
                              "latitude": 45.57934937,
                              "longitude": -73.58168095
                        },
                        "radius": 1000
                  }
            }
      }
}