{
      "results": [
            {
                  "distance": 507,
                  "location": {
                        "address": "10400 Pie-Ix Blvd",
                        "country": "CA",
                        "cross_street": "",
                        "formatted_address": "10400 Pie-Ix Blvd, Montreal-Nord QC H1H 3Z8",
                        "locality": "Montr\u00e9al-Nord",
                        "postcode": "H1H 3Z8",
                        "region": "QC"
                  },
                  "name": "Pizza Hut",
                  "popularity": 0.9418882475397427,
                  "price": 1,
                  "rating": 6.3,
                  "store_id": "R29606"
            },
            {
                  "distance": 402,
                  "location": {
                        "address": "10333 Pie-Ix Blvd",
                        "country": "CA",
                        "cross_street": "Fleury",
                        "formatted_address": "10333 Pie-Ix Blvd (Fleury), Montreal-Nord QC H1H 3Z7",
                        "locality": "Montr\u00e9al-Nord",
                        "postcode": "H1H 3Z7",
                        "region": "QC"
                  },
                  "name": "McDonald's",
                  "popularity": 0.9984859954579863,
                  "price": 1,
                  "rating": 6.3,
                  "store_id": "5464"
            },
            {
                  "distance": 536,
                  "location": {
                        "address": "10433 Pie-Ix Blvd",
                        "country": "CA",
                        "cross_street": "Denomm\u00e9e",
                        "formatted_address": "10433 Pie-Ix Blvd (Denomm\u00e9e), Montreal-Nord QC H1H 3Z9",
                        "locality": "Montr\u00e9al-Nord",
                        "postcode": "H1H 3Z9",
                        "region": "QC"
                  },
                  "name": "Tim Hortons",
                  "popularity": 0.9913417865253595,
                  "price": 1,
                  "rating": 6.2
            },
            {
                  "distance": 611,
                  "location": {
                        "address": "10495 Pie-Ix Blvd",
                        "country": "CA",
                        "cross_street": "",
                        "formatted_address": "10495 Pie-Ix Blvd, Montreal-Nord QC H1H 4A3",
                        "locality": "Montr\u00e9al-Nord",
                        "postcode": "H1H 4A3",
                        "region": "QC"
                  },
                  "name": "R\u00f4tisserie St-Hubert",
                  "popularity": 0.9386236752460257,
                  "price": 2,
                  "rating": 6.1,
                  "store_id": "100088"
            },
            {
                  "distance": 457,
                  "location": {
                        "address": "3943 Fleury Rue E",
                        "country": "CA",
                        "cross_street": "",
                        "formatted_address": "3943 Fleury Rue E, Montr\u00e9al QC H1H 2T8",
                        "locality": "Montreal",
                        "postcode": "H1H 2T8",
                        "region": "QC"
                  },
                  "name": "Resto Quatro",
                  "popularity": 0.9647639099167298,
                  "price": 2
            },
            {
                  "distance": 551,
                  "location": {
                        "address": "9220 Pie Ix Blvd",
                        "country": "CA",
                        "cross_street": "",
                        "formatted_address": "9220 Pie Ix Blvd, Montr\u00e9al QC H1Z 4H7",
                        "locality": "Montreal",
                        "postcode": "H1Z 4H7",
                        "region": "QC"
                  },
                  "name": "Les Aliments Roma",
                  "popularity": 0.8206614307342922,
                  "price": 1
            },
            {
                  "distance": 571,
                  "location": {
                        "address": "10490 Pie I X Blvd",
                        "country": "CA",
                        "cross_street": "Forest",
                        "formatted_address": "10490 Pie I X Blvd (Forest), Montreal-Nord QC H1H 4A1",
                        "locality": "Montr\u00e9al-Nord",
                        "postcode": "H1H 4A1",
                        "region": "QC"
                  },
                  "name": "Restaurant le Petit Quebec",
                  "popularity": 0.9423495457986374,
                  "price": 1
            },
            {
                  "distance": 655,
                  "location": {
                        "address": "10 550 Blvd Pie Ix",
                        "country": "CA",
                        "formatted_address": "10 550 Blvd Pie Ix, Montreal-Nord QC H1H 4A2",
                        "locality": "Montr\u00e9al-Nord",
                        "postcode": "H1H 4A2",
                        "region": "QC"
                  },
                  "name": "Benny&Co",
                  "popularity": 0.9461818697956094,
                  "price": 3,
                  "store_id": "BC_24"
            },
            {
                  "distance": 756,
                  "location": {
                        "address": "10660 Pie-Ix Blvd",
                        "country": "CA",
                        "cross_street": "",
                        "formatted_address": "10660 Pie-Ix Blvd, Montreal-Nord QC H1H 4A6",
                        "locality": "Montr\u00e9al-Nord",
                        "postcode": "H1H 4A6",
                        "region": "QC"
                  },
                  "name": "Restaurant Chez Lien",
                  "popularity": 0.6618092354277063,
                  "price": 2
            },
            {
                  "distance": 845,
                  "location": {
                        "address": "3456 Fleury Rue E",
                        "country": "CA",
                        "cross_street": "Avenue  Belleville",
                        "formatted_address": "3456 Fleury Rue E (Avenue  Belleville), Montr\u00e9al QC H1H 2R9",
                        "locality": "Montreal",
                        "postcode": "H1H 2R9",
                        "region": "QC"
                  },
                  "name": "Restaurant Petit Sud",
                  "popularity": 0.041481358819076455,
                  "price": 2
            },
            {
                  "distance": 981,
                  "location": {
                        "address": "9700 Saint-Michel Blvd",
                        "country": "CA",
                        "cross_street": "",
                        "formatted_address": "9700 Saint-Michel Blvd, Montr\u00e9al QC H1H 5G6",
                        "locality": "Montreal",
                        "postcode": "H1H 5G6",
                        "region": "QC"
                  },
                  "name": "Osteria Pranzo",
                  "popularity": 0.3297691143073429,
                  "price": 2
            },
            {
                  "distance": 221,
                  "location": {
                        "address": "10025 Ave de London",
                        "country": "CA",
                        "formatted_address": "10025 Ave de London, Montreal-Nord QC H1H 4H2",
                        "locality": "Montreal-Nord",
                        "postcode": "H1H 4H2",
                        "region": "QC"
                  },
                  "name": "Cafe Espresso Lino"
            },
            {
                  "distance": 274,
                  "location": {
                        "address": "10181 Pie Ix Blvd N",
                        "country": "CA",
                        "formatted_address": "10181 Pie Ix Blvd N, Montreal-Nord QC H1H 3Z4",
                        "locality": "Montreal-Nord",
                        "postcode": "H1H 3Z4",
                        "region": "QC"
                  },
                  "name": "Cabaret Chez Mado"
            },
            {
                  "distance": 571,
                  "location": {
                        "address": "3640 Sabrevois Rue",
                        "country": "CA",
                        "formatted_address": "3640 Sabrevois Rue, Montreal-Nord QC H1H 2W6",
                        "locality": "Montreal-Nord",
                        "postcode": "H1H 2W6",
                        "region": "QC"
                  },
                  "name": "Caf\u00e9 Moka d'Oro Inc"
            },
            {
                  "distance": 586,
                  "location": {
                        "address": "9222 Pie Ix Blvd",
                        "country": "CA",
                        "formatted_address": "9222 Pie Ix Blvd, Montreal QC H1Z 4H7",
                        "locality": "Montreal",
                        "postcode": "H1Z 4H7",
                        "region": "QC"
                  },
                  "name": "Chez Tommy Resto Bar"
            },
            {
                  "distance": 592,
                  "location": {
                        "address": "4132 Forest Rue",
                        "country": "CA",
                        "formatted_address": "4132 Forest Rue, Montreal-Nord QC H1H 2N5",
                        "locality": "Montreal-Nord",
                        "postcode": "H1H 2N5",
                        "region": "QC"
                  },
                  "name": "Super Prix"
            },
            {
                  "distance": 614,
                  "location": {
                        "address": "10567 Pie I X Blvd",
                        "country": "CA",
                        "formatted_address": "10567 Pie I X Blvd, Montreal-Nord QC H1H 4A3",
                        "locality": "Montreal-Nord",
                        "postcode": "H1H 4A3",
                        "region": "QC"
                  },
                  "name": "Bob Delicatessen Restaurant"
            },
            {
                  "distance": 617,
                  "location": {
                        "address": "10567 Pie Ix Blvd",
                        "country": "CA",
                        "formatted_address": "10567 Pie Ix Blvd, Montreal-Nord QC H1H 4A3",
                        "locality": "Montreal-Nord",
                        "postcode": "H1H 4A3",
                        "region": "QC"
                  },
                  "name": "Deli-Forest Restaurant"
            },
            {
                  "distance": 642,
                  "location": {
                        "address": "3705 Fleury Rue E",
                        "country": "CA",
                        "formatted_address": "3705 Fleury Rue E, Montreal-Nord QC H1H 2S8",
                        "locality": "Montreal-Nord",
                        "postcode": "H1H 2S8",
                        "region": "QC"
                  },
                  "name": "Phat Grill Resto-Bar"
            },
            {
                  "distance": 642,
                  "location": {
                        "address": "3705 Fleury Rue E",
                        "country": "CA",
                        "formatted_address": "3705 Fleury Rue E, Montreal-Nord QC H1H 2S8",
                        "locality": "Montreal-Nord",
                        "postcode": "H1H 2S8",
                        "region": "QC"
                  },
                  "name": "Vida Sushi"
            },
            {
                  "distance": 642,
                  "location": {
                        "address": "10550 Pie Ix Blvd",
                        "country": "CA",
                        "formatted_address": "10550 Pie Ix Blvd, Montreal QC H1H 2M8",
                        "locality": "Montreal",
                        "postcode": "H1H 2M8",
                        "region": "QC"
                  },
                  "name": "Benny&Co"
            },
            {
                  "distance": 652,
                  "location": {
                        "address": "10669 Pie-Ix Blvd",
                        "country": "CA",
                        "formatted_address": "10669 Pie-Ix Blvd, Montreal-Nord QC H1H 4A3",
                        "locality": "Montreal-Nord",
                        "postcode": "H1H 4A3",
                        "region": "QC"
                  },
                  "name": "Bar Pot de Chance"
            },
            {
                  "distance": 680,
                  "location": {
                        "address": "3656 Fleury Rue E",
                        "country": "CA",
                        "formatted_address": "3656 Fleury Rue E, Montreal-Nord QC H1H 2S6",
                        "locality": "Montreal-Nord",
                        "postcode": "H1H 2S6",
                        "region": "QC"
                  },
                  "name": "Cicek P\u00e2tisserie"
            },
            {
                  "distance": 713,
                  "location": {
                        "address": "9186 25e Ave",
                        "country": "CA",
                        "formatted_address": "9186 25e Ave, Montreal QC H1Z 4C9",
                        "locality": "Montreal",
                        "postcode": "H1Z 4C9",
                        "region": "QC"
                  },
                  "name": "Que Taco Con Queso"
            },
            {
                  "distance": 728,
                  "location": {
                        "address": "9143 Pie I X Blvd",
                        "country": "CA",
                        "formatted_address": "9143 Pie I X Blvd, Montreal QC H1Z 3V9",
                        "locality": "Montreal",
                        "postcode": "H1Z 3V9",
                        "region": "QC"
                  },
                  "name": "Restaurant Nouveau Felix"
            },
            {
                  "distance": 748,
                  "location": {
                        "address": "10650 Pie-Ix Blvd",
                        "country": "CA",
                        "formatted_address": "10650 Pie-Ix Blvd, Montreal-Nord QC H1H 4A6",
                        "locality": "Montreal-Nord",
                        "postcode": "H1H 4A6",
                        "region": "QC"
                  },
                  "name": "Chez Corneli Pizza & Spaghetti"
            },
            {
                  "distance": 782,
                  "location": {
                        "address": "10660 Pie-Ix Blvd",
                        "country": "CA",
                        "formatted_address": "10660 Pie-Ix Blvd, Montreal-Nord QC H1H 4A6",
                        "locality": "Montreal-Nord",
                        "postcode": "H1H 4A6",
                        "region": "QC"
                  },
                  "name": "Ph\u00f2 H\u00f2a Long"
            },
            {
                  "distance": 844,
                  "location": {
                        "address": "9075 Pie-Ix Blvd",
                        "country": "CA",
                        "formatted_address": "9075 Pie-Ix Blvd, Montreal QC H1Z 3V7",
                        "locality": "Montreal",
                        "postcode": "H1Z 3V7",
                        "region": "QC"
                  },
                  "name": "Bar Vegas"
            },
            {
                  "distance": 852,
                  "location": {
                        "address": "9075 Pie-Ix Blvd",
                        "country": "CA",
                        "formatted_address": "9075 Pie-Ix Blvd, Montreal QC H1Z 3V7",
                        "locality": "Montreal",
                        "postcode": "H1Z 3V7",
                        "region": "QC"
                  },
                  "name": "Resto Bar Pie Ix"
            },
            {
                  "distance": 902,
                  "location": {
                        "address": "3451 Fleury Rue E",
                        "country": "CA",
                        "formatted_address": "3451 Fleury Rue E, Montreal-Nord QC H1H 5R2",
                        "locality": "Montreal-Nord",
                        "postcode": "H1H 5R2",
                        "region": "QC"
                  },
                  "name": "Rolando Resto Bar Sportif"
            },
            {
                  "distance": 902,
                  "location": {
                        "address": "3451 Fleury Rue E",
                        "country": "CA",
                        "formatted_address": "3451 Fleury Rue E, Montreal-Nord QC H1H 5R2",
                        "locality": "Montreal-Nord",
                        "postcode": "H1H 5R2",
                        "region": "QC"
                  },
                  "name": "B Burger"
            },
            {
                  "distance": 966,
                  "location": {
                        "address": "10795 Pie-Ix Blvd",
                        "country": "CA",
                        "formatted_address": "10795 Pie-Ix Blvd, Montreal-Nord QC H1H 4A9",
                        "locality": "Montreal-Nord",
                        "postcode": "H1H 4A9",
                        "region": "QC"
                  },
                  "name": "Go\u00fbter Cara\u00efbes"
            },
            {
                  "distance": 994,
                  "location": {
                        "address": "9482 Saint-Michel Blvd",
                        "country": "CA",
                        "formatted_address": "9482 Saint-Michel Blvd, Montreal QC",
                        "locality": "Montreal",
                        "region": "QC"
                  },
                  "name": "GrillnGo"
            }
      ],
      "context": {
            "geo_bounds": {
                  "circle": {
                        "center": {
                              "latitude": 45.58319782,
                              "longitude": -73.62978704
                        },
                        "radius": 1000
                  }
            }
      }
}