{
      "results": [
            {
                  "distance": 655,
                  "location": {
                        "address": "3205 Cremazie Blvd E",
                        "country": "CA",
                        "cross_street": "Cr\u00e9mazie",
                        "formatted_address": "3205 Cremazie Blvd E (Cr\u00e9mazie), Montr\u00e9al QC H1Z 4M5",
                        "locality": "Montreal",
                        "postcode": "H1Z 4M5",
                        "region": "QC"
                  },
                  "name": "Pho Ngon",
                  "popularity": 0.9768404617713853,
                  "price": 2,
                  "rating": 8.5
            },
            {
                  "distance": 749,
                  "location": {
                        "address": "8115 Papineau Ave",
                        "country": "CA",
                        "cross_street": "coin Jarry Est",
                        "formatted_address": "8115 Papineau Ave (coin Jarry Est), Montr\u00e9al QC H2E 2H7",
                        "locality": "Montreal",
                        "postcode": "H2E 2H7",
                        "region": "QC"
                  },
                  "name": "Tim Hortons",
                  "popularity": 0.9937783875851628,
                  "price": 1,
                  "rating": 8.0
            },
            {
                  "distance": 557,
                  "location": {
                        "address": "3204 Jarry Rue E",
                        "country": "CA",
                        "cross_street": "",
                        "formatted_address": "3204 Jarry Rue E, Montr\u00e9al QC H1Z 2E2",
                        "locality": "Montreal",
                        "postcode": "H1Z 2E2",
                        "region": "QC"
                  },
                  "name": "Restaurant O Cantinho",
                  "popularity": 0.9048542770628312,
                  "price": 2,
                  "rating": 8.0
            },
            {
                  "distance": 812,
                  "location": {
                        "address": "7735 Saint-Michel Blvd",
                        "country": "CA",
                        "cross_street": "",
                        "formatted_address": "7735 Saint-Michel Blvd, Montr\u00e9al QC H2A 3A7",
                        "locality": "Montreal",
                        "postcode": "H2A 3A7",
                        "region": "QC"
                  },
                  "name": "Poissonnerie M\u00e9diterran\u00e9e",
                  "popularity": 0.8910153292959879,
                  "price": 1,
                  "rating": 7.9
            },
            {
                  "distance": 851,
                  "location": {
                        "address": "1812 Tillemont Rue",
                        "country": "CA",
                        "cross_street": "Papineau",
                        "formatted_address": "1812 Tillemont Rue (Papineau), Montr\u00e9al QC H2E 1C5",
                        "locality": "Montreal",
                        "postcode": "H2E 1C5",
                        "region": "QC"
                  },
                  "name": "Boulangerie & P\u00e2tisserie Tillemont Inc",
                  "popularity": 0.9615466502649508,
                  "price": 1,
                  "rating": 7.3
            },
            {
                  "distance": 849,
                  "location": {
                        "address": "3250 Cremazie Blvd E",
                        "country": "CA",
                        "cross_street": "Saint-Michel",
                        "formatted_address": "3250 Cremazie Blvd E (Saint-Michel), Montr\u00e9al QC H2A 3N9",
                        "locality": "Montreal",
                        "postcode": "H2A 3N9",
                        "region": "QC"
                  },
                  "name": "Restaurant Pho Nam Inc",
                  "popularity": 0.9806254731264193,
                  "price": 2,
                  "rating": 6.8
            },
            {
                  "distance": 986,
                  "location": {
                        "address": "7690 Papineau Ave",
                        "country": "CA",
                        "formatted_address": "7690 Papineau Ave, Montreal QC H2E 2H2",
                        "locality": "Montreal",
                        "postcode": "H2E 2H2",
                        "region": "QC"
                  },
                  "name": "Restaurant Deli-Plus",
                  "popularity": 0.9771243376230129,
                  "price": 1,
                  "rating": 6.6
            },
            {
                  "distance": 834,
                  "location": {
                        "address": "7734 Saint-Michel Blvd",
                        "country": "CA",
                        "cross_street": "at Cr\u00e9mazie Est",
                        "formatted_address": "7734 Saint-Michel Blvd (at Cr\u00e9mazie Est), Montr\u00e9al QC H2A 3A5",
                        "locality": "Montreal",
                        "postcode": "H2A 3A5",
                        "region": "QC"
                  },
                  "name": "March\u00e9 Kim Hour Inc",
                  "popularity": 0.9871546177138532,
                  "price": 1,
                  "rating": 6.4
            },
            {
                  "distance": 610,
                  "location": {
                        "address": "3201 Cremazie Blvd E",
                        "country": "CA",
                        "cross_street": "10e Avenue",
                        "formatted_address": "3201 Cremazie Blvd E (10e Avenue), Montr\u00e9al QC H1Z 4M5",
                        "locality": "Montreal",
                        "postcode": "H1Z 4M5",
                        "region": "QC"
                  },
                  "name": "Harvey's",
                  "popularity": 0.9832276684330054,
                  "price": 2,
                  "rating": 6.4,
                  "store_id": "2552"
            },
            {
                  "distance": 663,
                  "location": {
                        "address": "7900 St Michel Blvd",
                        "address_extended": "La Cremiere",
                        "country": "CA",
                        "cross_street": "",
                        "formatted_address": "7900 St Michel Blvd, Montr\u00e9al QC H1Z 3E1",
                        "locality": "Montreal",
                        "postcode": "H1Z 3E1",
                        "region": "QC"
                  },
                  "name": "Subway",
                  "popularity": 0.9401376797880394,
                  "price": 1,
                  "rating": 6.2,
                  "store_id": "28000"
            },
            {
                  "distance": 790,
                  "location": {
                        "address": "1700 Jarry Rue E",
                        "country": "CA",
                        "cross_street": "",
                        "formatted_address": "1700 Jarry Rue E, Montr\u00e9al QC H2E 1B3",
                        "locality": "Montreal",
                        "postcode": "H2E 1B3",
                        "region": "QC"
                  },
                  "name": "KFC",
                  "popularity": 0.9714349924299773,
                  "price": 1,
                  "rating": 6.1
            },
            {
                  "distance": 914,
                  "location": {
                        "address": "7645 Saint-Michel Blvd",
                        "country": "CA",
                        "formatted_address": "7645 Saint-Michel Blvd, Montreal QC H2A 3M4",
                        "locality": "Montr\u00e9al-Nord",
                        "postcode": "H2A 3M4",
                        "region": "QC"
                  },
                  "name": "McDonald's",
                  "popularity": 0.9966408024224073,
                  "price": 1,
                  "rating": 5.3
            },
            {
                  "distance": 667,
                  "location": {
                        "address": "8055 St Michel Blvd",
                        "country": "CA",
                        "cross_street": "",
                        "formatted_address": "8055 St Michel Blvd, Montr\u00e9al QC H1Z 3C9",
                        "locality": "Montreal",
                        "postcode": "H1Z 3C9",
                        "region": "QC"
                  },
                  "name": "Tim Hortons",
                  "popularity": 0.9954698145344436,
                  "price": 1,
                  "rating": 5.2
            },
            {
                  "distance": 483,
                  "location": {
                        "address": "3145 Jarry Rue E",
                        "country": "CA",
                        "cross_street": "",
                        "formatted_address": "3145 Jarry Rue E, Montreal QC H1Z 0B6",
                        "locality": "Montreal",
                        "postcode": "H1Z 0B6",
                        "region": "QC"
                  },
                  "name": "Apelia Restaurant",
                  "popularity": 0.6579769114307343,
                  "price": 2
            },
            {
                  "distance": 687,
                  "location": {
                        "address": "7961 St Michel Blvd",
                        "country": "CA",
                        "cross_street": "",
                        "formatted_address": "7961 St Michel Blvd, Montr\u00e9al QC",
                        "locality": "Montreal",
                        "region": "QC"
                  },
                  "name": "Restaurant Duy Ahn",
                  "popularity": 0.1799654617713853,
                  "price": 2
            },
            {
                  "distance": 810,
                  "location": {
                        "address": "8485 Saint-Michel Blvd",
                        "country": "CA",
                        "cross_street": "",
                        "formatted_address": "8485 Saint-Michel Blvd, Montr\u00e9al QC H1Z 3E7",
                        "locality": "Montreal",
                        "postcode": "H1Z 3E7",
                        "region": "QC"
                  },
                  "name": "Pho Lam",
                  "popularity": 0.9132167865253595,
                  "price": 2
            },
            {
                  "distance": 838,
                  "location": {
                        "address": "8495 Saint-Michel Blvd",
                        "country": "CA",
                        "cross_street": "",
                        "formatted_address": "8495 Saint-Michel Blvd, Montr\u00e9al QC H1Z 3E7",
                        "locality": "Montreal",
                        "postcode": "H1Z 3E7",
                        "region": "QC"
                  },
                  "name": "Cassecroute Pa M Pi Bon Inc",
                  "popularity": 0.8385929220287661,
                  "price": 2
            },
            {
                  "distance": 855,
                  "location": {
                        "address": "1660 Jarry Rue E",
                        "country": "CA",
                        "cross_street": "",
                        "formatted_address": "1660 Jarry Rue E, Montr\u00e9al QC H2E 1B3",
                        "locality": "Montreal",
                        "postcode": "H2E 1B3",
                        "region": "QC"
                  },
                  "name": "Le Gras Dur",
                  "popularity": 0.8562287093111279,
                  "price": 2
            },
            {
                  "distance": 943,
                  "location": {
                        "address": "1534 Jarry Rue E",
                        "country": "CA",
                        "cross_street": "",
                        "formatted_address": "1534 Jarry Rue E, Montr\u00e9al QC H2E 1A9",
                        "locality": "Montreal",
                        "postcode": "H2E 1A9",
                        "region": "QC"
                  },
                  "name": "Pizza Montreal",
                  "popularity": 0.9646456283118849,
                  "price": 1
            },
            {
                  "distance": 998,
                  "location": {
                        "address": "1667 Villeray Rue",
                        "country": "CA",
                        "cross_street": "coin Marquette",
                        "formatted_address": "1667 Villeray Rue (coin Marquette), Montr\u00e9al QC H2E 1H5",
                        "locality": "Montreal",
                        "postcode": "H2E 1H5",
                        "region": "QC"
                  },
                  "name": "Cafe Roma",
                  "popularity": 0.9140920704012112,
                  "price": 1
            },
            {
                  "distance": 309,
                  "location": {
                        "address": "2670 Jarry Rue E",
                        "country": "CA",
                        "formatted_address": "2670 Jarry Rue E, Montreal QC H1Z 2C7",
                        "locality": "Montreal",
                        "postcode": "H1Z 2C7",
                        "region": "QC"
                  },
                  "name": "Restaurant Orchidee Thai"
            },
            {
                  "distance": 309,
                  "location": {
                        "address": "2670 Jarry Rue E",
                        "country": "CA",
                        "formatted_address": "2670 Jarry Rue E, Montreal QC H1Z 2C7",
                        "locality": "Montreal",
                        "postcode": "H1Z 2C7",
                        "region": "QC"
                  },
                  "name": "Rang Dong Restaurant"
            },
            {
                  "distance": 564,
                  "location": {
                        "address": "3207 Jarry Rue E",
                        "country": "CA",
                        "formatted_address": "3207 Jarry Rue E, Montreal QC H1Z 2E3",
                        "locality": "Montreal",
                        "postcode": "H1Z 2E3",
                        "region": "QC"
                  },
                  "name": "Resto-Bar Lucky 7"
            },
            {
                  "distance": 579,
                  "location": {
                        "address": "3204 Jarry Rue E",
                        "country": "CA",
                        "formatted_address": "3204 Jarry Rue E, Montreal QC H1Z 2E2",
                        "locality": "Montreal",
                        "postcode": "H1Z 2E2",
                        "region": "QC"
                  },
                  "name": "Grillades Portugaise Cantinho Eo Cantinhoe"
            },
            {
                  "distance": 622,
                  "location": {
                        "address": "8042 Saint-Michel Blvd",
                        "country": "CA",
                        "formatted_address": "8042 Saint-Michel Blvd, Montreal QC H1Z 3E1",
                        "locality": "Montreal",
                        "postcode": "H1Z 3E1",
                        "region": "QC"
                  },
                  "name": "Caf\u00e9 Bistro Cantinho Da Bola"
            },
            {
                  "distance": 678,
                  "location": {
                        "address": "8420 Saint-Michel Blvd",
                        "country": "CA",
                        "formatted_address": "8420 Saint-Michel Blvd, Montreal QC H1Z 3E2",
                        "locality": "Montreal",
                        "postcode": "H1Z 3E2",
                        "region": "QC"
                  },
                  "name": "Bistro Peaches"
            },
            {
                  "distance": 690,
                  "location": {
                        "address": "7961 Saint-Michel Blvd",
                        "country": "CA",
                        "formatted_address": "7961 Saint-Michel Blvd, Montreal QC H1Z 3C9",
                        "locality": "Montreal",
                        "postcode": "H1Z 3C9",
                        "region": "QC"
                  },
                  "name": "Duy Anh"
            },
            {
                  "distance": 700,
                  "location": {
                        "address": "1980 Tillemont Rue",
                        "country": "CA",
                        "formatted_address": "1980 Tillemont Rue, Montreal QC H2E 1E1",
                        "locality": "Montreal",
                        "postcode": "H2E 1E1",
                        "region": "QC"
                  },
                  "name": "P\u00e2tisserie Norma"
            },
            {
                  "distance": 708,
                  "location": {
                        "address": "7933 Saint-Michel Blvd",
                        "country": "CA",
                        "formatted_address": "7933 Saint-Michel Blvd, Montreal QC H1Z 3C9",
                        "locality": "Montreal",
                        "postcode": "H1Z 3C9",
                        "region": "QC"
                  },
                  "name": "Club des Pecheurs Montr\u00e9al"
            },
            {
                  "distance": 744,
                  "location": {
                        "address": "3345 Jarry Rue E",
                        "country": "CA",
                        "formatted_address": "3345 Jarry Rue E, Montreal QC H1Z 2E5",
                        "locality": "Montreal",
                        "postcode": "H1Z 2E5",
                        "region": "QC"
                  },
                  "name": "Caf\u00e9 Majorelle"
            },
            {
                  "distance": 791,
                  "location": {
                        "address": "7682 Saint-Michel Blvd",
                        "country": "CA",
                        "formatted_address": "7682 Saint-Michel Blvd, Montreal QC H2A 3A5",
                        "locality": "Montreal",
                        "postcode": "H2A 3A5",
                        "region": "QC"
                  },
                  "name": "Brasserie Chez le Pere Gedeon"
            },
            {
                  "distance": 819,
                  "location": {
                        "address": "8489 Saint-Michel Blvd",
                        "country": "CA",
                        "formatted_address": "8489 Saint-Michel Blvd, Montreal QC H1Z 3E7",
                        "locality": "Montreal",
                        "postcode": "H1Z 3E7",
                        "region": "QC"
                  },
                  "name": "Brasserie Place 37"
            },
            {
                  "distance": 841,
                  "location": {
                        "address": "1700 Jarry Rue E",
                        "country": "CA",
                        "formatted_address": "1700 Jarry Rue E, Montreal QC H2E 1B3",
                        "locality": "Montreal",
                        "postcode": "H2E 1B3",
                        "region": "QC"
                  },
                  "name": "Restaurant PFK"
            },
            {
                  "distance": 852,
                  "location": {
                        "address": "3250C Cremazie Blvd E",
                        "country": "CA",
                        "formatted_address": "3250C Cremazie Blvd E, Montreal QC H2A 3N9",
                        "locality": "Montreal",
                        "postcode": "H2A 3N9",
                        "region": "QC"
                  },
                  "name": "Fondue Kim Long"
            },
            {
                  "distance": 856,
                  "location": {
                        "address": "3055A Villeray Rue",
                        "country": "CA",
                        "formatted_address": "3055A Villeray Rue, Montreal QC H2A 1E8",
                        "locality": "Montreal",
                        "postcode": "H2A 1E8",
                        "region": "QC"
                  },
                  "name": "Cafe Bistro la Dolce Vita"
            }
      ],
      "context": {
            "geo_bounds": {
                  "circle": {
                        "center": {
                              "latitude": 45.55984236,
                              "longitude": -73.61544728
                        },
                        "radius": 1000
                  }
            }
      }
}