{
      "results": [
            {
                  "distance": 828,
                  "location": {
                        "address": "1228 Sherbrooke Rue O",
                        "country": "CA",
                        "cross_street": "entre Drummond & De la Montagne",
                        "formatted_address": "1228 Sherbrooke Rue O (entre Drummond & De la Montagne), Montr\u00e9al QC H3G 1H6",
                        "locality": "Montreal",
                        "postcode": "H3G 1H6",
                        "region": "QC"
                  },
                  "name": "Maison Boulud",
                  "popularity": 0.9380914080242241,
                  "price": 4,
                  "rating": 9.1
            },
            {
                  "distance": 766,
                  "location": {
                        "address": "705 Sainte-Catherine Rue O",
                        "country": "CA",
                        "cross_street": "",
                        "formatted_address": "705 Sainte-Catherine Rue O, Montr\u00e9al QC H3B 4G5",
                        "locality": "Montreal",
                        "postcode": "H3B 4G5",
                        "region": "QC"
                  },
                  "name": "Time Out Market Montr\u00e9al",
                  "popularity": 0.9987107305071915,
                  "price": 2,
                  "rating": 9.1
            },
            {
                  "distance": 813,
                  "location": {
                        "address": "19 Prince-Arthur Rue O",
                        "country": "CA",
                        "cross_street": "entre St-Laurent & Clark",
                        "formatted_address": "19 Prince-Arthur Rue O (entre St-Laurent & Clark), Montr\u00e9al QC H2X 1S4",
                        "locality": "Montreal",
                        "postcode": "H2X 1S4",
                        "region": "QC"
                  },
                  "name": "Caf\u00e9 Nocturne",
                  "popularity": 0.9314912944738835,
                  "price": 1,
                  "rating": 9.0
            },
            {
                  "distance": 916,
                  "location": {
                        "address": "3990 Saint-Urbain Rue",
                        "country": "CA",
                        "cross_street": "coin Duluth",
                        "formatted_address": "3990 Saint-Urbain Rue (coin Duluth), Montr\u00e9al QC H2W 1T7",
                        "locality": "Montreal",
                        "postcode": "H2W 1T7",
                        "region": "QC"
                  },
                  "name": "Caf\u00e9 Santropol",
                  "popularity": 0.9517529333838002,
                  "price": 2,
                  "rating": 8.9
            },
            {
                  "distance": 952,
                  "location": {
                        "address": "2051 Rue de la Montagne",
                        "country": "CA",
                        "cross_street": "entre De Maisonneuve & Sherbrooke",
                        "formatted_address": "2051 Rue de la Montagne (entre De Maisonneuve & Sherbrooke), Montr\u00e9al QC H3G 1Z8",
                        "locality": "Montreal",
                        "postcode": "H3G 1Z8",
                        "region": "QC"
                  },
                  "name": "Leaves Cafe",
                  "popularity": 0.9357494322482968,
                  "price": 1,
                  "rating": 8.7
            },
            {
                  "distance": 976,
                  "location": {
                        "address": "3901A Saint-Laurent Blvd",
                        "country": "CA",
                        "cross_street": "entre St-Cuthbert & Napol\u00e9on",
                        "formatted_address": "3901A Saint-Laurent Blvd (entre St-Cuthbert & Napol\u00e9on), Montr\u00e9al QC H2W 1X9",
                        "locality": "Montreal",
                        "postcode": "H2W 1X9",
                        "region": "QC"
                  },
                  "name": "Schwartz's Montreal Hebrew Delicatessen (Schwartz's Charcuterie H\u00e9bra\u00efque de Montr\u00e9al)",
                  "popularity": 0.989804125662377,
                  "price": 2,
                  "rating": 8.7
            },
            {
                  "distance": 963,
                  "location": {
                        "address": "1250 Rue de Bleury",
                        "country": "CA",
                        "cross_street": "at Sainte-Catherine",
                        "formatted_address": "1250 Rue de Bleury (at Sainte-Catherine), Montr\u00e9al QC H3B 2W4",
                        "locality": "Montreal",
                        "postcode": "H3B 2W4",
                        "region": "QC"
                  },
                  "name": "Nyks Bistro Pub",
                  "popularity": 0.9770888531415595,
                  "price": 2,
                  "rating": 8.6
            },
            {
                  "distance": 924,
                  "location": {
                        "address": "1225 Blvd de Maisonneuve ouest",
                        "country": "CA",
                        "cross_street": "Drummond",
                        "formatted_address": "1225 Blvd de Maisonneuve ouest (Drummond), Montr\u00e9al QC H3G 1M3",
                        "locality": "Montreal",
                        "postcode": "H3G 1M3",
                        "region": "QC"
                  },
                  "name": "Maison Christian Faure",
                  "popularity": 0.8947411998485996,
                  "price": 1,
                  "rating": 8.6
            },
            {
                  "distance": 960,
                  "location": {
                        "address": "1116 Sainte-Catherine Rue O",
                        "country": "CA",
                        "cross_street": "Peel",
                        "formatted_address": "1116 Sainte-Catherine Rue O (Peel), Montr\u00e9al QC H3B 1H4",
                        "locality": "Montreal",
                        "postcode": "H3B 1H4",
                        "region": "QC"
                  },
                  "name": "Reuben's Deli",
                  "popularity": 0.9828136828160484,
                  "price": 2,
                  "rating": 8.6
            },
            {
                  "distance": 900,
                  "location": {
                        "address": "8 Sherbrooke Rue E",
                        "country": "CA",
                        "cross_street": "Boukevard Saint-Laurent",
                        "formatted_address": "8 Sherbrooke Rue E (Boukevard Saint-Laurent), Montr\u00e9al QC H2X 1C2",
                        "locality": "Montreal",
                        "postcode": "H2X 1C2",
                        "region": "QC"
                  },
                  "name": "Cafe Origine",
                  "popularity": 0.9468324186222559,
                  "price": 1,
                  "rating": 8.5
            },
            {
                  "distance": 536,
                  "location": {
                        "address": "904 Sherbrooke Rue O",
                        "country": "CA",
                        "cross_street": "entre McGill College & Mansfield",
                        "formatted_address": "904 Sherbrooke Rue O (entre McGill College & Mansfield), Montr\u00e9al QC H3A 1G3",
                        "locality": "Montreal",
                        "postcode": "H3A 1G3",
                        "region": "QC"
                  },
                  "name": "Caf\u00e9 Humble Lion",
                  "popularity": 0.9446678652535958,
                  "price": 2,
                  "rating": 8.5
            },
            {
                  "distance": 961,
                  "location": {
                        "address": "73 Prince Arthur Rue E",
                        "country": "CA",
                        "cross_street": "Coloniale",
                        "formatted_address": "73 Prince Arthur Rue E (Coloniale), Montr\u00e9al QC H2X 1B4",
                        "locality": "Montreal",
                        "postcode": "H2X 1B4",
                        "region": "QC"
                  },
                  "name": "Arepera",
                  "popularity": 0.925730980317941,
                  "price": 1,
                  "rating": 8.5
            },
            {
                  "distance": 891,
                  "location": {
                        "address": "2175 rue de la Montagne",
                        "address_extended": "# 100",
                        "country": "CA",
                        "cross_street": "",
                        "formatted_address": "2175 rue de la Montagne, Montr\u00e9al QC H3G 1Z8",
                        "locality": "Montreal",
                        "postcode": "H3G 1Z8",
                        "region": "QC"
                  },
                  "name": "Bar Cloakroom",
                  "popularity": 0.9470216691900075,
                  "price": 3,
                  "rating": 8.5
            },
            {
                  "distance": 548,
                  "location": {
                        "address": "3412 Ave du Parc",
                        "country": "CA",
                        "cross_street": "coin Sherbrooke",
                        "formatted_address": "3412 Ave du Parc (coin Sherbrooke), Montr\u00e9al QC H2X 2H5",
                        "locality": "Montreal",
                        "postcode": "H2X 2H5",
                        "region": "QC"
                  },
                  "name": "Moleskine",
                  "popularity": 0.9416280280090841,
                  "price": 1,
                  "rating": 8.4
            },
            {
                  "distance": 952,
                  "location": {
                        "address": "1440 Drummond Rue",
                        "country": "CA",
                        "cross_street": "",
                        "formatted_address": "1440 Drummond Rue, Montr\u00e9al QC H3G 1V9",
                        "locality": "Montreal",
                        "postcode": "H3G 1V9",
                        "region": "QC"
                  },
                  "name": "Bar George",
                  "popularity": 0.9693768925056775,
                  "price": 3,
                  "rating": 8.3
            },
            {
                  "distance": 844,
                  "location": {
                        "address": "3600 Saint-Laurent Blvd",
                        "address_extended": "coin Prince-Arthur",
                        "country": "CA",
                        "cross_street": "coin Prince-Arthur",
                        "formatted_address": "3600 Saint-Laurent Blvd (coin Prince-Arthur), Montr\u00e9al QC H2X 2V4",
                        "locality": "Montreal",
                        "postcode": "H2X 2V4",
                        "region": "QC"
                  },
                  "name": "Juliette et Chocolat",
                  "popularity": 0.971304882664648,
                  "price": 2,
                  "rating": 8.2
            },
            {
                  "distance": 830,
                  "location": {
                        "address": "51 Sherbrooke Rue O",
                        "country": "CA",
                        "cross_street": "coin Clark",
                        "formatted_address": "51 Sherbrooke Rue O (coin Clark), Montr\u00e9al QC H2X 1X2",
                        "locality": "Montreal",
                        "postcode": "H2X 1X2",
                        "region": "QC"
                  },
                  "name": "Caf\u00e9 OSMO",
                  "popularity": 0.9720027441332324,
                  "price": 1,
                  "rating": 8.2
            },
            {
                  "distance": 642,
                  "location": {
                        "address": "245 Sherbrooke Rue O",
                        "country": "CA",
                        "cross_street": "coin Jeanne-Mance",
                        "formatted_address": "245 Sherbrooke Rue O (coin Jeanne-Mance), Montr\u00e9al QC H2X 1X7",
                        "locality": "Montreal",
                        "postcode": "H2X 1X7",
                        "region": "QC"
                  },
                  "name": "Benelux",
                  "popularity": 0.9719790878122634,
                  "price": 1,
                  "rating": 8.2
            },
            {
                  "distance": 867,
                  "location": {
                        "address": "3515 Saint-Laurent Blvd",
                        "country": "CA",
                        "cross_street": "entre Sherbrooke & Prince-Arthur",
                        "formatted_address": "3515 Saint-Laurent Blvd (entre Sherbrooke & Prince-Arthur), Montr\u00e9al QC H2X 2T6",
                        "locality": "Montreal",
                        "postcode": "H2X 2T6",
                        "region": "QC"
                  },
                  "name": "McKibbin's Irish Pub",
                  "popularity": 0.9739189061317184,
                  "price": 2,
                  "rating": 8.2
            },
            {
                  "distance": 826,
                  "location": {
                        "address": "1472 Peel Rue",
                        "country": "CA",
                        "cross_street": "coin De Maisonneuve",
                        "formatted_address": "1472 Peel Rue (coin De Maisonneuve), Montr\u00e9al QC H3A 1S8",
                        "locality": "Montreal",
                        "postcode": "H3A 1S8",
                        "region": "QC"
                  },
                  "name": "Cafe Vasco Da Gama",
                  "popularity": 0.9501561317183952,
                  "price": 2,
                  "rating": 8.2
            },
            {
                  "distance": 903,
                  "location": {
                        "address": "1250 Robert-Bourassa Blvd",
                        "country": "CA",
                        "cross_street": "",
                        "formatted_address": "1250 Robert-Bourassa Blvd, Montr\u00e9al QC H3B 3B8",
                        "locality": "Montreal",
                        "postcode": "H3B 3B8",
                        "region": "QC"
                  },
                  "name": "Le East",
                  "popularity": 0.9653316616199848,
                  "price": 2,
                  "rating": 8.1
            },
            {
                  "distance": 931,
                  "location": {
                        "address": "1425 Stanley Rue",
                        "country": "CA",
                        "cross_street": "entre De Maisonneuve et Ste-Catherine",
                        "formatted_address": "1425 Stanley Rue (entre De Maisonneuve et Ste-Catherine), Montr\u00e9al QC H3A 1P4",
                        "locality": "Montreal",
                        "postcode": "H3A 1P4",
                        "region": "QC"
                  },
                  "name": "Deville Dinerbar",
                  "popularity": 0.9614638531415595,
                  "price": 2,
                  "rating": 8.0
            },
            {
                  "distance": 849,
                  "location": {
                        "address": "732 Sainte-Catherine Rue O",
                        "country": "CA",
                        "cross_street": "McGill Av.",
                        "formatted_address": "732 Sainte-Catherine Rue O (McGill Av.), Montr\u00e9al QC H3B 1B9",
                        "locality": "Montreal",
                        "postcode": "H3B 1B9",
                        "region": "QC"
                  },
                  "name": "Les 3 Brasseurs",
                  "popularity": 0.9831566994700984,
                  "price": 2,
                  "rating": 8.0
            },
            {
                  "distance": 793,
                  "location": {
                        "address": "425 Mayor Rue",
                        "country": "CA",
                        "cross_street": "coin St-Alexandre",
                        "formatted_address": "425 Mayor Rue (coin St-Alexandre), Montr\u00e9al QC H3A 1N9",
                        "locality": "Montreal",
                        "postcode": "H3A 1N9",
                        "region": "QC"
                  },
                  "name": "Furco",
                  "popularity": 0.9385763626040878,
                  "price": 2,
                  "rating": 7.9
            },
            {
                  "distance": 817,
                  "location": {
                        "address": "20 Prince-Arthur Rue O",
                        "country": "CA",
                        "cross_street": "coin Saint-Laurent",
                        "formatted_address": "20 Prince-Arthur Rue O (coin Saint-Laurent), Montr\u00e9al QC H2X 1S3",
                        "locality": "Montreal",
                        "postcode": "H2X 1S3",
                        "region": "QC"
                  },
                  "name": "Ye Olde Orchard Pub & Grill",
                  "popularity": 0.9363171839515518,
                  "price": 2,
                  "rating": 7.8
            },
            {
                  "distance": 991,
                  "location": {
                        "address": "3908 Saint-Laurent Blvd",
                        "country": "CA",
                        "cross_street": "",
                        "formatted_address": "3908 Saint-Laurent Blvd, Montr\u00e9al QC H2W 1Y2",
                        "locality": "Montreal",
                        "postcode": "H2W 1Y2",
                        "region": "QC"
                  },
                  "name": "North Star Machines \u00e0 Piastres",
                  "popularity": 0.9947719530658592,
                  "price": 2,
                  "rating": 7.8
            },
            {
                  "distance": 728,
                  "location": {
                        "address": "705 Sainte-Catherine Rue O",
                        "address_extended": "Tunnel Level",
                        "country": "CA",
                        "cross_street": "",
                        "formatted_address": "705 Sainte-Catherine Rue O, Montr\u00e9al QC H3B 4G5",
                        "locality": "Montreal",
                        "postcode": "H3B 4G5",
                        "region": "QC"
                  },
                  "name": "A&W Restaurant",
                  "popularity": 0.9869771953065859,
                  "price": 1,
                  "rating": 7.8,
                  "store_id": "5535"
            },
            {
                  "distance": 751,
                  "location": {
                        "address": "3450 Drummond Rue",
                        "country": "CA",
                        "cross_street": "Sherbrooke",
                        "formatted_address": "3450 Drummond Rue (Sherbrooke), Montr\u00e9al QC H3G 1Y2",
                        "locality": "Montreal",
                        "postcode": "H3G 1Y2",
                        "region": "QC"
                  },
                  "name": "Sakura Garden Restaurant",
                  "popularity": 0.9422312641937926,
                  "price": 2,
                  "rating": 7.7
            },
            {
                  "distance": 568,
                  "location": {
                        "address": "224 Milton Rue",
                        "country": "CA",
                        "cross_street": "",
                        "formatted_address": "224 Milton Rue, Montr\u00e9al QC H2X 1V6",
                        "locality": "Montreal",
                        "postcode": "H2X 1V6",
                        "region": "QC"
                  },
                  "name": "Mae Sri Comptoir Thai",
                  "popularity": 0.9586132664647994,
                  "price": 2,
                  "rating": 7.7
            },
            {
                  "distance": 958,
                  "location": {
                        "address": "51 Roy Rue E",
                        "country": "CA",
                        "cross_street": "coin St-Dominique",
                        "formatted_address": "51 Roy Rue E (coin St-Dominique), Montr\u00e9al QC H2W 2S3",
                        "locality": "Montreal",
                        "postcode": "H2W 2S3",
                        "region": "QC"
                  },
                  "name": "Icehouse",
                  "popularity": 0.9281912376987131,
                  "price": 2,
                  "rating": 7.6
            },
            {
                  "distance": 948,
                  "location": {
                        "address": "1249 Metcalfe Rue",
                        "country": "CA",
                        "cross_street": "entre Sainte-Catherine Ouest et Square Dorchester",
                        "formatted_address": "1249 Metcalfe Rue (entre Sainte-Catherine Ouest et Square Dorchester), Montr\u00e9al QC H3B 2V5",
                        "locality": "Montreal",
                        "postcode": "H3B 2V5",
                        "region": "QC"
                  },
                  "name": "Dunn's Famous",
                  "popularity": 0.9749716124148372,
                  "price": 2,
                  "rating": 7.6
            },
            {
                  "distance": 917,
                  "location": {
                        "address": "1230 Blvd de Maisonneuve Ouest",
                        "country": "CA",
                        "cross_street": "coin Drummond",
                        "formatted_address": "1230 Blvd de Maisonneuve Ouest (coin Drummond), Montreal QC H3G 1M2",
                        "locality": "Montreal",
                        "postcode": "H3G 1M2",
                        "region": "QC"
                  },
                  "name": "Le Pois Pench\u00e9",
                  "popularity": 0.9493873012869039,
                  "price": 4,
                  "rating": 7.6
            },
            {
                  "distance": 863,
                  "location": {
                        "address": "453 Sainte-Catherine Rue O",
                        "country": "CA",
                        "cross_street": "",
                        "formatted_address": "453 Sainte-Catherine Rue O, Montr\u00e9al QC H3B 1B1",
                        "locality": "Montreal",
                        "postcode": "H3B 1B1",
                        "region": "QC"
                  },
                  "name": "A&W Restaurant",
                  "popularity": 0.951528198334595,
                  "price": 1,
                  "rating": 7.6,
                  "store_id": "5558"
            },
            {
                  "distance": 943,
                  "location": {
                        "address": "3864 Saint-Laurent Blvd",
                        "country": "CA",
                        "cross_street": "entre St-Cuthbert & Bagg",
                        "formatted_address": "3864 Saint-Laurent Blvd (entre St-Cuthbert & Bagg), Montr\u00e9al QC H2W 1Y2",
                        "locality": "Montreal",
                        "postcode": "H2W 1Y2",
                        "region": "QC"
                  },
                  "name": "Main Deli Steak House",
                  "popularity": 0.9460635881907645,
                  "price": 2,
                  "rating": 7.5
            },
            {
                  "distance": 894,
                  "location": {
                        "address": "1251 McGill College Ave",
                        "country": "CA",
                        "cross_street": "Rue Sainte-Catherine O",
                        "formatted_address": "1251 McGill College Ave (Rue Sainte-Catherine O), Montr\u00e9al QC H3B 2Y4",
                        "locality": "Montreal",
                        "postcode": "H3B 2Y4",
                        "region": "QC"
                  },
                  "name": "Enoteca Monza Pizzeria Moderna",
                  "popularity": 0.9676736373959122,
                  "price": 2,
                  "rating": 7.5
            }
      ],
      "context": {
            "geo_bounds": {
                  "circle": {
                        "center": {
                              "latitude": 45.50747945,
                              "longitude": -73.57864738
                        },
                        "radius": 1000
                  }
            }
      }
}