{
      "results": [
            {
                  "distance": 113,
                  "location": {
                        "address": "1400 Saint Jean Baptiste Blvd",
                        "address_extended": "# 1300",
                        "country": "CA",
                        "formatted_address": "1400 Saint Jean Baptiste Blvd, Pointe-Aux-Trembles QC H1B 4A4",
                        "locality": "Pointe-aux-Trembles",
                        "postcode": "H1B 4A4",
                        "region": "QC"
                  },
                  "name": "Subway",
                  "popularity": 0.9755275359576079,
                  "price": 1,
                  "rating": 6.3
            },
            {
                  "distance": 289,
                  "location": {
                        "address": "1375 St-Jean Baptiste Blvd",
                        "country": "CA",
                        "cross_street": "btw de Montigny & Ren\u00e9 Levesque",
                        "formatted_address": "1375 St-Jean Baptiste Blvd (btw de Montigny & Ren\u00e9 Levesque), Pointe-Aux-Trembles QC H1B 4A2",
                        "locality": "Pointe-aux-Trembles",
                        "postcode": "H1B 4A2",
                        "region": "QC"
                  },
                  "name": "KFC",
                  "popularity": 0.9474593111279334,
                  "price": 1,
                  "rating": 6.0
            },
            {
                  "distance": 71,
                  "location": {
                        "address": "1220 St Jean Baptiste Blvd",
                        "country": "CA",
                        "cross_street": "",
                        "formatted_address": "1220 St Jean Baptiste Blvd, Montr\u00e9al QC H1B 4A2",
                        "locality": "Montreal",
                        "postcode": "H1B 4A2",
                        "region": "QC"
                  },
                  "name": "Tim Hortons",
                  "popularity": 0.9436624716124148,
                  "price": 1,
                  "rating": 5.9
            },
            {
                  "distance": 162,
                  "location": {
                        "address": "1300 Saint-Jean-Baptiste Blvd",
                        "country": "CA",
                        "formatted_address": "1300 Saint-Jean-Baptiste Blvd, Pointe-Aux-Trembles QC H1B 4A4",
                        "locality": "Pointe-aux-Trembles",
                        "postcode": "H1B 4A4",
                        "region": "QC"
                  },
                  "name": "Restaurant Sumo Sushi",
                  "popularity": 0.7712315480696442
            },
            {
                  "distance": 211,
                  "location": {
                        "address": "1305 Saint-Jean-Baptiste Blvd",
                        "country": "CA",
                        "cross_street": "",
                        "formatted_address": "1305 Saint-Jean-Baptiste Blvd, Montr\u00e9al QC H1B 4A2",
                        "locality": "Montreal",
                        "postcode": "H1B 4A2",
                        "region": "QC"
                  },
                  "name": "Restaurant Tha\u00ef Mix Inc",
                  "popularity": 0.8269066994700984,
                  "price": 2
            },
            {
                  "distance": 228,
                  "location": {
                        "address": "1400 Saint-Jean-Baptiste Blvd",
                        "address_extended": "# 5",
                        "country": "CA",
                        "cross_street": "",
                        "formatted_address": "1400 Saint-Jean-Baptiste Blvd, Pointe-Aux-Trembles QC H1B 4A5",
                        "locality": "Pointe-Aux-Trembles",
                        "postcode": "H1B 4A5",
                        "region": "QC"
                  },
                  "name": "Bar Lanjeu",
                  "popularity": 0.2006292581377744,
                  "price": 2
            },
            {
                  "distance": 343,
                  "location": {
                        "address": "1400 Saint Jean Baptiste Blvd",
                        "country": "CA",
                        "cross_street": "",
                        "formatted_address": "1400 Saint Jean Baptiste Blvd, Montreal QC H1B 4A5",
                        "locality": "Montreal",
                        "postcode": "H1B 4A5",
                        "region": "QC"
                  },
                  "name": "Double Pizza",
                  "popularity": 0.3197861468584406,
                  "price": 1
            },
            {
                  "distance": 397,
                  "location": {
                        "address": "1465 Saint Jean- Baptiste Blvd",
                        "country": "CA",
                        "cross_street": "",
                        "formatted_address": "1465 Saint Jean- Baptiste Blvd, Pointe-Aux-Trembles QC H1B 4A2",
                        "locality": "Pointe-Aux-Trembles",
                        "postcode": "H1B 4A2",
                        "region": "QC"
                  },
                  "name": "Casse-Cro\u00fbte Notre-Dame",
                  "popularity": 0.8643073429220288,
                  "price": 2
            },
            {
                  "distance": 491,
                  "location": {
                        "address": "1575 Saint-Jean-Baptiste Blvd",
                        "country": "CA",
                        "cross_street": "",
                        "formatted_address": "1575 Saint-Jean-Baptiste Blvd, Montr\u00e9al QC H1B 4A2",
                        "locality": "Montreal",
                        "postcode": "H1B 4A2",
                        "region": "QC"
                  },
                  "name": "Cremerie le Tropique",
                  "popularity": 0.9615229939439819,
                  "price": 1
            },
            {
                  "distance": 766,
                  "location": {
                        "address": "11906 Notre Dame Rue E",
                        "country": "CA",
                        "cross_street": "",
                        "formatted_address": "11906 Notre Dame Rue E, Pointe-Aux-Trembles QC H1B 2Y3",
                        "locality": "Pointe-Aux-Trembles",
                        "postcode": "H1B 2Y3",
                        "region": "QC"
                  },
                  "name": "Fuzion d'Asie",
                  "popularity": 0.025442373202119607,
                  "price": 2
            },
            {
                  "distance": 944,
                  "location": {
                        "address": "11563 Notre Dame E",
                        "country": "CA",
                        "formatted_address": "11563 Notre Dame E, Montr\u00e9al QC",
                        "locality": "Montreal",
                        "region": "QC"
                  },
                  "name": "Les Gateries",
                  "popularity": 0.8428983724451173,
                  "price": 1
            },
            {
                  "distance": 964,
                  "location": {
                        "address": "11561 Notre-Dame Rue E",
                        "country": "CA",
                        "cross_street": "coin 1re avenue",
                        "formatted_address": "11561 Notre-Dame Rue E (coin 1re avenue), Pointe-Aux-Trembles QC H1B 2X3",
                        "locality": "Pointe-Aux-Trembles",
                        "postcode": "H1B 2X3",
                        "region": "QC"
                  },
                  "name": "La Friterie du Coin",
                  "popularity": 0.9884320590461771,
                  "price": 1
            },
            {
                  "distance": 28515,
                  "location": {
                        "address": "1300 Saint-Jean-Baptiste Blvd",
                        "address_extended": "Local 122",
                        "country": "CA",
                        "cross_street": "",
                        "formatted_address": "1300 Saint-Jean-Baptiste Blvd, Pointe-Aux-Trembles QC H1B 4A4",
                        "locality": "Pointe-aux-Trembles",
                        "postcode": "H1B 4A4",
                        "region": "QC"
                  },
                  "name": "L le Cocotier Bbq & Grill",
                  "popularity": 0.3954248366013072,
                  "price": 2
            },
            {
                  "distance": 140,
                  "location": {
                        "address": "1300 Saint-Jean-Baptiste Blvd",
                        "country": "CA",
                        "formatted_address": "1300 Saint-Jean-Baptiste Blvd, Pointe-Aux-Trembles QC H1B 4A4",
                        "locality": "Pointe-Aux-Trembles",
                        "postcode": "H1B 4A4",
                        "region": "QC"
                  },
                  "name": "Le Cocotier BBQ & Grill"
            },
            {
                  "distance": 199,
                  "location": {
                        "address": "1301 Saint-Jean-Baptiste Blvd",
                        "country": "CA",
                        "formatted_address": "1301 Saint-Jean-Baptiste Blvd, Pointe-Aux-Trembles QC H1B 4A2",
                        "locality": "Pointe-Aux-Trembles",
                        "postcode": "H1B 4A2",
                        "region": "QC"
                  },
                  "name": "Restaurant Tee Pee Enr"
            },
            {
                  "distance": 272,
                  "location": {
                        "address": "1300 Saint-Jean-Baptiste Blvd",
                        "country": "CA",
                        "formatted_address": "1300 Saint-Jean-Baptiste Blvd, Pointe-Aux-Trembles QC H1B 4A4",
                        "locality": "Pointe-Aux-Trembles",
                        "postcode": "H1B 4A4",
                        "region": "QC"
                  },
                  "name": "Restaurant la Belle Province"
            },
            {
                  "distance": 285,
                  "location": {
                        "address": "1300 Saint-Jean-Baptiste Blvd",
                        "country": "CA",
                        "formatted_address": "1300 Saint-Jean-Baptiste Blvd, Pointe-Aux-Trembles QC H1B 4A4",
                        "locality": "Pointe-Aux-Trembles",
                        "postcode": "H1B 4A4",
                        "region": "QC"
                  },
                  "name": "Mty Tiki Ming Enterprises"
            },
            {
                  "distance": 307,
                  "location": {
                        "address": "1300 Saint-Jean-Baptiste Blvd",
                        "country": "CA",
                        "formatted_address": "1300 Saint-Jean-Baptiste Blvd, Pointe-Aux-Trembles QC H1B 4A4",
                        "locality": "Pointe-Aux-Trembles",
                        "postcode": "H1B 4A4",
                        "region": "QC"
                  },
                  "name": "La Cremiere Pat"
            },
            {
                  "distance": 343,
                  "location": {
                        "address": "1441 Saint Jean Baptiste Boule",
                        "country": "CA",
                        "formatted_address": "1441 Saint Jean Baptiste Boule, Pointe-Aux-Trembles QC H1B 4A2",
                        "locality": "Pointe-Aux-Trembles",
                        "postcode": "H1B 4A2",
                        "region": "QC"
                  },
                  "name": "Champion 2 Pour 1 Pizza"
            },
            {
                  "distance": 418,
                  "location": {
                        "address": "52-C Rue de la Gaucheti\u00e8re O",
                        "country": "CA",
                        "formatted_address": "52-C Rue de la Gaucheti\u00e8re O, Montreal QC H2Z 1C1",
                        "locality": "Montreal",
                        "postcode": "H2Z 1C1",
                        "region": "QC"
                  },
                  "name": "Chatime"
            },
            {
                  "distance": 460,
                  "location": {
                        "address": "1574 Saint-Jean-Baptiste Blvd",
                        "country": "CA",
                        "formatted_address": "1574 Saint-Jean-Baptiste Blvd, Pointe-Aux-Trembles QC H1B 4A4",
                        "locality": "Pointe-Aux-Trembles",
                        "postcode": "H1B 4A4",
                        "region": "QC"
                  },
                  "name": "C Tha\u00ef"
            },
            {
                  "distance": 462,
                  "location": {
                        "address": "1574 Saint-Jean-Baptiste Blvd",
                        "country": "CA",
                        "formatted_address": "1574 Saint-Jean-Baptiste Blvd, Montreal QC H1B 4A4",
                        "locality": "Montreal",
                        "postcode": "H1B 4A4",
                        "region": "QC"
                  },
                  "name": "Resto Indian"
            },
            {
                  "distance": 492,
                  "location": {
                        "address": "1575 Saint-Jean-Baptiste Blvd",
                        "country": "CA",
                        "formatted_address": "1575 Saint-Jean-Baptiste Blvd, Pointe-Aux-Trembles QC H1B 4A2",
                        "locality": "Pointe-Aux-Trembles",
                        "postcode": "H1B 4A2",
                        "region": "QC"
                  },
                  "name": "Domino's Pizza",
                  "store_id": "10730"
            },
            {
                  "distance": 758,
                  "location": {
                        "address": "11908 Notre-Dame Rue E",
                        "country": "CA",
                        "formatted_address": "11908 Notre-Dame Rue E, Pointe-Aux-Trembles QC H1B 2Y3",
                        "locality": "Pointe-Aux-Trembles",
                        "postcode": "H1B 2Y3",
                        "region": "QC"
                  },
                  "name": "Bar Sportif la 8"
            },
            {
                  "distance": 770,
                  "location": {
                        "address": "11859 Notre-Dame Rue E",
                        "country": "CA",
                        "formatted_address": "11859 Notre-Dame Rue E, Pointe-Aux-Trembles QC H1B 2Y2",
                        "locality": "Pointe-Aux-Trembles",
                        "postcode": "H1B 2Y2",
                        "region": "QC"
                  },
                  "name": "Studio Sexe"
            },
            {
                  "distance": 770,
                  "location": {
                        "address": "11851 Notre-Dame Rue E",
                        "country": "CA",
                        "formatted_address": "11851 Notre-Dame Rue E, Pointe-Aux-Trembles QC H1B 2Y2",
                        "locality": "Pointe-Aux-Trembles",
                        "postcode": "H1B 2Y2",
                        "region": "QC"
                  },
                  "name": "Vincent Sous-Marins"
            },
            {
                  "distance": 788,
                  "location": {
                        "address": "11934 Notre Dame Rue E",
                        "country": "CA",
                        "formatted_address": "11934 Notre Dame Rue E, Pointe-Aux-Trembles QC H1B 2Y3",
                        "locality": "Pointe-Aux-Trembles",
                        "postcode": "H1B 2Y3",
                        "region": "QC"
                  },
                  "name": "Champion 2 Pour 1 Pizza"
            },
            {
                  "distance": 944,
                  "location": {
                        "address": "11595 Notre-Dame Rue E",
                        "country": "CA",
                        "formatted_address": "11595 Notre-Dame Rue E, Pointe-Aux-Trembles QC H1B 2X3",
                        "locality": "Pointe-Aux-Trembles",
                        "postcode": "H1B 2X3",
                        "region": "QC"
                  },
                  "name": "Cr\u00e8me-O-Bec Notredame"
            },
            {
                  "distance": 967,
                  "location": {
                        "address": "11561 Notre-Dame Rue E",
                        "country": "CA",
                        "formatted_address": "11561 Notre-Dame Rue E, Pointe-Aux-Trembles QC H1B 2X3",
                        "locality": "Pointe-Aux-Trembles",
                        "postcode": "H1B 2X3",
                        "region": "QC"
                  },
                  "name": "Friteries Montreal Inc"
            }
      ],
      "context": {
            "geo_bounds": {
                  "circle": {
                        "center": {
                              "latitude": 45.64141536,
                              "longitude": -73.49995673
                        },
                        "radius": 1000
                  }
            }
      }
}