{
      "results": [
            {
                  "distance": 764,
                  "location": {
                        "address": "709B Jarry Rue E",
                        "country": "CA",
                        "cross_street": "",
                        "formatted_address": "709B Jarry Rue E, Montr\u00e9al QC H2P 1W2",
                        "locality": "Montreal",
                        "postcode": "H2P 1W2",
                        "region": "QC"
                  },
                  "name": "Baristello & Co",
                  "popularity": 0.9224664080242241,
                  "price": 1,
                  "rating": 8.3
            },
            {
                  "distance": 339,
                  "location": {
                        "address": "8115 Papineau Ave",
                        "country": "CA",
                        "cross_street": "coin Jarry Est",
                        "formatted_address": "8115 Papineau Ave (coin Jarry Est), Montr\u00e9al QC H2E 2H7",
                        "locality": "Montreal",
                        "postcode": "H2E 2H7",
                        "region": "QC"
                  },
                  "name": "Tim Hortons",
                  "popularity": 0.9937783875851628,
                  "price": 1,
                  "rating": 8.0
            },
            {
                  "distance": 889,
                  "location": {
                        "address": "615 Jarry Rue E",
                        "country": "CA",
                        "formatted_address": "615 Jarry Rue E, Montr\u00e9al QC H2P 1V8",
                        "locality": "Montreal",
                        "postcode": "H2P 1V8",
                        "region": "QC"
                  },
                  "name": "Restaurant Da Lillo",
                  "popularity": 0.9266180923542771,
                  "price": 2,
                  "rating": 7.5
            },
            {
                  "distance": 419,
                  "location": {
                        "address": "1812 Tillemont Rue",
                        "country": "CA",
                        "cross_street": "Papineau",
                        "formatted_address": "1812 Tillemont Rue (Papineau), Montr\u00e9al QC H2E 1C5",
                        "locality": "Montreal",
                        "postcode": "H2E 1C5",
                        "region": "QC"
                  },
                  "name": "Boulangerie & P\u00e2tisserie Tillemont Inc",
                  "popularity": 0.9615466502649508,
                  "price": 1,
                  "rating": 7.3
            },
            {
                  "distance": 500,
                  "location": {
                        "address": "7690 Papineau Ave",
                        "country": "CA",
                        "formatted_address": "7690 Papineau Ave, Montreal QC H2E 2H2",
                        "locality": "Montreal",
                        "postcode": "H2E 2H2",
                        "region": "QC"
                  },
                  "name": "Restaurant Deli-Plus",
                  "popularity": 0.9771243376230129,
                  "price": 1,
                  "rating": 6.6
            },
            {
                  "distance": 678,
                  "location": {
                        "address": "8400 Christophe-Colomb Ave",
                        "country": "CA",
                        "cross_street": "",
                        "formatted_address": "8400 Christophe-Colomb Ave, Montr\u00e9al QC H2P 1X3",
                        "locality": "Montreal",
                        "postcode": "H2P 1X3",
                        "region": "QC"
                  },
                  "name": "A&W Restaurant",
                  "popularity": 0.9881600113550341,
                  "price": 1,
                  "rating": 6.5,
                  "store_id": "5346"
            },
            {
                  "distance": 166,
                  "location": {
                        "address": "1280 Jarry Rue E",
                        "country": "CA",
                        "cross_street": "",
                        "formatted_address": "1280 Jarry Rue E, Montr\u00e9al QC H2P 1X1",
                        "locality": "Montreal",
                        "postcode": "H2P 1X1",
                        "region": "QC"
                  },
                  "name": "Subway",
                  "popularity": 0.9300955715367146,
                  "price": 1,
                  "rating": 6.4,
                  "store_id": "26612"
            },
            {
                  "distance": 298,
                  "location": {
                        "address": "1700 Jarry Rue E",
                        "country": "CA",
                        "cross_street": "",
                        "formatted_address": "1700 Jarry Rue E, Montr\u00e9al QC H2E 1B3",
                        "locality": "Montreal",
                        "postcode": "H2E 1B3",
                        "region": "QC"
                  },
                  "name": "KFC",
                  "popularity": 0.9714349924299773,
                  "price": 1,
                  "rating": 6.1
            },
            {
                  "distance": 102,
                  "location": {
                        "address": "1270 Jarry Rue E",
                        "country": "CA",
                        "cross_street": "",
                        "formatted_address": "1270 Jarry Rue E, Montr\u00e9al QC H2P 1X1",
                        "locality": "Montreal",
                        "postcode": "H2P 1X1",
                        "region": "QC"
                  },
                  "name": "Pizza Pizza",
                  "popularity": 0.2194596896290689,
                  "price": 1,
                  "store_id": "335"
            },
            {
                  "distance": 145,
                  "location": {
                        "address": "1534 Jarry Rue E",
                        "country": "CA",
                        "cross_street": "",
                        "formatted_address": "1534 Jarry Rue E, Montr\u00e9al QC H2E 1A9",
                        "locality": "Montreal",
                        "postcode": "H2E 1A9",
                        "region": "QC"
                  },
                  "name": "Pizza Montreal",
                  "popularity": 0.9646456283118849,
                  "price": 1
            },
            {
                  "distance": 235,
                  "location": {
                        "address": "1660 Jarry Rue E",
                        "country": "CA",
                        "cross_street": "",
                        "formatted_address": "1660 Jarry Rue E, Montr\u00e9al QC H2E 1B3",
                        "locality": "Montreal",
                        "postcode": "H2E 1B3",
                        "region": "QC"
                  },
                  "name": "Le Gras Dur",
                  "popularity": 0.8562287093111279,
                  "price": 2
            },
            {
                  "distance": 389,
                  "location": {
                        "address": "1370 Villeray Rue",
                        "country": "CA",
                        "cross_street": "",
                        "formatted_address": "1370 Villeray Rue, Montr\u00e9al QC H2E 1G6",
                        "locality": "Montreal",
                        "postcode": "H2E 1G6",
                        "region": "QC"
                  },
                  "name": "Tabac",
                  "popularity": 0.9707489591218774,
                  "price": 1
            },
            {
                  "distance": 454,
                  "location": {
                        "address": "1600 Villeray Rue",
                        "country": "CA",
                        "cross_street": "",
                        "formatted_address": "1600 Villeray Rue, Montr\u00e9al QC H2E 1H3",
                        "locality": "Montreal",
                        "postcode": "H2E 1H3",
                        "region": "QC"
                  },
                  "name": "Le Pro",
                  "popularity": 0.8249668811506434,
                  "price": 1
            },
            {
                  "distance": 575,
                  "location": {
                        "address": "1667 Villeray Rue",
                        "country": "CA",
                        "cross_street": "coin Marquette",
                        "formatted_address": "1667 Villeray Rue (coin Marquette), Montr\u00e9al QC H2E 1H5",
                        "locality": "Montreal",
                        "postcode": "H2E 1H5",
                        "region": "QC"
                  },
                  "name": "Cafe Roma",
                  "popularity": 0.9140920704012112,
                  "price": 1
            },
            {
                  "distance": 635,
                  "location": {
                        "address": "8099 Saint-Hubert Rue",
                        "country": "CA",
                        "cross_street": "Jarry",
                        "formatted_address": "8099 Saint-Hubert Rue (Jarry), Montr\u00e9al QC H2R 2P4",
                        "locality": "Montreal",
                        "postcode": "H2R 2P4",
                        "region": "QC"
                  },
                  "name": "Lokma P\u00e2tisserie-Caf\u00e9",
                  "popularity": 0.8353874905374716,
                  "price": 1
            },
            {
                  "distance": 707,
                  "location": {
                        "address": "751 Jarry Rue E",
                        "country": "CA",
                        "cross_street": "",
                        "formatted_address": "751 Jarry Rue E, Montr\u00e9al QC H2P 1W3",
                        "locality": "Montreal",
                        "postcode": "H2P 1W3",
                        "region": "QC"
                  },
                  "name": "Fanfare Jarry",
                  "popularity": 0.9510314155942468,
                  "price": 1
            },
            {
                  "distance": 785,
                  "location": {
                        "address": "7614 Saint-Hubert Rue",
                        "country": "CA",
                        "cross_street": "",
                        "formatted_address": "7614 Saint-Hubert Rue, Montr\u00e9al QC H2R 2N6",
                        "locality": "Montreal",
                        "postcode": "H2R 2N6",
                        "region": "QC"
                  },
                  "name": "Pizzellicoq Restaurant",
                  "popularity": 0.8172076078728236,
                  "price": 2
            },
            {
                  "distance": 805,
                  "location": {
                        "address": "676 Jarry Rue E",
                        "country": "CA",
                        "cross_street": "",
                        "formatted_address": "676 Jarry Rue E, Montr\u00e9al QC H2P 1V9",
                        "locality": "Montreal",
                        "postcode": "H2P 1V9",
                        "region": "QC"
                  },
                  "name": "Pho Do",
                  "popularity": 0.897284254352763,
                  "price": 2
            },
            {
                  "distance": 838,
                  "location": {
                        "country": "CA",
                        "cross_street": "",
                        "formatted_address": ""
                  },
                  "name": "Le Roi de Taco",
                  "popularity": 0.8624621498864496,
                  "price": 1
            },
            {
                  "distance": 881,
                  "location": {
                        "address": "608 Jarry E",
                        "country": "CA",
                        "cross_street": "",
                        "formatted_address": "608 Jarry E, Montr\u00e9al QC H2P 1V7",
                        "locality": "Montreal",
                        "postcode": "H2P 1V7",
                        "region": "QC"
                  },
                  "name": "B\u00eap",
                  "popularity": 0.8465887585162756,
                  "price": 2
            },
            {
                  "distance": 202,
                  "location": {
                        "address": "1590 Jarry Rue E",
                        "country": "CA",
                        "formatted_address": "1590 Jarry Rue E, Montreal QC H2E 1B2",
                        "locality": "Montreal",
                        "postcode": "H2E 1B2",
                        "region": "QC"
                  },
                  "name": "Caf\u00e9 Bar Cosenza"
            },
            {
                  "distance": 226,
                  "location": {
                        "address": "8144 Marquette Rue",
                        "country": "CA",
                        "formatted_address": "8144 Marquette Rue, Montreal QC H2E 2G2",
                        "locality": "Montreal",
                        "postcode": "H2E 2G2",
                        "region": "QC"
                  },
                  "name": "Chez Junior"
            },
            {
                  "distance": 250,
                  "location": {
                        "address": "1700 Jarry Rue E",
                        "country": "CA",
                        "formatted_address": "1700 Jarry Rue E, Montreal QC H2E 1B3",
                        "locality": "Montreal",
                        "postcode": "H2E 1B3",
                        "region": "QC"
                  },
                  "name": "Restaurant PFK"
            },
            {
                  "distance": 657,
                  "location": {
                        "address": "7950 St-Hubert Rue",
                        "country": "CA",
                        "formatted_address": "7950 St-Hubert Rue, Montreal QC H2R 2P3",
                        "locality": "Montreal",
                        "postcode": "H2R 2P3",
                        "region": "QC"
                  },
                  "name": "Osteria Gallo"
            },
            {
                  "distance": 675,
                  "location": {
                        "address": "8400 Christophe-Colomb Ave",
                        "country": "CA",
                        "formatted_address": "8400 Christophe-Colomb Ave, Montreal QC H2P 1X3",
                        "locality": "Montreal",
                        "postcode": "H2P 1X3",
                        "region": "QC"
                  },
                  "name": "A & W Christophe Colomb"
            },
            {
                  "distance": 834,
                  "location": {
                        "address": "651 Jarry Rue E",
                        "country": "CA",
                        "formatted_address": "651 Jarry Rue E, Montreal QC H2P 1W1",
                        "locality": "Montreal",
                        "postcode": "H2P 1W1",
                        "region": "QC"
                  },
                  "name": "El Compadre"
            },
            {
                  "distance": 834,
                  "location": {
                        "address": "651 Jarry Rue E",
                        "country": "CA",
                        "formatted_address": "651 Jarry Rue E, Montreal QC H2P 1W1",
                        "locality": "Montreal",
                        "postcode": "H2P 1W1",
                        "region": "QC"
                  },
                  "name": "Cafe Coin Express"
            },
            {
                  "distance": 886,
                  "location": {
                        "address": "7481 Ave de Lorimier",
                        "country": "CA",
                        "formatted_address": "7481 Ave de Lorimier, Montreal QC H2E 2P4",
                        "locality": "Montreal",
                        "postcode": "H2E 2P4",
                        "region": "QC"
                  },
                  "name": "Restaurant Pizza & Pasta"
            },
            {
                  "distance": 963,
                  "location": {
                        "address": "552 Jarry Rue E",
                        "country": "CA",
                        "formatted_address": "552 Jarry Rue E, Montreal QC",
                        "locality": "Montreal",
                        "region": "QC"
                  },
                  "name": "Le Petit Cafe de la Taverne Jarry"
            },
            {
                  "distance": 980,
                  "location": {
                        "address": "7450 Saint-Hubert Rue",
                        "country": "CA",
                        "formatted_address": "7450 Saint-Hubert Rue, Montreal QC H2R 2N3",
                        "locality": "Montreal",
                        "postcode": "H2R 2N3",
                        "region": "QC"
                  },
                  "name": "Paraiso Tropical"
            },
            {
                  "distance": 988,
                  "location": {
                        "address": "7429 Saint-Hubert Rue",
                        "country": "CA",
                        "formatted_address": "7429 Saint-Hubert Rue, Montreal QC H2R 2N4",
                        "locality": "Montreal",
                        "postcode": "H2R 2N4",
                        "region": "QC"
                  },
                  "name": "Bistro Bar Bizzwack"
            }
      ],
      "context": {
            "geo_bounds": {
                  "circle": {
                        "center": {
                              "latitude": 45.55081979,
                              "longitude": -73.6208868
                        },
                        "radius": 1000
                  }
            }
      }
}