{
      "results": [
            {
                  "distance": 982,
                  "location": {
                        "address": "3180 Fleury Rue E",
                        "country": "CA",
                        "cross_street": "at boul Saint-Michel",
                        "formatted_address": "3180 Fleury Rue E (at boul Saint-Michel), Montr\u00e9al QC H1H 2R3",
                        "locality": "Montreal",
                        "postcode": "H1H 2R3",
                        "region": "QC"
                  },
                  "name": "Chez Ma Tante",
                  "popularity": 0.9907976911430735,
                  "price": 1,
                  "rating": 6.8
            },
            {
                  "distance": 400,
                  "location": {
                        "address": "10400 Pie-Ix Blvd",
                        "country": "CA",
                        "cross_street": "",
                        "formatted_address": "10400 Pie-Ix Blvd, Montreal-Nord QC H1H 3Z8",
                        "locality": "Montr\u00e9al-Nord",
                        "postcode": "H1H 3Z8",
                        "region": "QC"
                  },
                  "name": "Pizza Hut",
                  "popularity": 0.9418882475397427,
                  "price": 1,
                  "rating": 6.3,
                  "store_id": "R29606"
            },
            {
                  "distance": 359,
                  "location": {
                        "address": "10333 Pie-Ix Blvd",
                        "country": "CA",
                        "cross_street": "Fleury",
                        "formatted_address": "10333 Pie-Ix Blvd (Fleury), Montreal-Nord QC H1H 3Z7",
                        "locality": "Montr\u00e9al-Nord",
                        "postcode": "H1H 3Z7",
                        "region": "QC"
                  },
                  "name": "McDonald's",
                  "popularity": 0.9984859954579863,
                  "price": 1,
                  "rating": 6.3,
                  "store_id": "5464"
            },
            {
                  "distance": 471,
                  "location": {
                        "address": "10433 Pie-Ix Blvd",
                        "country": "CA",
                        "cross_street": "Denomm\u00e9e",
                        "formatted_address": "10433 Pie-Ix Blvd (Denomm\u00e9e), Montreal-Nord QC H1H 3Z9",
                        "locality": "Montr\u00e9al-Nord",
                        "postcode": "H1H 3Z9",
                        "region": "QC"
                  },
                  "name": "Tim Hortons",
                  "popularity": 0.9913417865253595,
                  "price": 1,
                  "rating": 6.2
            },
            {
                  "distance": 525,
                  "location": {
                        "address": "10495 Pie-Ix Blvd",
                        "country": "CA",
                        "cross_street": "",
                        "formatted_address": "10495 Pie-Ix Blvd, Montreal-Nord QC H1H 4A3",
                        "locality": "Montr\u00e9al-Nord",
                        "postcode": "H1H 4A3",
                        "region": "QC"
                  },
                  "name": "R\u00f4tisserie St-Hubert",
                  "popularity": 0.9386236752460257,
                  "price": 2,
                  "rating": 6.1,
                  "store_id": "100088"
            },
            {
                  "distance": 467,
                  "location": {
                        "address": "10490 Pie I X Blvd",
                        "country": "CA",
                        "cross_street": "Forest",
                        "formatted_address": "10490 Pie I X Blvd (Forest), Montreal-Nord QC H1H 4A1",
                        "locality": "Montr\u00e9al-Nord",
                        "postcode": "H1H 4A1",
                        "region": "QC"
                  },
                  "name": "Restaurant le Petit Quebec",
                  "popularity": 0.9423495457986374,
                  "price": 1
            },
            {
                  "distance": 547,
                  "location": {
                        "address": "10 550 Blvd Pie Ix",
                        "country": "CA",
                        "formatted_address": "10 550 Blvd Pie Ix, Montreal-Nord QC H1H 4A2",
                        "locality": "Montr\u00e9al-Nord",
                        "postcode": "H1H 4A2",
                        "region": "QC"
                  },
                  "name": "Benny&Co",
                  "popularity": 0.9461818697956094,
                  "price": 3,
                  "store_id": "BC_24"
            },
            {
                  "distance": 643,
                  "location": {
                        "address": "10660 Pie-Ix Blvd",
                        "country": "CA",
                        "cross_street": "",
                        "formatted_address": "10660 Pie-Ix Blvd, Montreal-Nord QC H1H 4A6",
                        "locality": "Montr\u00e9al-Nord",
                        "postcode": "H1H 4A6",
                        "region": "QC"
                  },
                  "name": "Restaurant Chez Lien",
                  "popularity": 0.6618092354277063,
                  "price": 2
            },
            {
                  "distance": 823,
                  "location": {
                        "address": "3322 Fleury Rue E",
                        "country": "CA",
                        "cross_street": "",
                        "formatted_address": "3322 Fleury Rue E, Montreal-Nord QC H1H 2R5",
                        "locality": "Montreal-Nord",
                        "postcode": "H1H 2R5",
                        "region": "QC"
                  },
                  "name": "Boulangerie P\u00e2tisserie Montebello Inc",
                  "popularity": 0.26783686601059803,
                  "price": 1
            },
            {
                  "distance": 868,
                  "location": {
                        "address": "9700 Saint-Michel Blvd",
                        "country": "CA",
                        "cross_street": "",
                        "formatted_address": "9700 Saint-Michel Blvd, Montr\u00e9al QC H1H 5G6",
                        "locality": "Montreal",
                        "postcode": "H1H 5G6",
                        "region": "QC"
                  },
                  "name": "Osteria Pranzo",
                  "popularity": 0.3297691143073429,
                  "price": 2
            },
            {
                  "distance": 927,
                  "location": {
                        "address": "9482 Saint-Michel Blvd",
                        "country": "CA",
                        "cross_street": "Charland",
                        "formatted_address": "9482 Saint-Michel Blvd (Charland), Montr\u00e9al QC H1Z 3H2",
                        "locality": "Montreal",
                        "postcode": "H1Z 3H2",
                        "region": "QC"
                  },
                  "name": "Grill N Go",
                  "popularity": 0.9747468773656321,
                  "price": 2
            },
            {
                  "distance": 142,
                  "location": {
                        "address": "10025 Ave de London",
                        "country": "CA",
                        "formatted_address": "10025 Ave de London, Montreal-Nord QC H1H 4H2",
                        "locality": "Montreal-Nord",
                        "postcode": "H1H 4H2",
                        "region": "QC"
                  },
                  "name": "Cafe Espresso Lino"
            },
            {
                  "distance": 268,
                  "location": {
                        "address": "10181 Pie Ix Blvd N",
                        "country": "CA",
                        "formatted_address": "10181 Pie Ix Blvd N, Montreal-Nord QC H1H 3Z4",
                        "locality": "Montreal-Nord",
                        "postcode": "H1H 3Z4",
                        "region": "QC"
                  },
                  "name": "Cabaret Chez Mado"
            },
            {
                  "distance": 377,
                  "location": {
                        "address": "3640 Sabrevois Rue",
                        "country": "CA",
                        "formatted_address": "3640 Sabrevois Rue, Montreal-Nord QC H1H 2W6",
                        "locality": "Montreal-Nord",
                        "postcode": "H1H 2W6",
                        "region": "QC"
                  },
                  "name": "Caf\u00e9 Moka d'Oro Inc"
            },
            {
                  "distance": 410,
                  "location": {
                        "address": "3705 Fleury Rue E",
                        "country": "CA",
                        "formatted_address": "3705 Fleury Rue E, Montreal-Nord QC H1H 2S8",
                        "locality": "Montreal-Nord",
                        "postcode": "H1H 2S8",
                        "region": "QC"
                  },
                  "name": "Phat Grill Resto-Bar"
            },
            {
                  "distance": 410,
                  "location": {
                        "address": "3705 Fleury Rue E",
                        "country": "CA",
                        "formatted_address": "3705 Fleury Rue E, Montreal-Nord QC H1H 2S8",
                        "locality": "Montreal-Nord",
                        "postcode": "H1H 2S8",
                        "region": "QC"
                  },
                  "name": "Vida Sushi"
            },
            {
                  "distance": 449,
                  "location": {
                        "address": "3656 Fleury Rue E",
                        "country": "CA",
                        "formatted_address": "3656 Fleury Rue E, Montreal-Nord QC H1H 2S6",
                        "locality": "Montreal-Nord",
                        "postcode": "H1H 2S6",
                        "region": "QC"
                  },
                  "name": "Cicek P\u00e2tisserie"
            },
            {
                  "distance": 530,
                  "location": {
                        "address": "10567 Pie I X Blvd",
                        "country": "CA",
                        "formatted_address": "10567 Pie I X Blvd, Montreal-Nord QC H1H 4A3",
                        "locality": "Montreal-Nord",
                        "postcode": "H1H 4A3",
                        "region": "QC"
                  },
                  "name": "Bob Delicatessen Restaurant"
            },
            {
                  "distance": 530,
                  "location": {
                        "address": "10550 Pie Ix Blvd",
                        "country": "CA",
                        "formatted_address": "10550 Pie Ix Blvd, Montreal QC H1H 2M8",
                        "locality": "Montreal",
                        "postcode": "H1H 2M8",
                        "region": "QC"
                  },
                  "name": "Benny&Co"
            },
            {
                  "distance": 531,
                  "location": {
                        "address": "10567 Pie Ix Blvd",
                        "country": "CA",
                        "formatted_address": "10567 Pie Ix Blvd, Montreal-Nord QC H1H 4A3",
                        "locality": "Montreal-Nord",
                        "postcode": "H1H 4A3",
                        "region": "QC"
                  },
                  "name": "Deli-Forest Restaurant"
            },
            {
                  "distance": 543,
                  "location": {
                        "address": "10669 Pie-Ix Blvd",
                        "country": "CA",
                        "formatted_address": "10669 Pie-Ix Blvd, Montreal-Nord QC H1H 4A3",
                        "locality": "Montreal-Nord",
                        "postcode": "H1H 4A3",
                        "region": "QC"
                  },
                  "name": "Bar Pot de Chance"
            },
            {
                  "distance": 548,
                  "location": {
                        "address": "4132 Forest Rue",
                        "country": "CA",
                        "formatted_address": "4132 Forest Rue, Montreal-Nord QC H1H 2N5",
                        "locality": "Montreal-Nord",
                        "postcode": "H1H 2N5",
                        "region": "QC"
                  },
                  "name": "Super Prix"
            },
            {
                  "distance": 663,
                  "location": {
                        "address": "10660 Pie-Ix Blvd",
                        "country": "CA",
                        "formatted_address": "10660 Pie-Ix Blvd, Montreal-Nord QC H1H 4A6",
                        "locality": "Montreal-Nord",
                        "postcode": "H1H 4A6",
                        "region": "QC"
                  },
                  "name": "Ph\u00f2 H\u00f2a Long"
            },
            {
                  "distance": 681,
                  "location": {
                        "address": "3451 Fleury Rue E",
                        "country": "CA",
                        "formatted_address": "3451 Fleury Rue E, Montreal-Nord QC H1H 5R2",
                        "locality": "Montreal-Nord",
                        "postcode": "H1H 5R2",
                        "region": "QC"
                  },
                  "name": "Rolando Resto Bar Sportif"
            },
            {
                  "distance": 681,
                  "location": {
                        "address": "3451 Fleury Rue E",
                        "country": "CA",
                        "formatted_address": "3451 Fleury Rue E, Montreal-Nord QC H1H 5R2",
                        "locality": "Montreal-Nord",
                        "postcode": "H1H 5R2",
                        "region": "QC"
                  },
                  "name": "B Burger"
            },
            {
                  "distance": 796,
                  "location": {
                        "address": "9222 Pie Ix Blvd",
                        "country": "CA",
                        "formatted_address": "9222 Pie Ix Blvd, Montreal QC H1Z 4H7",
                        "locality": "Montreal",
                        "postcode": "H1Z 4H7",
                        "region": "QC"
                  },
                  "name": "Chez Tommy Resto Bar"
            },
            {
                  "distance": 861,
                  "location": {
                        "address": "3650 Monselet Rue",
                        "country": "CA",
                        "formatted_address": "3650 Monselet Rue, Montreal-Nord QC H1H 2A9",
                        "locality": "Montreal-Nord",
                        "postcode": "H1H 2A9",
                        "region": "QC"
                  },
                  "name": "Ouyoun Baghdad Resto"
            },
            {
                  "distance": 924,
                  "location": {
                        "address": "9482 Saint-Michel Blvd",
                        "country": "CA",
                        "formatted_address": "9482 Saint-Michel Blvd, Montreal QC",
                        "locality": "Montreal",
                        "region": "QC"
                  },
                  "name": "GrillnGo"
            },
            {
                  "distance": 942,
                  "location": {
                        "address": "9143 Pie I X Blvd",
                        "country": "CA",
                        "formatted_address": "9143 Pie I X Blvd, Montreal QC H1Z 3V9",
                        "locality": "Montreal",
                        "postcode": "H1Z 3V9",
                        "region": "QC"
                  },
                  "name": "Restaurant Nouveau Felix"
            },
            {
                  "distance": 944,
                  "location": {
                        "address": "9186 25e Ave",
                        "country": "CA",
                        "formatted_address": "9186 25e Ave, Montreal QC H1Z 4C9",
                        "locality": "Montreal",
                        "postcode": "H1Z 4C9",
                        "region": "QC"
                  },
                  "name": "Que Taco Con Queso"
            },
            {
                  "distance": 968,
                  "location": {
                        "address": "3163 Fleury Rue E",
                        "country": "CA",
                        "formatted_address": "3163 Fleury Rue E, Montreal-Nord QC H1H 2R2",
                        "locality": "Montreal-Nord",
                        "postcode": "H1H 2R2",
                        "region": "QC"
                  },
                  "name": "Brasserie Chomar Lt\u00e9e"
            },
            {
                  "distance": 969,
                  "location": {
                        "address": "3155 Fleury Rue E",
                        "country": "CA",
                        "formatted_address": "3155 Fleury Rue E, Montreal-Nord QC H1H 2R2",
                        "locality": "Montreal-Nord",
                        "postcode": "H1H 2R2",
                        "region": "QC"
                  },
                  "name": "L'oudaya Cafe Restaurant"
            },
            {
                  "distance": 982,
                  "location": {
                        "address": "10380 Saint-Michel Blvd",
                        "country": "CA",
                        "formatted_address": "10380 Saint-Michel Blvd, Montreal-Nord QC H1H 5H3",
                        "locality": "Montreal-Nord",
                        "postcode": "H1H 5H3",
                        "region": "QC"
                  },
                  "name": "Restorant Costa Berde Inc"
            }
      ],
      "context": {
            "geo_bounds": {
                  "circle": {
                        "center": {
                              "latitude": 45.58328788,
                              "longitude": -73.63276362
                        },
                        "radius": 1000
                  }
            }
      }
}