{
      "results": [
            {
                  "distance": 339,
                  "location": {
                        "address": "3974 Pierre de Coubertin Ave",
                        "country": "CA",
                        "cross_street": "",
                        "formatted_address": "3974 Pierre de Coubertin Ave, Montr\u00e9al QC H1W 1E7",
                        "locality": "Montreal",
                        "postcode": "H1W 1E7",
                        "region": "QC"
                  },
                  "name": "Fusion Express",
                  "popularity": 0.9321300151400455,
                  "price": 2,
                  "rating": 8.0
            },
            {
                  "distance": 624,
                  "location": {
                        "address": "3971 Hochelaga Rue",
                        "country": "CA",
                        "cross_street": "",
                        "formatted_address": "3971 Hochelaga Rue, Montr\u00e9al QC H1W 1K2",
                        "locality": "Montreal",
                        "postcode": "H1W 1K2",
                        "region": "QC"
                  },
                  "name": "Poutine Centrale",
                  "popularity": 0.9448807721423165,
                  "price": 2,
                  "rating": 7.9
            },
            {
                  "distance": 186,
                  "location": {
                        "address": "4101 Sherbrooke Rue E",
                        "country": "CA",
                        "cross_street": "",
                        "formatted_address": "4101 Sherbrooke Rue E, Montr\u00e9al QC H1X 2B2",
                        "locality": "Montreal",
                        "postcode": "H1X 2B2",
                        "region": "QC"
                  },
                  "name": "Restaurant du Jardin Botanique",
                  "popularity": 0.9286880204390613,
                  "price": 2,
                  "rating": 7.4
            },
            {
                  "distance": 212,
                  "location": {
                        "address": "3929 Sherbrooke Rue E",
                        "country": "CA",
                        "cross_street": "Orleans",
                        "formatted_address": "3929 Sherbrooke Rue E (Orleans), Montr\u00e9al QC H1X 3E3",
                        "locality": "Montreal",
                        "postcode": "H1X 3E3",
                        "region": "QC"
                  },
                  "name": "Restaurant la Belle Province",
                  "popularity": 0.9721091975775927,
                  "price": 1,
                  "rating": 6.3
            },
            {
                  "distance": 320,
                  "location": {
                        "address": "3881 Sherbrooke Rue E",
                        "country": "CA",
                        "cross_street": "coin Av. Bourbonni\u00e8re",
                        "formatted_address": "3881 Sherbrooke Rue E (coin Av. Bourbonni\u00e8re), Montr\u00e9al QC H1X 2A5",
                        "locality": "Montreal",
                        "postcode": "H1X 2A5",
                        "region": "QC"
                  },
                  "name": "Tim Hortons",
                  "popularity": 0.9890116389099167,
                  "price": 1,
                  "rating": 6.2
            },
            {
                  "distance": 927,
                  "location": {
                        "address": "4825 Pierre de Coubertin Ave",
                        "country": "CA",
                        "cross_street": "Viau",
                        "formatted_address": "4825 Pierre de Coubertin Ave (Viau), Montr\u00e9al QC",
                        "locality": "Montreal",
                        "region": "QC"
                  },
                  "name": "Pizza Pizza",
                  "popularity": 0.611610522331567,
                  "price": 1,
                  "rating": 6.2
            },
            {
                  "distance": 669,
                  "location": {
                        "address": "3924 Hochelaga Rue",
                        "country": "CA",
                        "cross_street": "coin Orleans",
                        "formatted_address": "3924 Hochelaga Rue (coin Orleans), Montr\u00e9al QC H1W 1J9",
                        "locality": "Montreal",
                        "postcode": "H1W 1J9",
                        "region": "QC"
                  },
                  "name": "Jimmy Restaurant",
                  "popularity": 0.9504518357305072,
                  "price": 2,
                  "rating": 5.9
            },
            {
                  "distance": 636,
                  "location": {
                        "address": "4240 Hochelaga Rue",
                        "country": "CA",
                        "formatted_address": "4240 Hochelaga Rue, Montr\u00e9al QC H1V 1B7",
                        "locality": "Montreal",
                        "postcode": "H1V 1B7",
                        "region": "QC"
                  },
                  "name": "Brasserie 99",
                  "popularity": 0.9025596139288418,
                  "price": 1,
                  "rating": 5.6
            },
            {
                  "distance": 284,
                  "location": {
                        "address": "3881 Rachel Rue E",
                        "country": "CA",
                        "cross_street": "Bourbonni\u00e8re",
                        "formatted_address": "3881 Rachel Rue E (Bourbonni\u00e8re), Montr\u00e9al QC H1X 1Z2",
                        "locality": "Montreal",
                        "postcode": "H1X 1Z2",
                        "region": "QC"
                  },
                  "name": "Le Botocoin",
                  "popularity": 0.9011757191521574,
                  "price": 1
            },
            {
                  "distance": 505,
                  "location": {
                        "address": "3800 Sherbrooke Rue E",
                        "country": "CA",
                        "cross_street": "",
                        "formatted_address": "3800 Sherbrooke Rue E, Montr\u00e9al QC H1X 2A2",
                        "locality": "Montreal",
                        "postcode": "H1X 2A2",
                        "region": "QC"
                  },
                  "name": "Caf\u00e9 l'Escale",
                  "popularity": 0.9066403292959879,
                  "price": 1
            },
            {
                  "distance": 696,
                  "location": {
                        "address": "3537 Rachel Rue E",
                        "country": "CA",
                        "cross_street": "",
                        "formatted_address": "3537 Rachel Rue E, Montr\u00e9al QC H1W 1A8",
                        "locality": "Montreal",
                        "postcode": "H1W 1A8",
                        "region": "QC"
                  },
                  "name": "Jardin des Delices",
                  "popularity": 0.9223599545798638,
                  "price": 2
            },
            {
                  "distance": 869,
                  "location": {
                        "address": "3667 Hochelaga Rue",
                        "country": "CA",
                        "cross_street": "Chambly",
                        "formatted_address": "3667 Hochelaga Rue (Chambly), Montr\u00e9al QC H1W 1J2",
                        "locality": "Montreal",
                        "postcode": "H1W 1J2",
                        "region": "QC"
                  },
                  "name": "Bistro King Creole",
                  "popularity": 0.007901211203633612,
                  "price": 2
            },
            {
                  "distance": 973,
                  "location": {
                        "address": "3497 Hochelaga Rue",
                        "country": "CA",
                        "cross_street": "Aylwin",
                        "formatted_address": "3497 Hochelaga Rue (Aylwin), Montr\u00e9al QC H1W 1C4",
                        "locality": "Montreal",
                        "postcode": "H1W 1C4",
                        "region": "QC"
                  },
                  "name": "Morelli",
                  "popularity": 0.0682366578349735,
                  "price": 2
            },
            {
                  "distance": 990,
                  "location": {
                        "address": "4743 Hochelaga Rue",
                        "country": "CA",
                        "cross_street": "Leclaire",
                        "formatted_address": "4743 Hochelaga Rue (Leclaire), Montr\u00e9al QC H1V 1E2",
                        "locality": "Montreal",
                        "postcode": "H1V 1E2",
                        "region": "QC"
                  },
                  "name": "Restaurant Pizzeria Hochelaga",
                  "popularity": 0.9084618660105981,
                  "price": 1
            },
            {
                  "distance": 251,
                  "location": {
                        "address": "4115 Pierre de Coubertin",
                        "country": "CA",
                        "formatted_address": "4115 Pierre de Coubertin, Montreal QC",
                        "locality": "Montreal",
                        "region": "QC"
                  },
                  "name": "Hivernale"
            },
            {
                  "distance": 302,
                  "location": {
                        "address": "4141 Pierre-De Coubertin Ave",
                        "country": "CA",
                        "formatted_address": "4141 Pierre-De Coubertin Ave, Montreal QC H1V 3N7",
                        "locality": "Montreal",
                        "postcode": "H1V 3N7",
                        "region": "QC"
                  },
                  "name": "Les Dimanches Salsa Folie"
            },
            {
                  "distance": 608,
                  "location": {
                        "address": "4141 Pierre-De Coubertin Ave",
                        "country": "CA",
                        "formatted_address": "4141 Pierre-De Coubertin Ave, Montreal QC H1V 3N7",
                        "locality": "Montreal",
                        "postcode": "H1V 3N7",
                        "region": "QC"
                  },
                  "name": "Restaurant de la Tour Olympique"
            },
            {
                  "distance": 647,
                  "location": {
                        "address": "4240 Hochelaga Rue",
                        "country": "CA",
                        "formatted_address": "4240 Hochelaga Rue, Montreal QC H1V 1B7",
                        "locality": "Montreal",
                        "postcode": "H1V 1B7",
                        "region": "QC"
                  },
                  "name": "Brasserie Ninety Nine"
            },
            {
                  "distance": 682,
                  "location": {
                        "address": "3645 Sherbrooke Rue E",
                        "country": "CA",
                        "formatted_address": "3645 Sherbrooke Rue E, Montreal QC H1W 1E5",
                        "locality": "Montreal",
                        "postcode": "H1W 1E5",
                        "region": "QC"
                  },
                  "name": "Sandwich Par-Ici"
            },
            {
                  "distance": 982,
                  "location": {
                        "address": "3529 Hochelaga Rue",
                        "country": "CA",
                        "formatted_address": "3529 Hochelaga Rue, Montreal QC H1W 1H8",
                        "locality": "Montreal",
                        "postcode": "H1W 1H8",
                        "region": "QC"
                  },
                  "name": "Taverne Morelli"
            }
      ],
      "context": {
            "geo_bounds": {
                  "circle": {
                        "center": {
                              "latitude": 45.55494697,
                              "longitude": -73.55529472
                        },
                        "radius": 1000
                  }
            }
      }
}