{
      "results": [
            {
                  "distance": 826,
                  "location": {
                        "address": "8803 Hochelaga Rue",
                        "country": "CA",
                        "cross_street": "Joffre",
                        "formatted_address": "8803 Hochelaga Rue (Joffre), Montr\u00e9al QC H1L 2N1",
                        "locality": "Montreal",
                        "postcode": "H1L 2N1",
                        "region": "QC"
                  },
                  "name": "Le Coq de l'Est 2015 Inc",
                  "popularity": 0.8620363361090083,
                  "price": 2,
                  "rating": 8.2
            },
            {
                  "distance": 903,
                  "location": {
                        "address": "7790 Sherbrooke Rue E",
                        "country": "CA",
                        "cross_street": "coin Lepailleur",
                        "formatted_address": "7790 Sherbrooke Rue E (coin Lepailleur), Montr\u00e9al QC H1L 1A5",
                        "locality": "Montreal",
                        "postcode": "H1L 1A5",
                        "region": "QC"
                  },
                  "name": "Bar Sushi Nippori",
                  "popularity": 0.976047975018925,
                  "price": 2,
                  "rating": 7.6
            },
            {
                  "distance": 970,
                  "location": {
                        "address": "8746 Notre-Dame Rue E",
                        "country": "CA",
                        "cross_street": "",
                        "formatted_address": "8746 Notre-Dame Rue E, Montr\u00e9al QC H1L 3M1",
                        "locality": "Montreal",
                        "postcode": "H1L 3M1",
                        "region": "QC"
                  },
                  "name": "Coronel Restaurant",
                  "popularity": 0.9031746782740349,
                  "price": 2,
                  "rating": 7.0
            },
            {
                  "distance": 897,
                  "location": {
                        "address": "7780 Sherbrooke Rue E",
                        "address_extended": "Couche-Tard C-Store",
                        "country": "CA",
                        "cross_street": "coin Lepailleur",
                        "formatted_address": "7780 Sherbrooke Rue E (coin Lepailleur), Montr\u00e9al QC H1L 1A5",
                        "locality": "Montreal",
                        "postcode": "H1L 1A5",
                        "region": "QC"
                  },
                  "name": "Subway",
                  "popularity": 0.8829958364875095,
                  "price": 1,
                  "rating": 6.6,
                  "store_id": "23356"
            },
            {
                  "distance": 878,
                  "location": {
                        "address": "7870 Sherbrooke Rue E",
                        "country": "CA",
                        "cross_street": "",
                        "formatted_address": "7870 Sherbrooke Rue E, Montr\u00e9al QC H1L 1A5",
                        "locality": "Montreal",
                        "postcode": "H1L 1A5",
                        "region": "QC"
                  },
                  "name": "St-Hubert Express",
                  "popularity": 0.8380724829674489,
                  "price": 2,
                  "rating": 5.9,
                  "store_id": "100163"
            },
            {
                  "distance": 366,
                  "location": {
                        "address": "8480 Hochelaga Rue",
                        "country": "CA",
                        "cross_street": "",
                        "formatted_address": "8480 Hochelaga Rue, Montr\u00e9al QC H1L 2L9",
                        "locality": "Montreal",
                        "postcode": "H1L 2L9",
                        "region": "QC"
                  },
                  "name": "Taverne Reeves Inc",
                  "popularity": 0.7225704958364875,
                  "price": 1
            },
            {
                  "distance": 413,
                  "location": {
                        "address": "8517 Hochelaga Rue",
                        "country": "CA",
                        "cross_street": "Lebrun",
                        "formatted_address": "8517 Hochelaga Rue (Lebrun), Montr\u00e9al QC H1L 2M1",
                        "locality": "Montreal",
                        "postcode": "H1L 2M1",
                        "region": "QC"
                  },
                  "name": "Chez Simon Cantine Urbaine",
                  "popularity": 0.9938138720666162,
                  "price": 1
            },
            {
                  "distance": 528,
                  "location": {
                        "address": "7737 Hochelaga Rue",
                        "country": "CA",
                        "cross_street": "",
                        "formatted_address": "7737 Hochelaga Rue, Montr\u00e9al QC H1L 2K4",
                        "locality": "Montreal",
                        "postcode": "H1L 2K4",
                        "region": "QC"
                  },
                  "name": "Belle Pros",
                  "popularity": 0.948653955336866,
                  "price": 1
            },
            {
                  "distance": 682,
                  "location": {
                        "address": "2525 des Ormeaux Rue",
                        "country": "CA",
                        "cross_street": "",
                        "formatted_address": "2525 des Ormeaux Rue, Montr\u00e9al QC H1L 4X4",
                        "locality": "Montreal",
                        "postcode": "H1L 4X4",
                        "region": "QC"
                  },
                  "name": "Kem CoBa",
                  "popularity": 0.31227526495079483,
                  "price": 1
            },
            {
                  "distance": 716,
                  "location": {
                        "address": "2263 des Ormeaux Rue",
                        "country": "CA",
                        "cross_street": "",
                        "formatted_address": "2263 des Ormeaux Rue, Montr\u00e9al QC H1L 4X2",
                        "locality": "Montreal",
                        "postcode": "H1L 4X2",
                        "region": "QC"
                  },
                  "name": "Chopine P\u00e2tisserie",
                  "popularity": 0.7051239591218774
            },
            {
                  "distance": 826,
                  "location": {
                        "address": "8792 Hochelaga Rue",
                        "country": "CA",
                        "cross_street": "",
                        "formatted_address": "8792 Hochelaga Rue, Montr\u00e9al QC H1L 2M9",
                        "locality": "Montreal",
                        "postcode": "H1L 2M9",
                        "region": "QC"
                  },
                  "name": "Restaurant Zykaa",
                  "popularity": 0.9669876040878123,
                  "price": 2
            },
            {
                  "distance": 876,
                  "location": {
                        "address": "7950 Sherbrooke Rue E",
                        "country": "CA",
                        "cross_street": "\u00c0 l'int\u00e9rieur du m\u00e9tro Honor\u00e9-Beaugrand",
                        "formatted_address": "7950 Sherbrooke Rue E (\u00c0 l'int\u00e9rieur du m\u00e9tro Honor\u00e9-Beaugrand), Montr\u00e9al QC",
                        "locality": "Montreal",
                        "region": "QC"
                  },
                  "name": "Caf\u00e9 William Spartivento",
                  "popularity": 0.46740158970476914,
                  "price": 1
            },
            {
                  "distance": 992,
                  "location": {
                        "address": "8604 Sherbrooke Rue E",
                        "country": "CA",
                        "cross_street": "",
                        "formatted_address": "8604 Sherbrooke Rue E, Montr\u00e9al QC H1L 1B7",
                        "locality": "Montreal",
                        "postcode": "H1L 1B7",
                        "region": "QC"
                  },
                  "name": "Pizza Hut",
                  "popularity": 0.9349096328538986,
                  "price": 1,
                  "store_id": "R47401"
            },
            {
                  "distance": 1003,
                  "location": {
                        "address": "7880 Sherbrooke Rue E",
                        "country": "CA",
                        "cross_street": "",
                        "formatted_address": "7880 Sherbrooke Rue E, Montreal QC H1L 1A5",
                        "locality": "Montreal",
                        "postcode": "H1L 1A5",
                        "region": "QC"
                  },
                  "name": "Brasserie Champlain",
                  "popularity": 0.9256600113550341,
                  "price": 1
            },
            {
                  "distance": 124,
                  "location": {
                        "address": "8115 A.-A.-Desroches Rue",
                        "country": "CA",
                        "formatted_address": "8115 A.-A.-Desroches Rue, Montreal QC H1L 2S3",
                        "locality": "Montreal",
                        "postcode": "H1L 2S3",
                        "region": "QC"
                  },
                  "name": "Chez D&N"
            },
            {
                  "distance": 507,
                  "location": {
                        "address": "8582 Hochelaga Rue",
                        "country": "CA",
                        "formatted_address": "8582 Hochelaga Rue, Montreal QC H1L 2M3",
                        "locality": "Montreal",
                        "postcode": "H1L 2M3",
                        "region": "QC"
                  },
                  "name": "Cafe d'Abord"
            },
            {
                  "distance": 633,
                  "location": {
                        "address": "2557 Pierre-Tetreault Rue",
                        "country": "CA",
                        "formatted_address": "2557 Pierre-Tetreault Rue, Montreal QC H1L 4Z3",
                        "locality": "Montreal",
                        "postcode": "H1L 4Z3",
                        "region": "QC"
                  },
                  "name": "La Caba\u00f1a"
            },
            {
                  "distance": 724,
                  "location": {
                        "address": "8720 Hochelaga Rue",
                        "country": "CA",
                        "formatted_address": "8720 Hochelaga Rue, Montreal QC H1L 2M7",
                        "locality": "Montreal",
                        "postcode": "H1L 2M7",
                        "region": "QC"
                  },
                  "name": "Au Go\u00fbt Tropical"
            },
            {
                  "distance": 728,
                  "location": {
                        "address": "8726 Hochelaga St",
                        "country": "CA",
                        "formatted_address": "8726 Hochelaga St, Montreal QC H1L 2M7",
                        "locality": "Montreal",
                        "postcode": "H1L 2M7",
                        "region": "QC"
                  },
                  "name": "La Diperie"
            },
            {
                  "distance": 728,
                  "location": {
                        "address": "2269 des Ormeaux Rue",
                        "country": "CA",
                        "formatted_address": "2269 des Ormeaux Rue, Montreal QC H1L 4X2",
                        "locality": "Montreal",
                        "postcode": "H1L 4X2",
                        "region": "QC"
                  },
                  "name": "Bar des Ormeaux"
            },
            {
                  "distance": 760,
                  "location": {
                        "address": "2864 des Ormeaux Rue",
                        "country": "CA",
                        "formatted_address": "2864 des Ormeaux Rue, Montreal QC H1L 4X8",
                        "locality": "Montreal",
                        "postcode": "H1L 4X8",
                        "region": "QC"
                  },
                  "name": "Restaurant le des Ormeaux"
            },
            {
                  "distance": 902,
                  "location": {
                        "address": "8477 Notre-Dame Rue E",
                        "country": "CA",
                        "formatted_address": "8477 Notre-Dame Rue E, Montreal QC H1L 3L5",
                        "locality": "Montreal",
                        "postcode": "H1L 3L5",
                        "region": "QC"
                  },
                  "name": "Taverne Rancho"
            },
            {
                  "distance": 909,
                  "location": {
                        "address": "8874 Hochelaga Rue",
                        "country": "CA",
                        "formatted_address": "8874 Hochelaga Rue, Montreal QC H1L 2N2",
                        "locality": "Montreal",
                        "postcode": "H1L 2N2",
                        "region": "QC"
                  },
                  "name": "\u00d4 Poids Vert"
            },
            {
                  "distance": 967,
                  "location": {
                        "address": "8933 Hochelaga Rue",
                        "country": "CA",
                        "formatted_address": "8933 Hochelaga Rue, Montreal QC H1L 2N4",
                        "locality": "Montreal",
                        "postcode": "H1L 2N4",
                        "region": "QC"
                  },
                  "name": "Pub Romana"
            },
            {
                  "distance": 983,
                  "location": {
                        "address": "8746 Notre-Dame Rue E",
                        "country": "CA",
                        "formatted_address": "8746 Notre-Dame Rue E, Montreal QC H1L 3M1",
                        "locality": "Montreal",
                        "postcode": "H1L 3M1",
                        "region": "QC"
                  },
                  "name": "Coronel Restaurant et Pizzeria"
            }
      ],
      "context": {
            "geo_bounds": {
                  "circle": {
                        "center": {
                              "latitude": 45.59587457,
                              "longitude": -73.52352798
                        },
                        "radius": 1000
                  }
            }
      }
}