{
      "results": [
            {
                  "distance": 545,
                  "location": {
                        "address": "1602 Fleury Rue E",
                        "country": "CA",
                        "cross_street": "rue Francis",
                        "formatted_address": "1602 Fleury Rue E (rue Francis), Montr\u00e9al QC H2C 1S8",
                        "locality": "Montreal",
                        "postcode": "H2C 1S8",
                        "region": "QC"
                  },
                  "name": "Mamie Clafoutis",
                  "popularity": 0.9672478236184708,
                  "price": 1,
                  "rating": 9.2
            },
            {
                  "distance": 587,
                  "location": {
                        "address": "1652A Fleury Rue E",
                        "country": "CA",
                        "cross_street": "Garnier",
                        "formatted_address": "1652A Fleury Rue E (Garnier), Montr\u00e9al QC H2C 1S8",
                        "locality": "Montreal",
                        "postcode": "H2C 1S8",
                        "region": "QC"
                  },
                  "name": "Sweet Isabelle",
                  "popularity": 0.9126845193035579,
                  "price": 1,
                  "rating": 8.1
            },
            {
                  "distance": 761,
                  "location": {
                        "address": "1001 Fleury Rue E",
                        "country": "CA",
                        "cross_street": "at av. Saint-Charles",
                        "formatted_address": "1001 Fleury Rue E (at av. Saint-Charles), Montr\u00e9al QC H2C 1P8",
                        "locality": "Montreal",
                        "postcode": "H2C 1P8",
                        "region": "QC"
                  },
                  "name": "Gourmet Privil\u00e8ge",
                  "popularity": 0.8742429977289932,
                  "price": 1,
                  "rating": 8.0
            },
            {
                  "distance": 873,
                  "location": {
                        "address": "1825 Fleury Rue E",
                        "country": "CA",
                        "cross_street": "",
                        "formatted_address": "1825 Fleury Rue E, Montr\u00e9al QC H2B 1H7",
                        "locality": "Montreal",
                        "postcode": "H2B 1H7",
                        "region": "QC"
                  },
                  "name": "Zagrum",
                  "popularity": 0.8681278387585163,
                  "price": 2,
                  "rating": 8.0
            },
            {
                  "distance": 569,
                  "location": {
                        "address": "1340 Fleury Rue E",
                        "country": "CA",
                        "cross_street": "Sacre-Coeur",
                        "formatted_address": "1340 Fleury Rue E (Sacre-Coeur), Montreal QC H2C 1R3",
                        "locality": "Montreal",
                        "postcode": "H2C 1R3",
                        "region": "QC"
                  },
                  "name": "L'Estaminet",
                  "popularity": 0.9412258705526116,
                  "price": 2,
                  "rating": 8.0
            },
            {
                  "distance": 685,
                  "location": {
                        "address": "1145 Fleury Rue E",
                        "country": "CA",
                        "cross_street": "entre Georges-Baril & De La Roche",
                        "formatted_address": "1145 Fleury Rue E (entre Georges-Baril & De La Roche), Montr\u00e9al QC H2C 1P9",
                        "locality": "Montreal",
                        "postcode": "H2C 1P9",
                        "region": "QC"
                  },
                  "name": "Cafe le Petit Flore Inc",
                  "popularity": 0.940078538985617,
                  "price": 1,
                  "rating": 7.9
            },
            {
                  "distance": 508,
                  "location": {
                        "address": "1517 Fleury Rue E",
                        "country": "CA",
                        "formatted_address": "1517 Fleury Rue E, Montr\u00e9al QC H2C 1S5",
                        "locality": "Montreal",
                        "postcode": "H2C 1S5",
                        "region": "QC"
                  },
                  "name": "Vire-Vent",
                  "popularity": 0.9357376040878123,
                  "price": 1,
                  "rating": 7.9
            },
            {
                  "distance": 529,
                  "location": {
                        "address": "1386 Fleury Rue E",
                        "country": "CA",
                        "cross_street": "Christophe-Colomb",
                        "formatted_address": "1386 Fleury Rue E (Christophe-Colomb), Montr\u00e9al QC H2C 1R5",
                        "locality": "Montreal",
                        "postcode": "H2C 1R5",
                        "region": "QC"
                  },
                  "name": "Restaurant la Citronelle",
                  "popularity": 0.906888720666162,
                  "price": 2,
                  "rating": 7.3
            },
            {
                  "distance": 858,
                  "location": {
                        "address": "10295 Papineau Ave",
                        "country": "CA",
                        "cross_street": "Rue Fleury Est",
                        "formatted_address": "10295 Papineau Ave (Rue Fleury Est), Montr\u00e9al QC H2B 2A1",
                        "locality": "Montreal",
                        "postcode": "H2B 2A1",
                        "region": "QC"
                  },
                  "name": "Broue Pub Brouhaha Papineau",
                  "popularity": 0.9967235995457986,
                  "rating": 7.2
            },
            {
                  "distance": 750,
                  "location": {
                        "address": "1011 Fleury Rue E",
                        "country": "CA",
                        "cross_street": "entre St-Charles & George Baril",
                        "formatted_address": "1011 Fleury Rue E (entre St-Charles & George Baril), Montr\u00e9al QC H2C 1P8",
                        "locality": "Montreal",
                        "postcode": "H2C 1P8",
                        "region": "QC"
                  },
                  "name": "Uber Cafbar",
                  "popularity": 0.8958648750946253,
                  "price": 2,
                  "rating": 7.1
            },
            {
                  "distance": 505,
                  "location": {
                        "address": "1499A Fleury Rue E",
                        "country": "CA",
                        "cross_street": "Avenue Hamel",
                        "formatted_address": "1499A Fleury Rue E (Avenue Hamel), Montr\u00e9al QC H2C 1S3",
                        "locality": "Montreal",
                        "postcode": "H2C 1S3",
                        "region": "QC"
                  },
                  "name": "Importations Cafe-Creme Inc",
                  "popularity": 0.8226249053747161,
                  "price": 1,
                  "rating": 7.0
            },
            {
                  "distance": 744,
                  "location": {
                        "address": "1014 Fleury Rue E",
                        "country": "CA",
                        "formatted_address": "1014 Fleury Rue E, Montr\u00e9al QC H2C 1P7",
                        "locality": "Montreal",
                        "postcode": "H2C 1P7",
                        "region": "QC"
                  },
                  "name": "Restaurant la Molisana",
                  "popularity": 0.9392742240726722,
                  "price": 3,
                  "rating": 7.0
            },
            {
                  "distance": 724,
                  "location": {
                        "address": "1750 Fleury Rue E",
                        "country": "CA",
                        "cross_street": "",
                        "formatted_address": "1750 Fleury Rue E, Montr\u00e9al QC H2C 3K8",
                        "locality": "Montreal",
                        "postcode": "H2C 3K8",
                        "region": "QC"
                  },
                  "name": "Subway",
                  "popularity": 0.909762963663891,
                  "price": 1,
                  "rating": 6.4
            },
            {
                  "distance": 749,
                  "location": {
                        "address": "1021 Fleury Rue E",
                        "country": "CA",
                        "cross_street": "",
                        "formatted_address": "1021 Fleury Rue E, Montr\u00e9al QC H2C 1P8",
                        "locality": "Montreal",
                        "postcode": "H2C 1P8",
                        "region": "QC"
                  },
                  "name": "Pizzeria No. 900",
                  "popularity": 0.8666256623769871,
                  "price": 1,
                  "rating": 6.3
            },
            {
                  "distance": 645,
                  "location": {
                        "address": "9797 Papineau Ave",
                        "country": "CA",
                        "cross_street": "coin Sauv\u00e9",
                        "formatted_address": "9797 Papineau Ave (coin Sauv\u00e9), Montr\u00e9al QC H2B 1Z5",
                        "locality": "Montreal",
                        "postcode": "H2B 1Z5",
                        "region": "QC"
                  },
                  "name": "McDonald's",
                  "popularity": 0.9969128501135504,
                  "price": 1,
                  "rating": 5.1,
                  "store_id": "40167"
            },
            {
                  "distance": 507,
                  "location": {
                        "address": "1432 Fleury Rue E",
                        "country": "CA",
                        "cross_street": "",
                        "formatted_address": "1432 Fleury Rue E, Montr\u00e9al QC H2C 1R8",
                        "locality": "Montreal",
                        "postcode": "H2C 1R8",
                        "region": "QC"
                  },
                  "name": "Le Pourvoyeur",
                  "popularity": 0.9212954201362604,
                  "price": 3
            },
            {
                  "distance": 517,
                  "location": {
                        "address": "1469 Fleury Rue E",
                        "country": "CA",
                        "cross_street": "Hamel",
                        "formatted_address": "1469 Fleury Rue E (Hamel), Montr\u00e9al QC H2C 1S3",
                        "locality": "Montreal",
                        "postcode": "H2C 1S3",
                        "region": "QC"
                  },
                  "name": "Sushi Ami",
                  "popularity": 0.44641843300529904,
                  "price": 2
            },
            {
                  "distance": 520,
                  "location": {
                        "address": "1575 Fleury Rue E",
                        "address_extended": "Suite 100",
                        "country": "CA",
                        "cross_street": "",
                        "formatted_address": "1575 Fleury Rue E, Montr\u00e9al QC H2C 1S7",
                        "locality": "Montreal",
                        "postcode": "H2C 1S7",
                        "region": "QC"
                  },
                  "name": "Walter Bistro",
                  "popularity": 0.9233653482210447
            },
            {
                  "distance": 555,
                  "location": {
                        "address": "1348 Fleury Rue E",
                        "country": "CA",
                        "cross_street": "Avenue du Sacr\u00e9-Coeur",
                        "formatted_address": "1348 Fleury Rue E (Avenue du Sacr\u00e9-Coeur), Montr\u00e9al QC H2C 1R3",
                        "locality": "Montreal",
                        "postcode": "H2C 1R3",
                        "region": "QC"
                  },
                  "name": "Le Rendez Vous du Th\u00e9",
                  "popularity": 0.8480672785768357,
                  "price": 2
            },
            {
                  "distance": 558,
                  "location": {
                        "address": "1001 Sauve Rue E",
                        "country": "CA",
                        "cross_street": "Saint-Hubert",
                        "formatted_address": "1001 Sauve Rue E (Saint-Hubert), Montr\u00e9al QC",
                        "locality": "Montreal",
                        "region": "QC"
                  },
                  "name": "Casse-Croute March\u00e9 d'Or",
                  "popularity": 0.09350160862982589,
                  "price": 1
            },
            {
                  "distance": 573,
                  "location": {
                        "address": "1345 Fleury Rue E",
                        "country": "CA",
                        "cross_street": "",
                        "formatted_address": "1345 Fleury Rue E, Montr\u00e9al QC H2C 1R4",
                        "locality": "Montreal",
                        "postcode": "H2C 1R4",
                        "region": "QC"
                  },
                  "name": "Au Vieux Farfadet",
                  "popularity": 0.0667108251324754
            },
            {
                  "distance": 600,
                  "location": {
                        "address": "1314 Fleury Rue E",
                        "country": "CA",
                        "cross_street": "",
                        "formatted_address": "1314 Fleury Rue E, Montr\u00e9al QC H2C 1R3",
                        "locality": "Montreal",
                        "postcode": "H2C 1R3",
                        "region": "QC"
                  },
                  "name": "William J Walter Fleury",
                  "popularity": 0.9026187547312642
            },
            {
                  "distance": 674,
                  "location": {
                        "address": "1185 Fleury Rue E",
                        "country": "CA",
                        "cross_street": "Georges- baril",
                        "formatted_address": "1185 Fleury Rue E (Georges- baril), Montr\u00e9al QC H2C 1P9",
                        "locality": "Montreal",
                        "postcode": "H2C 1P9",
                        "region": "QC"
                  },
                  "name": "Sushi Wawa",
                  "popularity": 0.8912282361847086,
                  "price": 2
            },
            {
                  "distance": 698,
                  "location": {
                        "address": "844 Sauve Rue E",
                        "country": "CA",
                        "cross_street": "St-Hubert",
                        "formatted_address": "844 Sauve Rue E (St-Hubert), Montr\u00e9al QC H2C 1Z2",
                        "locality": "Montreal",
                        "postcode": "H2C 1Z2",
                        "region": "QC"
                  },
                  "name": "Georges Pizza",
                  "popularity": 0.876939818319455,
                  "price": 1
            },
            {
                  "distance": 775,
                  "location": {
                        "address": "1751 Fleury Rue E",
                        "country": "CA",
                        "cross_street": "Marquette",
                        "formatted_address": "1751 Fleury Rue E (Marquette), Montr\u00e9al QC H2C 1T3",
                        "locality": "Montreal",
                        "postcode": "H2C 1T3",
                        "region": "QC"
                  },
                  "name": "Sushi Shop",
                  "popularity": 0.8945046366389099,
                  "price": 2
            },
            {
                  "distance": 793,
                  "location": {
                        "address": "945 Fleury Rue E",
                        "country": "CA",
                        "cross_street": "",
                        "formatted_address": "945 Fleury Rue E, Montr\u00e9al QC H2C 1P6",
                        "locality": "Montreal",
                        "postcode": "H2C 1P6",
                        "region": "QC"
                  },
                  "name": "Sushi Sama Fusion 1",
                  "popularity": 0.6359647047691143,
                  "price": 2
            },
            {
                  "distance": 797,
                  "location": {
                        "address": "920 Fleury Rue E",
                        "country": "CA",
                        "cross_street": "",
                        "formatted_address": "920 Fleury Rue E, Montr\u00e9al QC H2C 1P5",
                        "locality": "Montreal",
                        "postcode": "H2C 1P5",
                        "region": "QC"
                  },
                  "name": "Bienvenu Bar Salon",
                  "popularity": 0.904653198334595,
                  "price": 2
            },
            {
                  "distance": 993,
                  "location": {
                        "address": "9509 Ave de Lorimier",
                        "country": "CA",
                        "cross_street": "",
                        "formatted_address": "9509 Ave de Lorimier, Montr\u00e9al QC H1Z 2M8",
                        "locality": "Montreal",
                        "postcode": "H1Z 2M8",
                        "region": "QC"
                  },
                  "name": "Restaurant Chez Marie",
                  "popularity": 0.8299465367146102,
                  "price": 2
            },
            {
                  "distance": 498,
                  "location": {
                        "address": "1418 Fleury Rue E",
                        "country": "CA",
                        "formatted_address": "1418 Fleury Rue E, Montreal QC H2C 1R8",
                        "locality": "Montreal",
                        "postcode": "H2C 1R8",
                        "region": "QC"
                  },
                  "name": "Baguettes d'Or"
            },
            {
                  "distance": 506,
                  "location": {
                        "address": "1418 Fleury Rue E",
                        "country": "CA",
                        "formatted_address": "1418 Fleury Rue E, Montreal QC H2C 1R8",
                        "locality": "Montreal",
                        "postcode": "H2C 1R8",
                        "region": "QC"
                  },
                  "name": "Les Petites Baguettes"
            },
            {
                  "distance": 509,
                  "location": {
                        "address": "1584 Fleury Rue E",
                        "country": "CA",
                        "formatted_address": "1584 Fleury Rue E, Montreal QC H2C 1S6",
                        "locality": "Montreal",
                        "postcode": "H2C 1S6",
                        "region": "QC"
                  },
                  "name": "Sweet Isabelle"
            },
            {
                  "distance": 544,
                  "location": {
                        "address": "1750 Sauriol Rue E",
                        "country": "CA",
                        "formatted_address": "1750 Sauriol Rue E, Montreal QC H2C 1X4",
                        "locality": "Montreal",
                        "postcode": "H2C 1X4",
                        "region": "QC"
                  },
                  "name": "Les Productions du Gastronome"
            },
            {
                  "distance": 569,
                  "location": {
                        "address": "1799 Sauve Rue E",
                        "country": "CA",
                        "formatted_address": "1799 Sauve Rue E, Montreal QC H2C 3H2",
                        "locality": "Montreal",
                        "postcode": "H2C 3H2",
                        "region": "QC"
                  },
                  "name": "Restaurant Dag"
            },
            {
                  "distance": 571,
                  "location": {
                        "address": "1652A Fleury Rue E",
                        "country": "CA",
                        "formatted_address": "1652A Fleury Rue E, Montreal QC H2C 1S8",
                        "locality": "Montreal",
                        "postcode": "H2C 1S8",
                        "region": "QC"
                  },
                  "name": "Creation et Atelier Sweet Isabelle Inc"
            },
            {
                  "distance": 578,
                  "location": {
                        "address": "1308 Fleury Rue E",
                        "country": "CA",
                        "formatted_address": "1308 Fleury Rue E, Montreal QC H2C 1R3",
                        "locality": "Montreal",
                        "postcode": "H2C 1R3",
                        "region": "QC"
                  },
                  "name": "Fabrique Caramel"
            }
      ],
      "context": {
            "geo_bounds": {
                  "circle": {
                        "center": {
                              "latitude": 45.56076193,
                              "longitude": -73.65056142
                        },
                        "radius": 1000
                  }
            }
      }
}