{
      "results": [
            {
                  "distance": 695,
                  "location": {
                        "address": "3205 Cremazie Blvd E",
                        "country": "CA",
                        "cross_street": "Cr\u00e9mazie",
                        "formatted_address": "3205 Cremazie Blvd E (Cr\u00e9mazie), Montr\u00e9al QC H1Z 4M5",
                        "locality": "Montreal",
                        "postcode": "H1Z 4M5",
                        "region": "QC"
                  },
                  "name": "Pho Ngon",
                  "popularity": 0.9768404617713853,
                  "price": 2,
                  "rating": 8.5
            },
            {
                  "distance": 509,
                  "location": {
                        "address": "3204 Jarry Rue E",
                        "country": "CA",
                        "cross_street": "",
                        "formatted_address": "3204 Jarry Rue E, Montr\u00e9al QC H1Z 2E2",
                        "locality": "Montreal",
                        "postcode": "H1Z 2E2",
                        "region": "QC"
                  },
                  "name": "Restaurant O Cantinho",
                  "popularity": 0.9048542770628312,
                  "price": 2,
                  "rating": 8.0
            },
            {
                  "distance": 851,
                  "location": {
                        "address": "7735 Saint-Michel Blvd",
                        "country": "CA",
                        "cross_street": "",
                        "formatted_address": "7735 Saint-Michel Blvd, Montr\u00e9al QC H2A 3A7",
                        "locality": "Montreal",
                        "postcode": "H2A 3A7",
                        "region": "QC"
                  },
                  "name": "Poissonnerie M\u00e9diterran\u00e9e",
                  "popularity": 0.8910153292959879,
                  "price": 1,
                  "rating": 7.9
            },
            {
                  "distance": 883,
                  "location": {
                        "address": "3562 Jarry Rue E",
                        "country": "CA",
                        "cross_street": "15e Avenue",
                        "formatted_address": "3562 Jarry Rue E (15e Avenue), Montr\u00e9al QC H1Z 2G3",
                        "locality": "Montreal",
                        "postcode": "H1Z 2G3",
                        "region": "QC"
                  },
                  "name": "Nam Quan Restaurant",
                  "popularity": 0.9610498675246025,
                  "price": 2,
                  "rating": 7.4
            },
            {
                  "distance": 854,
                  "location": {
                        "address": "3250 Cremazie Blvd E",
                        "country": "CA",
                        "cross_street": "Saint-Michel",
                        "formatted_address": "3250 Cremazie Blvd E (Saint-Michel), Montr\u00e9al QC H2A 3N9",
                        "locality": "Montreal",
                        "postcode": "H2A 3N9",
                        "region": "QC"
                  },
                  "name": "Restaurant Pho Nam Inc",
                  "popularity": 0.9806254731264193,
                  "price": 2,
                  "rating": 6.8
            },
            {
                  "distance": 893,
                  "location": {
                        "address": "7734 Saint-Michel Blvd",
                        "country": "CA",
                        "cross_street": "at Cr\u00e9mazie Est",
                        "formatted_address": "7734 Saint-Michel Blvd (at Cr\u00e9mazie Est), Montr\u00e9al QC H2A 3A5",
                        "locality": "Montreal",
                        "postcode": "H2A 3A5",
                        "region": "QC"
                  },
                  "name": "March\u00e9 Kim Hour Inc",
                  "popularity": 0.9871546177138532,
                  "price": 1,
                  "rating": 6.4
            },
            {
                  "distance": 663,
                  "location": {
                        "address": "3201 Cremazie Blvd E",
                        "country": "CA",
                        "cross_street": "10e Avenue",
                        "formatted_address": "3201 Cremazie Blvd E (10e Avenue), Montr\u00e9al QC H1Z 4M5",
                        "locality": "Montreal",
                        "postcode": "H1Z 4M5",
                        "region": "QC"
                  },
                  "name": "Harvey's",
                  "popularity": 0.9832276684330054,
                  "price": 2,
                  "rating": 6.4,
                  "store_id": "2552"
            },
            {
                  "distance": 687,
                  "location": {
                        "address": "7900 St Michel Blvd",
                        "address_extended": "La Cremiere",
                        "country": "CA",
                        "cross_street": "",
                        "formatted_address": "7900 St Michel Blvd, Montr\u00e9al QC H1Z 3E1",
                        "locality": "Montreal",
                        "postcode": "H1Z 3E1",
                        "region": "QC"
                  },
                  "name": "Subway",
                  "popularity": 0.9401376797880394,
                  "price": 1,
                  "rating": 6.2,
                  "store_id": "28000"
            },
            {
                  "distance": 983,
                  "location": {
                        "address": "7645 Saint-Michel Blvd",
                        "country": "CA",
                        "formatted_address": "7645 Saint-Michel Blvd, Montreal QC H2A 3M4",
                        "locality": "Montr\u00e9al-Nord",
                        "postcode": "H2A 3M4",
                        "region": "QC"
                  },
                  "name": "McDonald's",
                  "popularity": 0.9966408024224073,
                  "price": 1,
                  "rating": 5.3
            },
            {
                  "distance": 597,
                  "location": {
                        "address": "8055 St Michel Blvd",
                        "country": "CA",
                        "cross_street": "",
                        "formatted_address": "8055 St Michel Blvd, Montr\u00e9al QC H1Z 3C9",
                        "locality": "Montreal",
                        "postcode": "H1Z 3C9",
                        "region": "QC"
                  },
                  "name": "Tim Hortons",
                  "popularity": 0.9954698145344436,
                  "price": 1,
                  "rating": 5.2
            },
            {
                  "distance": 446,
                  "location": {
                        "address": "3145 Jarry Rue E",
                        "country": "CA",
                        "cross_street": "",
                        "formatted_address": "3145 Jarry Rue E, Montreal QC H1Z 0B6",
                        "locality": "Montreal",
                        "postcode": "H1Z 0B6",
                        "region": "QC"
                  },
                  "name": "Apelia Restaurant",
                  "popularity": 0.6579769114307343,
                  "price": 2
            },
            {
                  "distance": 508,
                  "location": {
                        "address": "8485 Saint-Michel Blvd",
                        "country": "CA",
                        "cross_street": "",
                        "formatted_address": "8485 Saint-Michel Blvd, Montr\u00e9al QC H1Z 3E7",
                        "locality": "Montreal",
                        "postcode": "H1Z 3E7",
                        "region": "QC"
                  },
                  "name": "Pho Lam",
                  "popularity": 0.9132167865253595,
                  "price": 2
            },
            {
                  "distance": 533,
                  "location": {
                        "address": "8495 Saint-Michel Blvd",
                        "country": "CA",
                        "cross_street": "",
                        "formatted_address": "8495 Saint-Michel Blvd, Montr\u00e9al QC H1Z 3E7",
                        "locality": "Montreal",
                        "postcode": "H1Z 3E7",
                        "region": "QC"
                  },
                  "name": "Cassecroute Pa M Pi Bon Inc",
                  "popularity": 0.8385929220287661,
                  "price": 2
            },
            {
                  "distance": 657,
                  "location": {
                        "address": "7961 St Michel Blvd",
                        "country": "CA",
                        "cross_street": "",
                        "formatted_address": "7961 St Michel Blvd, Montr\u00e9al QC",
                        "locality": "Montreal",
                        "region": "QC"
                  },
                  "name": "Restaurant Duy Ahn",
                  "popularity": 0.1799654617713853,
                  "price": 2
            },
            {
                  "distance": 398,
                  "location": {
                        "address": "8420 Saint-Michel Blvd",
                        "country": "CA",
                        "formatted_address": "8420 Saint-Michel Blvd, Montreal QC H1Z 3E2",
                        "locality": "Montreal",
                        "postcode": "H1Z 3E2",
                        "region": "QC"
                  },
                  "name": "Bistro Peaches"
            },
            {
                  "distance": 408,
                  "location": {
                        "address": "2670 Jarry Rue E",
                        "country": "CA",
                        "formatted_address": "2670 Jarry Rue E, Montreal QC H1Z 2C7",
                        "locality": "Montreal",
                        "postcode": "H1Z 2C7",
                        "region": "QC"
                  },
                  "name": "Restaurant Orchidee Thai"
            },
            {
                  "distance": 408,
                  "location": {
                        "address": "2670 Jarry Rue E",
                        "country": "CA",
                        "formatted_address": "2670 Jarry Rue E, Montreal QC H1Z 2C7",
                        "locality": "Montreal",
                        "postcode": "H1Z 2C7",
                        "region": "QC"
                  },
                  "name": "Rang Dong Restaurant"
            },
            {
                  "distance": 478,
                  "location": {
                        "address": "3183 Jarry Rue E",
                        "country": "CA",
                        "formatted_address": "3183 Jarry Rue E, Montreal QC H1Z 2E1",
                        "locality": "Montreal",
                        "postcode": "H1Z 2E1",
                        "region": "QC"
                  },
                  "name": "Chez Milie Casse-Cro\u00fbte"
            },
            {
                  "distance": 501,
                  "location": {
                        "address": "3207 Jarry Rue E",
                        "country": "CA",
                        "formatted_address": "3207 Jarry Rue E, Montreal QC H1Z 2E3",
                        "locality": "Montreal",
                        "postcode": "H1Z 2E3",
                        "region": "QC"
                  },
                  "name": "Resto-Bar Lucky 7"
            },
            {
                  "distance": 517,
                  "location": {
                        "address": "8489 Saint-Michel Blvd",
                        "country": "CA",
                        "formatted_address": "8489 Saint-Michel Blvd, Montreal QC H1Z 3E7",
                        "locality": "Montreal",
                        "postcode": "H1Z 3E7",
                        "region": "QC"
                  },
                  "name": "Brasserie Place 37"
            },
            {
                  "distance": 529,
                  "location": {
                        "address": "3204 Jarry Rue E",
                        "country": "CA",
                        "formatted_address": "3204 Jarry Rue E, Montreal QC H1Z 2E2",
                        "locality": "Montreal",
                        "postcode": "H1Z 2E2",
                        "region": "QC"
                  },
                  "name": "Grillades Portugaise Cantinho Eo Cantinhoe"
            },
            {
                  "distance": 576,
                  "location": {
                        "address": "8042 Saint-Michel Blvd",
                        "country": "CA",
                        "formatted_address": "8042 Saint-Michel Blvd, Montreal QC H1Z 3E1",
                        "locality": "Montreal",
                        "postcode": "H1Z 3E1",
                        "region": "QC"
                  },
                  "name": "Caf\u00e9 Bistro Cantinho Da Bola"
            },
            {
                  "distance": 619,
                  "location": {
                        "address": "3345 Jarry Rue E",
                        "country": "CA",
                        "formatted_address": "3345 Jarry Rue E, Montreal QC H1Z 2E5",
                        "locality": "Montreal",
                        "postcode": "H1Z 2E5",
                        "region": "QC"
                  },
                  "name": "Caf\u00e9 Majorelle"
            },
            {
                  "distance": 658,
                  "location": {
                        "address": "7961 Saint-Michel Blvd",
                        "country": "CA",
                        "formatted_address": "7961 Saint-Michel Blvd, Montreal QC H1Z 3C9",
                        "locality": "Montreal",
                        "postcode": "H1Z 3C9",
                        "region": "QC"
                  },
                  "name": "Duy Anh"
            },
            {
                  "distance": 687,
                  "location": {
                        "address": "7933 Saint-Michel Blvd",
                        "country": "CA",
                        "formatted_address": "7933 Saint-Michel Blvd, Montreal QC H1Z 3C9",
                        "locality": "Montreal",
                        "postcode": "H1Z 3C9",
                        "region": "QC"
                  },
                  "name": "Club des Pecheurs Montr\u00e9al"
            },
            {
                  "distance": 850,
                  "location": {
                        "address": "7682 Saint-Michel Blvd",
                        "country": "CA",
                        "formatted_address": "7682 Saint-Michel Blvd, Montreal QC H2A 3A5",
                        "locality": "Montreal",
                        "postcode": "H2A 3A5",
                        "region": "QC"
                  },
                  "name": "Brasserie Chez le Pere Gedeon"
            },
            {
                  "distance": 861,
                  "location": {
                        "address": "3250C Cremazie Blvd E",
                        "country": "CA",
                        "formatted_address": "3250C Cremazie Blvd E, Montreal QC H2A 3N9",
                        "locality": "Montreal",
                        "postcode": "H2A 3N9",
                        "region": "QC"
                  },
                  "name": "Fondue Kim Long"
            },
            {
                  "distance": 903,
                  "location": {
                        "address": "3565 Jarry 112 Estate",
                        "address_extended": "# 112",
                        "country": "CA",
                        "formatted_address": "3565 Jarry 112 Estate, Montreal QC H1Z 4K6",
                        "locality": "Montreal",
                        "postcode": "H1Z 4K6",
                        "region": "QC"
                  },
                  "name": "Action Production a N J"
            },
            {
                  "distance": 956,
                  "location": {
                        "address": "3055A Villeray Rue",
                        "country": "CA",
                        "formatted_address": "3055A Villeray Rue, Montreal QC H2A 1E8",
                        "locality": "Montreal",
                        "postcode": "H2A 1E8",
                        "region": "QC"
                  },
                  "name": "Cafe Bistro la Dolce Vita"
            },
            {
                  "distance": 974,
                  "location": {
                        "address": "7971 15e Ave",
                        "country": "CA",
                        "formatted_address": "7971 15e Ave, Montreal QC H1Z 3N5",
                        "locality": "Montreal",
                        "postcode": "H1Z 3N5",
                        "region": "QC"
                  },
                  "name": "Les Saveurs de Montr\u00e9al"
            },
            {
                  "distance": 985,
                  "location": {
                        "address": "3700 Jean-Rivard Rue",
                        "country": "CA",
                        "formatted_address": "3700 Jean-Rivard Rue, Montreal QC H1Z 4K3",
                        "locality": "Montreal",
                        "postcode": "H1Z 4K3",
                        "region": "QC"
                  },
                  "name": "Keurig Canada"
            },
            {
                  "distance": 988,
                  "location": {
                        "address": "3700 Jean-Rivard Rue",
                        "country": "CA",
                        "formatted_address": "3700 Jean-Rivard Rue, Montreal QC H1Z 4K3",
                        "locality": "Montreal",
                        "postcode": "H1Z 4K3",
                        "region": "QC"
                  },
                  "name": "Van Houtte Inc"
            },
            {
                  "distance": 999,
                  "location": {
                        "address": "8818 Saint-Michel Blvd",
                        "country": "CA",
                        "formatted_address": "8818 Saint-Michel Blvd, Montreal QC H1Z 3G2",
                        "locality": "Montreal",
                        "postcode": "H1Z 3G2",
                        "region": "QC"
                  },
                  "name": "Caf\u00e9 Sins"
            }
      ],
      "context": {
            "geo_bounds": {
                  "circle": {
                        "center": {
                              "latitude": 45.56250904,
                              "longitude": -73.6165604
                        },
                        "radius": 1000
                  }
            }
      }
}