{
      "results": [
            {
                  "distance": 339,
                  "location": {
                        "address": "5411 rue de Verdun",
                        "country": "CA",
                        "cross_street": "coin Argyle",
                        "formatted_address": "5411 rue de Verdun (coin Argyle), Verdun QC H4H 1K6",
                        "locality": "Verdun",
                        "postcode": "H4H 1K6",
                        "region": "QC"
                  },
                  "name": "Bagel St-Lo",
                  "popularity": 0.9861965367146102,
                  "price": 1,
                  "rating": 8.9
            },
            {
                  "distance": 825,
                  "location": {
                        "address": "4811 Wellington Rue",
                        "country": "CA",
                        "cross_street": "",
                        "formatted_address": "4811 Wellington Rue, Verdun QC H4G 1X5",
                        "locality": "Verdun",
                        "postcode": "H4G 1X5",
                        "region": "QC"
                  },
                  "name": "Rex Pizza",
                  "popularity": 0.69742382664648,
                  "price": 1,
                  "rating": 7.8
            },
            {
                  "distance": 926,
                  "location": {
                        "address": "4718 Wellington Rue",
                        "country": "CA",
                        "cross_street": "2e avenue",
                        "formatted_address": "4718 Wellington Rue (2e avenue), Montr\u00e9al QC H4G 1X3",
                        "locality": "Montreal",
                        "postcode": "H4G 1X3",
                        "region": "QC"
                  },
                  "name": "Le Tr\u00e8fle",
                  "popularity": 0.9579982021196064,
                  "rating": 7.8
            },
            {
                  "distance": 872,
                  "location": {
                        "address": "4707 Wellington Rue",
                        "country": "CA",
                        "cross_street": "",
                        "formatted_address": "4707 Wellington Rue, Montr\u00e9al QC H4G 1X2",
                        "locality": "Montreal",
                        "postcode": "H4G 1X2",
                        "region": "QC"
                  },
                  "name": "Pho Bac No1",
                  "popularity": 0.8680332134746405,
                  "price": 2,
                  "rating": 7.5
            },
            {
                  "distance": 820,
                  "location": {
                        "address": "4844 Wellington Rue",
                        "country": "CA",
                        "cross_street": "",
                        "formatted_address": "4844 Wellington Rue, Verdun QC H4G 1X4",
                        "locality": "Verdun",
                        "postcode": "H4G 1X4",
                        "region": "QC"
                  },
                  "name": "Comptoir 21",
                  "popularity": 0.9071962528387585,
                  "price": 1,
                  "rating": 7.5
            },
            {
                  "distance": 558,
                  "location": {
                        "address": "5810 Rue de Verdun",
                        "country": "CA",
                        "cross_street": "Manning",
                        "formatted_address": "5810 Rue de Verdun (Manning), Verdun QC H4H 1L9",
                        "locality": "Verdun",
                        "postcode": "H4H 1L9",
                        "region": "QC"
                  },
                  "name": "Frejus St Raphael Cafe",
                  "popularity": 0.9233535200605602,
                  "price": 1,
                  "rating": 7.4
            },
            {
                  "distance": 361,
                  "location": {
                        "address": "5561 Rue de Verdun",
                        "country": "CA",
                        "cross_street": "Egan",
                        "formatted_address": "5561 Rue de Verdun (Egan), Verdun QC H4H 1L2",
                        "locality": "Verdun",
                        "postcode": "H4H 1L2",
                        "region": "QC"
                  },
                  "name": "Restaurant Bingo Regd",
                  "popularity": 0.9477313588190764,
                  "price": 1,
                  "rating": 7.3
            },
            {
                  "distance": 772,
                  "location": {
                        "address": "5013 Wellington Rue",
                        "country": "CA",
                        "cross_street": "",
                        "formatted_address": "5013 Wellington Rue, Montr\u00e9al QC H4G 1Y1",
                        "locality": "Montreal",
                        "postcode": "H4G 1Y1",
                        "region": "QC"
                  },
                  "name": "El Sabor de Mexico",
                  "popularity": 0.9422785768357305,
                  "price": 1,
                  "rating": 7.2
            },
            {
                  "distance": 878,
                  "location": {
                        "address": "4701 Wellington Rue",
                        "country": "CA",
                        "cross_street": "coin 2e avenue",
                        "formatted_address": "4701 Wellington Rue (coin 2e avenue), Montr\u00e9al QC H4G 1X2",
                        "locality": "Montreal",
                        "postcode": "H4G 1X2",
                        "region": "QC"
                  },
                  "name": "Villa Wellington",
                  "popularity": 0.9000638720666162,
                  "price": 2,
                  "rating": 6.8
            },
            {
                  "distance": 644,
                  "location": {
                        "address": "4702 Rue de Verdun",
                        "country": "CA",
                        "cross_street": "2e Av.",
                        "formatted_address": "4702 Rue de Verdun (2e Av.), Verdun QC H4G 1M8",
                        "locality": "Verdun",
                        "postcode": "H4G 1M8",
                        "region": "QC"
                  },
                  "name": "Mory's Original Pizza",
                  "popularity": 0.9097393073429221,
                  "price": 1,
                  "rating": 6.8
            },
            {
                  "distance": 587,
                  "location": {
                        "address": "4801 Rue de Verdun",
                        "country": "CA",
                        "cross_street": "3ieme Avenue",
                        "formatted_address": "4801 Rue de Verdun (3ieme Avenue), Montr\u00e9al QC H4G 1N2",
                        "locality": "Montreal",
                        "postcode": "H4G 1N2",
                        "region": "QC"
                  },
                  "name": "Palais d'Ajit",
                  "popularity": 0.9808738644965935,
                  "price": 2,
                  "rating": 6.6
            },
            {
                  "distance": 693,
                  "location": {
                        "address": "5443 Wellington Rue",
                        "country": "CA",
                        "cross_street": "coin Woodland",
                        "formatted_address": "5443 Wellington Rue (coin Woodland), Verdun QC H4H 1N4",
                        "locality": "Verdun",
                        "postcode": "H4H 1N4",
                        "region": "QC"
                  },
                  "name": "Woodland Restaurant",
                  "popularity": 0.911064061317184,
                  "price": 1,
                  "rating": 6.3
            },
            {
                  "distance": 368,
                  "location": {
                        "address": "5300 rue de Verdun",
                        "country": "CA",
                        "cross_street": "rue Melrose",
                        "formatted_address": "5300 rue de Verdun (rue Melrose), Verdun QC H4H 1K4",
                        "locality": "Verdun",
                        "postcode": "H4H 1K4",
                        "region": "QC"
                  },
                  "name": "Le Roi du Hot Dog",
                  "popularity": 0.982139477668433,
                  "price": 1
            },
            {
                  "distance": 679,
                  "location": {
                        "address": "4804 Verdun St",
                        "country": "CA",
                        "cross_street": "3rd Avenue",
                        "formatted_address": "4804 Verdun St (3rd Avenue), Verdun QC H4G 1N1",
                        "locality": "Verdun",
                        "postcode": "H4G 1N1",
                        "region": "QC"
                  },
                  "name": "Sushi Taiyo",
                  "popularity": 0.3622137585162756,
                  "price": 2
            },
            {
                  "distance": 842,
                  "location": {
                        "address": "4816 Wellington Rue",
                        "country": "CA",
                        "cross_street": "",
                        "formatted_address": "4816 Wellington Rue, Verdun QC H4G 1X4",
                        "locality": "Verdun",
                        "postcode": "H4G 1X4",
                        "region": "QC"
                  },
                  "name": "Bar Verdun Beach",
                  "popularity": 0.9350397426192278,
                  "price": 2
            },
            {
                  "distance": 846,
                  "location": {
                        "address": "4800 Wellington St",
                        "country": "CA",
                        "cross_street": "",
                        "formatted_address": "4800 Wellington St, Montr\u00e9al QC H4G 1X4",
                        "locality": "Montreal",
                        "postcode": "H4G 1X4",
                        "region": "QC"
                  },
                  "name": "Lido",
                  "popularity": 0.8944454958364875,
                  "price": 1
            },
            {
                  "distance": 897,
                  "location": {
                        "address": "4634 Wellington Rue",
                        "country": "CA",
                        "cross_street": "",
                        "formatted_address": "4634 Wellington Rue, Verdun QC H4G 1W9",
                        "locality": "Verdun",
                        "postcode": "H4G 1W9",
                        "region": "QC"
                  },
                  "name": "Pizza Expresso",
                  "popularity": 0.6096115632096897,
                  "price": 1
            },
            {
                  "distance": 899,
                  "location": {
                        "address": "4621 Wellington Rue",
                        "country": "CA",
                        "cross_street": "",
                        "formatted_address": "4621 Wellington Rue, Verdun QC H4G 1X1",
                        "locality": "Verdun",
                        "postcode": "H4G 1X1",
                        "region": "QC"
                  },
                  "name": "Uniburger",
                  "popularity": 0.928581566994701,
                  "price": 1
            },
            {
                  "distance": 934,
                  "location": {
                        "address": "4579 Wellington Rue",
                        "country": "CA",
                        "cross_street": "1\u00e8re Avenue",
                        "formatted_address": "4579 Wellington Rue (1\u00e8re Avenue), Verdun QC H4G 1W8",
                        "locality": "Verdun",
                        "postcode": "H4G 1W8",
                        "region": "QC"
                  },
                  "name": "La Belle Province",
                  "popularity": 0.8582631529144588,
                  "price": 1
            },
            {
                  "distance": 942,
                  "location": {
                        "address": "4549 Wellington Rue",
                        "country": "CA",
                        "cross_street": "1st Av",
                        "formatted_address": "4549 Wellington Rue (1st Av), Verdun QC H4G 1W8",
                        "locality": "Verdun",
                        "postcode": "H4G 1W8",
                        "region": "QC"
                  },
                  "name": "Falafel Yoni",
                  "popularity": 0.883575416351249,
                  "price": 1
            },
            {
                  "distance": 942,
                  "location": {
                        "address": "4559 Wellington Rue",
                        "country": "CA",
                        "cross_street": "",
                        "formatted_address": "4559 Wellington Rue, Montr\u00e9al QC H4G 1W8",
                        "locality": "Montreal",
                        "postcode": "H4G 1W8",
                        "region": "QC"
                  },
                  "name": "Honi Honi",
                  "popularity": 0.8418929788039364
            },
            {
                  "distance": 942,
                  "location": {
                        "address": "4578 Wellington Rue",
                        "country": "CA",
                        "cross_street": "",
                        "formatted_address": "4578 Wellington Rue, Montr\u00e9al QC H4G 1W7",
                        "locality": "Montreal",
                        "postcode": "H4G 1W7",
                        "region": "QC"
                  },
                  "name": "Pizz\u00e9ria NO.900",
                  "popularity": 0.9577379825889477,
                  "price": 1
            },
            {
                  "distance": 945,
                  "location": {
                        "address": "4536 Wellington Rue",
                        "country": "CA",
                        "cross_street": "",
                        "formatted_address": "4536 Wellington Rue, Montr\u00e9al QC H4G 1W7",
                        "locality": "Montreal",
                        "postcode": "H4G 1W7",
                        "region": "QC"
                  },
                  "name": "Viet Express",
                  "popularity": 0.8108204012112036,
                  "price": 2
            },
            {
                  "distance": 962,
                  "location": {
                        "address": "4554 Wellington Rue",
                        "country": "CA",
                        "cross_street": "1re avenue",
                        "formatted_address": "4554 Wellington Rue (1re avenue), Montr\u00e9al QC H4G 1W7",
                        "locality": "Montreal",
                        "postcode": "H4G 1W7",
                        "region": "QC"
                  },
                  "name": "Lili & Oli",
                  "popularity": 0.9719199470098411,
                  "price": 1
            },
            {
                  "distance": 255,
                  "location": {
                        "address": "5077 Bannantyne Rue",
                        "country": "CA",
                        "formatted_address": "5077 Bannantyne Rue, Verdun QC H4G 1G2",
                        "locality": "Verdun",
                        "postcode": "H4G 1G2",
                        "region": "QC"
                  },
                  "name": "Terrasse Chez Laurette"
            },
            {
                  "distance": 347,
                  "location": {
                        "address": "5511 rue de Verdun",
                        "country": "CA",
                        "formatted_address": "5511 rue de Verdun, Verdun QC H4H 1K9",
                        "locality": "Verdun",
                        "postcode": "H4H 1K9",
                        "region": "QC"
                  },
                  "name": "Restaurant Napolitana"
            },
            {
                  "distance": 378,
                  "location": {
                        "address": "5300 rue de Verdun",
                        "country": "CA",
                        "formatted_address": "5300 rue de Verdun, Verdun QC H4H 1K4",
                        "locality": "Verdun",
                        "postcode": "H4H 1K4",
                        "region": "QC"
                  },
                  "name": "Les Cremerie Dairy King Ltee"
            },
            {
                  "distance": 480,
                  "location": {
                        "address": "5001 Rue de Verdun",
                        "country": "CA",
                        "formatted_address": "5001 Rue de Verdun, Verdun QC H4G 1N5",
                        "locality": "Verdun",
                        "postcode": "H4G 1N5",
                        "region": "QC"
                  },
                  "name": "New Verdun Restaurant"
            },
            {
                  "distance": 511,
                  "location": {
                        "address": "341 Desmarchais Ave",
                        "country": "CA",
                        "formatted_address": "341 Desmarchais Ave, Verdun QC H4H 1S5",
                        "locality": "Verdun",
                        "postcode": "H4H 1S5",
                        "region": "QC"
                  },
                  "name": "Toty Cupcakes"
            },
            {
                  "distance": 574,
                  "location": {
                        "address": "4804 Rue de Verdun",
                        "country": "CA",
                        "formatted_address": "4804 Rue de Verdun, Verdun QC H4G 1N1",
                        "locality": "Verdun",
                        "postcode": "H4G 1N1",
                        "region": "QC"
                  },
                  "name": "Sushi Taiyo"
            },
            {
                  "distance": 586,
                  "location": {
                        "address": "4830 rue de Verdun",
                        "country": "CA",
                        "formatted_address": "4830 rue de Verdun, Verdun QC H4G 1N1",
                        "locality": "Verdun",
                        "postcode": "H4G 1N1",
                        "region": "QC"
                  },
                  "name": "Bienvenue Chez Fusion"
            },
            {
                  "distance": 671,
                  "location": {
                        "address": "5317 Wellington Rue",
                        "address_extended": "# 5315",
                        "country": "CA",
                        "formatted_address": "5317 Wellington Rue, Verdun QC H4H 1N3",
                        "locality": "Verdun",
                        "postcode": "H4H 1N3",
                        "region": "QC"
                  },
                  "name": "Le Sing-Niors Lounge"
            },
            {
                  "distance": 676,
                  "location": {
                        "address": "4609 rue de Verdun",
                        "country": "CA",
                        "formatted_address": "4609 rue de Verdun, Verdun QC H4G 1M6",
                        "locality": "Verdun",
                        "postcode": "H4G 1M6",
                        "region": "QC"
                  },
                  "name": "Luciano Salon Rouge Restorante"
            },
            {
                  "distance": 743,
                  "location": {
                        "address": "4594 Rue de verdun",
                        "country": "CA",
                        "formatted_address": "4594 Rue de verdun, Verdun QC H4G 1M3",
                        "locality": "Verdun",
                        "postcode": "H4G 1M3",
                        "region": "QC"
                  },
                  "name": "Pizza Charlevoix"
            },
            {
                  "distance": 743,
                  "location": {
                        "address": "5045 Wellington Rue",
                        "country": "CA",
                        "formatted_address": "5045 Wellington Rue, Verdun QC H4G 1Y1",
                        "locality": "Verdun",
                        "postcode": "H4G 1Y1",
                        "region": "QC"
                  },
                  "name": "Maison Ding"
            }
      ],
      "context": {
            "geo_bounds": {
                  "circle": {
                        "center": {
                              "latitude": 45.45331877,
                              "longitude": -73.57677519
                        },
                        "radius": 1000
                  }
            }
      }
}