{
      "results": [
            {
                  "distance": 163,
                  "location": {
                        "address": "1465 Dudemaine Rue",
                        "country": "CA",
                        "cross_street": "",
                        "formatted_address": "1465 Dudemaine Rue, Montr\u00e9al QC H3M 1P9",
                        "locality": "Montreal",
                        "postcode": "H3M 1P9",
                        "region": "QC"
                  },
                  "name": "Sapori di Napoli",
                  "popularity": 0.9235309424678274,
                  "price": 2,
                  "rating": 7.5
            },
            {
                  "distance": 660,
                  "location": {
                        "address": "1555 Henri-Bourassa Blvd O",
                        "country": "CA",
                        "cross_street": "",
                        "formatted_address": "1555 Henri-Bourassa Blvd O, Montr\u00e9al QC H3M 1X7",
                        "locality": "Montreal",
                        "postcode": "H3M 1X7",
                        "region": "QC"
                  },
                  "name": "Subway",
                  "popularity": 0.9349569454958365,
                  "price": 1,
                  "rating": 6.7
            },
            {
                  "distance": 148,
                  "location": {
                        "address": "1575 Dudemaine Rue",
                        "country": "CA",
                        "cross_street": "coin Bois-de-Boulogne",
                        "formatted_address": "1575 Dudemaine Rue (coin Bois-de-Boulogne), Montr\u00e9al QC H3M 1R2",
                        "locality": "Montreal",
                        "postcode": "H3M 1R2",
                        "region": "QC"
                  },
                  "name": "Restaurant Dima",
                  "popularity": 0.23692988266464798,
                  "price": 2
            },
            {
                  "distance": 743,
                  "location": {
                        "address": "1530 Henri-Bourassa Blvd O",
                        "country": "CA",
                        "cross_street": "",
                        "formatted_address": "1530 Henri-Bourassa Blvd O, Montr\u00e9al QC H3M 3E3",
                        "locality": "Montreal",
                        "postcode": "H3M 3E3",
                        "region": "QC"
                  },
                  "name": "Restaurant le Coq La-La",
                  "popularity": 0.8126655942467828,
                  "price": 2
            },
            {
                  "distance": 885,
                  "location": {
                        "address": "2864 rue de Salaberry",
                        "country": "CA",
                        "cross_street": "Galeries Normandie",
                        "formatted_address": "2864 rue de Salaberry (Galeries Normandie), Montr\u00e9al QC H3M 1L3",
                        "locality": "Montreal",
                        "postcode": "H3M 1L3",
                        "region": "QC"
                  },
                  "name": "Cafe de la Presse",
                  "popularity": 0.9428581566994702,
                  "price": 1
            },
            {
                  "distance": 903,
                  "location": {
                        "address": "2860 Salaberry",
                        "country": "CA",
                        "cross_street": "",
                        "formatted_address": "2860 Salaberry, Montr\u00e9al QC",
                        "locality": "Montreal",
                        "region": "QC"
                  },
                  "name": "Nouilles Orientales",
                  "popularity": 0.9914127554882665,
                  "price": 1
            },
            {
                  "distance": 1268,
                  "location": {
                        "address": "1569 Viel Rue",
                        "country": "CA",
                        "cross_street": "",
                        "formatted_address": "1569 Viel Rue, Montr\u00e9al QC H3M 1G6",
                        "locality": "Montreal",
                        "postcode": "H3M 1G6",
                        "region": "QC"
                  },
                  "name": "Patisserie Azrak",
                  "popularity": 0.32499053747161244,
                  "price": 1
            },
            {
                  "distance": 655,
                  "location": {
                        "address": "1545A Henri-Bourassa Blvd O",
                        "country": "CA",
                        "formatted_address": "1545A Henri-Bourassa Blvd O, Montreal QC H3M 1X6",
                        "locality": "Montreal",
                        "postcode": "H3M 1X6",
                        "region": "QC"
                  },
                  "name": "Rino Pizzeria"
            },
            {
                  "distance": 668,
                  "location": {
                        "address": "1545 Henri-Bourassa Blvd O",
                        "country": "CA",
                        "formatted_address": "1545 Henri-Bourassa Blvd O, Montreal QC H3M 1X6",
                        "locality": "Montreal",
                        "postcode": "H3M 1X6",
                        "region": "QC"
                  },
                  "name": "Caf\u00e9 Noir"
            },
            {
                  "distance": 677,
                  "location": {
                        "address": "1855 Rue de Salaberry",
                        "country": "CA",
                        "formatted_address": "1855 Rue de Salaberry, Montreal QC H3M 1K5",
                        "locality": "Montreal",
                        "postcode": "H3M 1K5",
                        "region": "QC"
                  },
                  "name": "Falafel Damas"
            },
            {
                  "distance": 857,
                  "location": {
                        "address": "1570 Louis-Carrier Rue",
                        "country": "CA",
                        "formatted_address": "1570 Louis-Carrier Rue, Montreal QC H4N 2Z1",
                        "locality": "Montreal",
                        "postcode": "H4N 2Z1",
                        "region": "QC"
                  },
                  "name": "Caramel"
            },
            {
                  "distance": 913,
                  "location": {
                        "address": "2525 Rue de Salaberry",
                        "country": "CA",
                        "formatted_address": "2525 Rue de Salaberry, Montreal QC H3M 1L1",
                        "locality": "Montreal",
                        "postcode": "H3M 1L1",
                        "region": "QC"
                  },
                  "name": "Yum Yum Chicken Restaurant"
            },
            {
                  "distance": 918,
                  "location": {
                        "address": "2525 rue de Salaberry",
                        "country": "CA",
                        "formatted_address": "2525 rue de Salaberry, Montreal QC H3M 1L1",
                        "locality": "Montreal",
                        "postcode": "H3M 1L1",
                        "region": "QC"
                  },
                  "name": "Nouveau Felix Pizza & Deli"
            },
            {
                  "distance": 922,
                  "location": {
                        "address": "2774 Rue de Salaberry",
                        "country": "CA",
                        "formatted_address": "2774 Rue de Salaberry, Montreal QC H3M 1L3",
                        "locality": "Montreal",
                        "postcode": "H3M 1L3",
                        "region": "QC"
                  },
                  "name": "Nouille Orientale"
            },
            {
                  "distance": 937,
                  "location": {
                        "address": "2838 rue de Salaberry",
                        "country": "CA",
                        "formatted_address": "2838 rue de Salaberry, Montreal QC H3M 1L3",
                        "locality": "Montreal",
                        "postcode": "H3M 1L3",
                        "region": "QC"
                  },
                  "name": "Double Pizza"
            }
      ],
      "context": {
            "geo_bounds": {
                  "circle": {
                        "center": {
                              "latitude": 45.53980655,
                              "longitude": -73.68726611
                        },
                        "radius": 1000
                  }
            }
      }
}