{
      "results": [
            {
                  "distance": 556,
                  "location": {
                        "address": "5414 Gatineau Ave",
                        "country": "CA",
                        "cross_street": "",
                        "formatted_address": "5414 Gatineau Ave, Montr\u00e9al QC H3T 1X5",
                        "locality": "Montreal",
                        "postcode": "H3T 1X5",
                        "region": "QC"
                  },
                  "name": "Saint-Houblon",
                  "popularity": 0.9870836487509462,
                  "price": 2,
                  "rating": 8.8
            },
            {
                  "distance": 918,
                  "location": {
                        "address": "5002 Ch de la C\u00f4te-des-Neiges",
                        "country": "CA",
                        "cross_street": "Rue du Fr\u00e8re Andr\u00e9",
                        "formatted_address": "5002 Ch de la C\u00f4te-des-Neiges (Rue du Fr\u00e8re Andr\u00e9), Montr\u00e9al QC H3V 1G6",
                        "locality": "Montreal",
                        "postcode": "H3V 1G6",
                        "region": "QC"
                  },
                  "name": "Duc de Lorraine",
                  "popularity": 0.9707134746404239,
                  "price": 1,
                  "rating": 8.7
            },
            {
                  "distance": 540,
                  "location": {
                        "address": "5485 Victoria Ave",
                        "country": "CA",
                        "cross_street": "Saint-Kevin",
                        "formatted_address": "5485 Victoria Ave (Saint-Kevin), Montr\u00e9al QC H3W 2P9",
                        "locality": "Montreal",
                        "postcode": "H3W 2P9",
                        "region": "QC"
                  },
                  "name": "Restaurant Hoai Huong",
                  "popularity": 0.9431420325510976,
                  "price": 1,
                  "rating": 8.5
            },
            {
                  "distance": 324,
                  "location": {
                        "address": "5703B de la Cote-Des-Neiges Ch",
                        "country": "CA",
                        "cross_street": "C\u00f4te-St-Catherine",
                        "formatted_address": "5703B de la Cote-Des-Neiges Ch (C\u00f4te-St-Catherine), Montr\u00e9al QC H3S 1Y7",
                        "locality": "Montreal",
                        "postcode": "H3S 1Y7",
                        "region": "QC"
                  },
                  "name": "Restaurant Pho Lien",
                  "popularity": 0.9779523088569265,
                  "price": 2,
                  "rating": 8.4
            },
            {
                  "distance": 494,
                  "location": {
                        "address": "5400 Ch de la C\u00f4te-des-Neiges",
                        "country": "CA",
                        "cross_street": "coin \u00c9douard-Montpetit",
                        "formatted_address": "5400 Ch de la C\u00f4te-des-Neiges (coin \u00c9douard-Montpetit), Montr\u00e9al QC H3T 1Y5",
                        "locality": "Montreal",
                        "postcode": "H3T 1Y5",
                        "region": "QC"
                  },
                  "name": "McCarold",
                  "popularity": 0.985333080999243,
                  "price": 2,
                  "rating": 8.2
            },
            {
                  "distance": 505,
                  "location": {
                        "address": "5690 Victoria Ave",
                        "country": "CA",
                        "cross_street": "C\u00f4te St-Catherine",
                        "formatted_address": "5690 Victoria Ave (C\u00f4te St-Catherine), Montr\u00e9al QC H3W 2P8",
                        "locality": "Montreal",
                        "postcode": "H3W 2P8",
                        "region": "QC"
                  },
                  "name": "Sen Vang",
                  "popularity": 0.9870363361090083,
                  "price": 2,
                  "rating": 7.9
            },
            {
                  "distance": 783,
                  "location": {
                        "address": "6565 Ch de la Cote-Des-Neiges",
                        "country": "CA",
                        "cross_street": "Barclay",
                        "formatted_address": "6565 Ch de la Cote-Des-Neiges (Barclay), Montr\u00e9al QC H3S 2A5",
                        "locality": "Montreal",
                        "postcode": "H3S 2A5",
                        "region": "QC"
                  },
                  "name": "Kum Mon Restaurant",
                  "popularity": 0.9859836298258895,
                  "price": 1,
                  "rating": 7.9
            },
            {
                  "distance": 331,
                  "location": {
                        "address": "5685 Ch C\u00f4te-Des-Neiges",
                        "country": "CA",
                        "cross_street": "",
                        "formatted_address": "5685 Ch C\u00f4te-Des-Neiges, Montr\u00e9al QC H3T 1Y8",
                        "locality": "Montreal",
                        "postcode": "H3T 1Y8",
                        "region": "QC"
                  },
                  "name": "All\u00f4! Mon Coco",
                  "popularity": 0.9823523845571537,
                  "price": 1,
                  "rating": 7.6
            },
            {
                  "distance": 912,
                  "location": {
                        "address": "6625 Victoria Ave",
                        "country": "CA",
                        "cross_street": "",
                        "formatted_address": "6625 Victoria Ave, Montr\u00e9al QC H3W 2T2",
                        "locality": "Montreal",
                        "postcode": "H3W 2T2",
                        "region": "QC"
                  },
                  "name": "KFC",
                  "popularity": 0.9919450227100681,
                  "price": 1,
                  "rating": 7.4,
                  "store_id": "1257"
            },
            {
                  "distance": 450,
                  "location": {
                        "address": "5484 Ch de la Cote-Des-Neiges",
                        "country": "CA",
                        "cross_street": "Boul. \u00c9douard-Montpetit",
                        "formatted_address": "5484 Ch de la Cote-Des-Neiges (Boul. \u00c9douard-Montpetit), Montr\u00e9al QC H3T 1Y5",
                        "locality": "Montreal",
                        "postcode": "H3T 1Y5",
                        "region": "QC"
                  },
                  "name": "Starbucks",
                  "popularity": 0.923128785011355,
                  "price": 1,
                  "rating": 7.3,
                  "store_id": "23595-222908"
            },
            {
                  "distance": 631,
                  "location": {
                        "address": "6260 ch. de la C\u00f4te-des-Neiges",
                        "country": "CA",
                        "formatted_address": "6260 ch. de la C\u00f4te-des-Neiges, Montr\u00e9al QC H3S 2A3",
                        "locality": "Montreal",
                        "postcode": "H3S 2A3",
                        "region": "QC"
                  },
                  "name": "Restaurant Nguyen Phi",
                  "popularity": 0.9791824375473126,
                  "price": 2,
                  "rating": 7.1
            },
            {
                  "distance": 467,
                  "location": {
                        "address": "5985 Ch de la Cote-des-neiges",
                        "country": "CA",
                        "cross_street": "Linton",
                        "formatted_address": "5985 Ch de la Cote-des-neiges (Linton), Montr\u00e9al QC H3S 1Z2",
                        "locality": "Montreal",
                        "postcode": "H3S 1Z2",
                        "region": "QC"
                  },
                  "name": "Tim Hortons",
                  "popularity": 0.9952450794852384,
                  "price": 1,
                  "rating": 7.0
            },
            {
                  "distance": 396,
                  "location": {
                        "address": "5540-A C\u00f4TE-DES-NEIGES",
                        "country": "CA",
                        "cross_street": "",
                        "formatted_address": "5540-A C\u00f4TE-DES-NEIGES, Montr\u00e9al QC",
                        "locality": "Montreal",
                        "region": "QC"
                  },
                  "name": "Ngan Dinh",
                  "popularity": 0.9620670893262679,
                  "price": 2,
                  "rating": 6.7
            },
            {
                  "distance": 549,
                  "location": {
                        "address": "6185 Ch de la C\u00f4te-des-Neiges",
                        "country": "CA",
                        "formatted_address": "6185 Ch de la C\u00f4te-des-Neiges, Montr\u00e9al QC H3S 1Z9",
                        "locality": "Montreal",
                        "postcode": "H3S 1Z9",
                        "region": "QC"
                  },
                  "name": "Pizza Pizza",
                  "popularity": 0.9545916919000756,
                  "price": 1,
                  "rating": 6.7,
                  "store_id": "307"
            },
            {
                  "distance": 921,
                  "location": {
                        "address": "6700 Ch de la C\u00f4te-des-Neiges",
                        "country": "CA",
                        "cross_street": "Barclay",
                        "formatted_address": "6700 Ch de la C\u00f4te-des-Neiges (Barclay), Montr\u00e9al QC H3S 2B2",
                        "locality": "Montreal",
                        "postcode": "H3S 2B2",
                        "region": "QC"
                  },
                  "name": "Cine Starz Inc Cotes des Neiges",
                  "popularity": 0.991353614685844,
                  "rating": 6.5
            },
            {
                  "distance": 384,
                  "location": {
                        "address": "5567A de la Cote des Neiges Ch",
                        "country": "CA",
                        "cross_street": "",
                        "formatted_address": "5567A de la Cote des Neiges Ch, Montr\u00e9al QC H3T 1Y8",
                        "locality": "Montreal",
                        "postcode": "H3T 1Y8",
                        "region": "QC"
                  },
                  "name": "Restaurant Kebab Express",
                  "popularity": 0.9039671650264951,
                  "price": 2,
                  "rating": 6.4
            },
            {
                  "distance": 445,
                  "location": {
                        "address": "6000 Ch de la C\u00f4te-des-Neiges",
                        "country": "CA",
                        "cross_street": "Avenue Linton",
                        "formatted_address": "6000 Ch de la C\u00f4te-des-Neiges (Avenue Linton), Montr\u00e9al QC H3S 1Z8",
                        "locality": "Montreal",
                        "postcode": "H3S 1Z8",
                        "region": "QC"
                  },
                  "name": "Second Cup",
                  "popularity": 0.9513507759273278,
                  "price": 1,
                  "rating": 6.3
            },
            {
                  "distance": 287,
                  "location": {
                        "address": "3700 Ch de la C\u00f4te-sainte-catherine",
                        "country": "CA",
                        "cross_street": "",
                        "formatted_address": "3700 Ch de la C\u00f4te-sainte-catherine, Montr\u00e9al QC H3T 1E1",
                        "locality": "Montreal",
                        "postcode": "H3T 1E1",
                        "region": "QC"
                  },
                  "name": "Tim Hortons",
                  "popularity": 0.9728543716881151,
                  "price": 1,
                  "rating": 6.2
            },
            {
                  "distance": 637,
                  "location": {
                        "address": "5252 Cote des Neiges",
                        "country": "CA",
                        "cross_street": "rue Jean-Brillant",
                        "formatted_address": "5252 Cote des Neiges (rue Jean-Brillant), Montr\u00e9al QC H3T 1X8",
                        "locality": "Montreal",
                        "postcode": "H3T 1X8",
                        "region": "QC"
                  },
                  "name": "McDonald's",
                  "popularity": 0.9865632096896291,
                  "price": 1,
                  "rating": 6.2,
                  "store_id": "40369"
            },
            {
                  "distance": 532,
                  "location": {
                        "address": "3549 Lacombe Ave",
                        "country": "CA",
                        "cross_street": "",
                        "formatted_address": "3549 Lacombe Ave, Montr\u00e9al QC H3T 1M2",
                        "locality": "Montreal",
                        "postcode": "H3T 1M2",
                        "region": "QC"
                  },
                  "name": "Al Amine",
                  "popularity": 0.9166942657077971,
                  "price": 2,
                  "rating": 6.1
            },
            {
                  "distance": 685,
                  "location": {
                        "address": "5206C de la Cote des Neiges Ch",
                        "country": "CA",
                        "cross_street": "",
                        "formatted_address": "5206C de la Cote des Neiges Ch, Montr\u00e9al QC H3T 1X8",
                        "locality": "Montreal",
                        "postcode": "H3T 1X8",
                        "region": "QC"
                  },
                  "name": "Second Cup Coffee Co",
                  "popularity": 0.9330526116578349,
                  "price": 2,
                  "rating": 5.7,
                  "store_id": "3179"
            },
            {
                  "distance": 502,
                  "location": {
                        "address": "6025 Blvd de la C\u00f4te-Des-Neiges",
                        "country": "CA",
                        "cross_street": "coin Van Horne",
                        "formatted_address": "6025 Blvd de la C\u00f4te-Des-Neiges (coin Van Horne), Montr\u00e9al QC H3S 1Z9",
                        "locality": "Montreal",
                        "postcode": "H3S 1Z9",
                        "region": "QC"
                  },
                  "name": "McDonald's",
                  "popularity": 0.9968537093111279,
                  "price": 1,
                  "rating": 5.4,
                  "store_id": "3312"
            },
            {
                  "distance": 742,
                  "location": {
                        "address": "5185 Ch de la cote-des-Neiges",
                        "country": "CA",
                        "cross_street": "",
                        "formatted_address": "5185 Ch de la cote-des-Neiges, Montr\u00e9al QC H3T 1Y1",
                        "locality": "Montreal",
                        "postcode": "H3T 1Y1",
                        "region": "QC"
                  },
                  "name": "Subway",
                  "popularity": 0.34890707797123394,
                  "price": 1,
                  "rating": 5.4
            },
            {
                  "distance": 302,
                  "location": {
                        "address": "3680 Ch de la C\u00f4te-Sainte-Catherine",
                        "country": "CA",
                        "cross_street": "",
                        "formatted_address": "3680 Ch de la C\u00f4te-Sainte-Catherine, Montr\u00e9al QC H3T 1E1",
                        "locality": "Montreal",
                        "postcode": "H3T 1E1",
                        "region": "QC"
                  },
                  "name": "Quesada Burritos and Tacos",
                  "popularity": 0.977964137017411
            },
            {
                  "distance": 304,
                  "location": {
                        "address": "5655 ch de la cote-des-Neiges",
                        "country": "CA",
                        "cross_street": "",
                        "formatted_address": "5655 ch de la cote-des-Neiges, Montreal QC H3T 1Y8",
                        "locality": "Montreal",
                        "postcode": "H3T 1Y8",
                        "region": "QC"
                  },
                  "name": "R\u00f4tisserie Poulet-Technique",
                  "popularity": 0.45301854655563967,
                  "price": 1
            },
            {
                  "distance": 343,
                  "location": {
                        "address": "5693 ch de la cote-des-Neiges",
                        "country": "CA",
                        "cross_street": "C\u00f4te des Neiges",
                        "formatted_address": "5693 ch de la cote-des-Neiges (C\u00f4te des Neiges), Montr\u00e9al QC H3S 1Y7",
                        "locality": "Montreal",
                        "postcode": "H3S 1Y7",
                        "region": "QC"
                  },
                  "name": "Caf\u00e9 Nido",
                  "popularity": 0.8397402535957608,
                  "price": 2
            },
            {
                  "distance": 352,
                  "location": {
                        "address": "5647 Ch de la C\u00f4te-des-Neiges",
                        "country": "CA",
                        "cross_street": "",
                        "formatted_address": "5647 Ch de la C\u00f4te-des-Neiges, Montr\u00e9al QC H3T 1Y8",
                        "locality": "Montreal",
                        "postcode": "H3T 1Y8",
                        "region": "QC"
                  },
                  "name": "La Diperie",
                  "popularity": 0.9308998864496594,
                  "price": 1
            },
            {
                  "distance": 404,
                  "location": {
                        "address": "5520 Ch de la Cote des Neiges",
                        "country": "CA",
                        "cross_street": "",
                        "formatted_address": "5520 Ch de la Cote des Neiges, Montr\u00e9al QC H3T 1Y9",
                        "locality": "Montreal",
                        "postcode": "H3T 1Y9",
                        "region": "QC"
                  },
                  "name": "Copper Branch",
                  "popularity": 0.027074659348978045,
                  "price": 2
            },
            {
                  "distance": 416,
                  "location": {
                        "address": "5536A de la Cote-Des-Neiges Ch",
                        "country": "CA",
                        "cross_street": "rue St-Laurent",
                        "formatted_address": "5536A de la Cote-Des-Neiges Ch (rue St-Laurent), Montr\u00e9al QC H3T 1Y9",
                        "locality": "Montreal",
                        "postcode": "H3T 1Y9",
                        "region": "QC"
                  },
                  "name": "Le Petit Vibe",
                  "popularity": 0.9580336866010598,
                  "price": 2
            },
            {
                  "distance": 450,
                  "location": {
                        "address": "5470 Ch. de la C\u00f4te des Neiges",
                        "country": "CA",
                        "cross_street": "",
                        "formatted_address": "5470 Ch. de la C\u00f4te des Neiges, Montr\u00e9al QC H3T 1Y5",
                        "locality": "Montreal",
                        "postcode": "H3T 1Y5",
                        "region": "QC"
                  },
                  "name": "Mont Tacos",
                  "popularity": 0.8148892884178652,
                  "price": 3
            },
            {
                  "distance": 477,
                  "location": {
                        "address": "5412 Cote des Neiges Rd",
                        "country": "CA",
                        "cross_street": "",
                        "formatted_address": "5412 Cote des Neiges Rd, Montr\u00e9al QC H3T 1Y5",
                        "locality": "Montreal",
                        "postcode": "H3T 1Y5",
                        "region": "QC"
                  },
                  "name": "L2 Lounge Cote des Neiges",
                  "popularity": 0.8827829295987888
            },
            {
                  "distance": 538,
                  "location": {
                        "address": "4655 Van Horne Ave",
                        "country": "CA",
                        "cross_street": "",
                        "formatted_address": "4655 Van Horne Ave, Montr\u00e9al QC H3W 1H8",
                        "locality": "Montreal",
                        "postcode": "H3W 1H8",
                        "region": "QC"
                  },
                  "name": "Domino's Pizza",
                  "popularity": 0.9313730128690386,
                  "price": 1,
                  "store_id": "10707"
            },
            {
                  "distance": 542,
                  "location": {
                        "address": "5487 Victoria Ave",
                        "country": "CA",
                        "cross_street": "",
                        "formatted_address": "5487 Victoria Ave, Montr\u00e9al QC H3W 2P9",
                        "locality": "Montreal",
                        "postcode": "H3W 2P9",
                        "region": "QC"
                  },
                  "name": "Pizza Gourmetti",
                  "popularity": 0.9082962717638153,
                  "price": 3
            },
            {
                  "distance": 548,
                  "location": {
                        "address": "5412 ch de la C\u00f4te-des-Neiges",
                        "country": "CA",
                        "cross_street": "",
                        "formatted_address": "5412 ch de la C\u00f4te-des-Neiges, Montr\u00e9al QC H3T 1Y5",
                        "locality": "Montreal",
                        "postcode": "H3T 1Y5",
                        "region": "QC"
                  },
                  "name": "M Star Sandwich",
                  "popularity": 0.8849711392884179,
                  "price": 1
            },
            {
                  "distance": 576,
                  "location": {
                        "address": "5940 Victoria Ave",
                        "country": "CA",
                        "cross_street": "",
                        "formatted_address": "5940 Victoria Ave, Montr\u00e9al QC H3W 2R8",
                        "locality": "Montreal",
                        "postcode": "H3W 2R8",
                        "region": "QC"
                  },
                  "name": "Pinoy Pansitan",
                  "popularity": 0.971647899318698,
                  "price": 2
            }
      ],
      "context": {
            "geo_bounds": {
                  "circle": {
                        "center": {
                              "latitude": 45.49624141,
                              "longitude": -73.62983868
                        },
                        "radius": 1000
                  }
            }
      }
}