{
      "results": [
            {
                  "distance": 852,
                  "location": {
                        "address": "45 Mozart Ave O",
                        "country": "CA",
                        "cross_street": "",
                        "formatted_address": "45 Mozart Ave O, Montr\u00e9al QC H2S 1C1",
                        "locality": "Montreal",
                        "postcode": "H2S 1C1",
                        "region": "QC"
                  },
                  "name": "Marconi",
                  "popularity": 0.9417699659348978,
                  "price": 2,
                  "rating": 9.2
            },
            {
                  "distance": 913,
                  "location": {
                        "address": "6840 Saint-Laurent Blvd",
                        "country": "CA",
                        "formatted_address": "6840 Saint-Laurent Blvd, Montr\u00e9al QC H2S 3C7",
                        "locality": "Montreal",
                        "postcode": "H2S 3C7",
                        "region": "QC"
                  },
                  "name": "Cafe Italia",
                  "popularity": 0.9526163890991673,
                  "price": 1,
                  "rating": 9.1
            },
            {
                  "distance": 262,
                  "location": {
                        "address": "511 Villeray Rue",
                        "country": "CA",
                        "cross_street": "coin Berri",
                        "formatted_address": "511 Villeray Rue (coin Berri), Montr\u00e9al QC H2R 1H5",
                        "locality": "Montreal",
                        "postcode": "H2R 1H5",
                        "region": "QC"
                  },
                  "name": "Tapeo",
                  "popularity": 0.9402914458743377,
                  "price": 2,
                  "rating": 9.1
            },
            {
                  "distance": 906,
                  "location": {
                        "address": "7032 Waverly Rue",
                        "country": "CA",
                        "cross_street": "",
                        "formatted_address": "7032 Waverly Rue, Montr\u00e9al QC H2S 3J2",
                        "locality": "Montreal",
                        "postcode": "H2S 3J2",
                        "region": "QC"
                  },
                  "name": "D\u00e9panneur le Pick Up",
                  "popularity": 0.9210233724451173,
                  "price": 1,
                  "rating": 9.0
            },
            {
                  "distance": 693,
                  "location": {
                        "address": "95 Jean-Talon Rue O",
                        "country": "CA",
                        "cross_street": "Saint-Urbain",
                        "formatted_address": "95 Jean-Talon Rue O (Saint-Urbain), Montr\u00e9al QC H2R 2W8",
                        "locality": "Montreal",
                        "postcode": "H2R 2W8",
                        "region": "QC"
                  },
                  "name": "Brasserie Harricana",
                  "popularity": 0.95985522331567,
                  "rating": 8.8
            },
            {
                  "distance": 846,
                  "location": {
                        "address": "277 Dante Rue",
                        "country": "CA",
                        "cross_street": "",
                        "formatted_address": "277 Dante Rue, Montr\u00e9al QC H2S 1K3",
                        "locality": "Montreal",
                        "postcode": "H2S 1K3",
                        "region": "QC"
                  },
                  "name": "Pasticceria Alati-Caserta",
                  "popularity": 0.9710328349735049,
                  "price": 1,
                  "rating": 8.8
            },
            {
                  "distance": 651,
                  "location": {
                        "address": "260 Pl du March\u00e9 du Nord",
                        "country": "CA",
                        "cross_street": "",
                        "formatted_address": "260 Pl du March\u00e9 du Nord, Montr\u00e9al QC H2S 1A1",
                        "locality": "Montreal",
                        "postcode": "H2S 1A1",
                        "region": "QC"
                  },
                  "name": "Caf\u00e9 Saint-Henri MJT",
                  "popularity": 0.9128146290688872,
                  "price": 1,
                  "rating": 8.7
            },
            {
                  "distance": 657,
                  "location": {
                        "address": "7129 Saint-Laurent Blvd",
                        "address_extended": "Coin avenue Shamrock",
                        "country": "CA",
                        "cross_street": "Coin avenue Shamrock",
                        "formatted_address": "7129 Saint-Laurent Blvd (Coin avenue Shamrock), Montr\u00e9al QC H2S 0B2",
                        "locality": "Montreal",
                        "postcode": "H2S 0B2",
                        "region": "QC"
                  },
                  "name": "Birra",
                  "popularity": 0.9695779712339136,
                  "price": 2,
                  "rating": 8.6
            },
            {
                  "distance": 514,
                  "location": {
                        "address": "232 Jean-Talon Rue E",
                        "country": "CA",
                        "cross_street": "coin Casgrain",
                        "formatted_address": "232 Jean-Talon Rue E (coin Casgrain), Montr\u00e9al QC H2R 1S7",
                        "locality": "Montreal",
                        "postcode": "H2R 1S7",
                        "region": "QC"
                  },
                  "name": "Le Roi du Taco",
                  "popularity": 0.9488195495836488,
                  "price": 1,
                  "rating": 8.6
            },
            {
                  "distance": 738,
                  "location": {
                        "address": "6956 Drolet Rue",
                        "country": "CA",
                        "cross_street": "entre Mozart & B\u00e9langer",
                        "formatted_address": "6956 Drolet Rue (entre Mozart & B\u00e9langer), Montr\u00e9al QC H2S 2T3",
                        "locality": "Montreal",
                        "postcode": "H2S 2T3",
                        "region": "QC"
                  },
                  "name": "Chez Tousignant",
                  "popularity": 0.9384225965177896,
                  "rating": 8.6
            },
            {
                  "distance": 422,
                  "location": {
                        "address": "7349 Saint Hubert Rue",
                        "country": "CA",
                        "cross_street": "",
                        "formatted_address": "7349 Saint Hubert Rue, Montr\u00e9al QC H2R 2N4",
                        "locality": "Montreal",
                        "postcode": "H2R 2N4",
                        "region": "QC"
                  },
                  "name": "Mr. Azteca",
                  "popularity": 0.9330762679788039,
                  "price": 1,
                  "rating": 8.5
            },
            {
                  "distance": 837,
                  "location": {
                        "address": "709B Jarry Rue E",
                        "country": "CA",
                        "cross_street": "",
                        "formatted_address": "709B Jarry Rue E, Montr\u00e9al QC H2P 1W2",
                        "locality": "Montreal",
                        "postcode": "H2P 1W2",
                        "region": "QC"
                  },
                  "name": "Baristello & Co",
                  "popularity": 0.9224664080242241,
                  "price": 1,
                  "rating": 8.3
            },
            {
                  "distance": 744,
                  "location": {
                        "address": "8100 Saint-Denis Rue",
                        "country": "CA",
                        "cross_street": "Jarry",
                        "formatted_address": "8100 Saint-Denis Rue (Jarry), Montr\u00e9al QC H2P 2G6",
                        "locality": "Montreal",
                        "postcode": "H2P 2G6",
                        "region": "QC"
                  },
                  "name": "Etoh Brasserie",
                  "popularity": 0.9779759651778955,
                  "price": 2,
                  "rating": 8.2
            },
            {
                  "distance": 913,
                  "location": {
                        "address": "6827 St-Dominique Rue",
                        "country": "CA",
                        "cross_street": "Dante",
                        "formatted_address": "6827 St-Dominique Rue (Dante), Montr\u00e9al QC H2S 3B1",
                        "locality": "Montreal",
                        "postcode": "H2S 3B1",
                        "region": "QC"
                  },
                  "name": "Pizzeria Gema",
                  "popularity": 0.9067586109008327,
                  "price": 2,
                  "rating": 7.9
            },
            {
                  "distance": 754,
                  "location": {
                        "address": "405 Jarry Rue E",
                        "country": "CA",
                        "cross_street": "coin St-Denis",
                        "formatted_address": "405 Jarry Rue E (coin St-Denis), Montr\u00e9al QC H2P 1V2",
                        "locality": "Montreal",
                        "postcode": "H2P 1V2",
                        "region": "QC"
                  },
                  "name": "Caf\u00e9 Larue et Fils Inc",
                  "popularity": 0.9481571725965178,
                  "price": 1,
                  "rating": 7.9
            },
            {
                  "distance": 862,
                  "location": {
                        "address": "189 Dante Rue",
                        "country": "CA",
                        "cross_street": "coin De Gasp\u00e9",
                        "formatted_address": "189 Dante Rue (coin De Gasp\u00e9), Montr\u00e9al QC H2S 1K1",
                        "locality": "Montreal",
                        "postcode": "H2S 1K1",
                        "region": "QC"
                  },
                  "name": "Pizzeria Napoletana",
                  "popularity": 0.9475775927327782,
                  "price": 1,
                  "rating": 7.9
            },
            {
                  "distance": 913,
                  "location": {
                        "address": "48 Dante Rue",
                        "country": "CA",
                        "cross_street": "St-Dominique",
                        "formatted_address": "48 Dante Rue (St-Dominique), Montr\u00e9al QC H2S 1J5",
                        "locality": "Montreal",
                        "postcode": "H2S 1J5",
                        "region": "QC"
                  },
                  "name": "Impasto",
                  "popularity": 0.8786075889477668,
                  "price": 2,
                  "rating": 7.8
            },
            {
                  "distance": 765,
                  "location": {
                        "address": "300 Jarry Rue E",
                        "country": "CA",
                        "cross_street": "",
                        "formatted_address": "300 Jarry Rue E, Montr\u00e9al QC H2P 1T7",
                        "locality": "Montreal",
                        "postcode": "H2P 1T7",
                        "region": "QC"
                  },
                  "name": "Pho Ong Rau",
                  "popularity": 0.9140329295987888,
                  "price": 2,
                  "rating": 7.8
            },
            {
                  "distance": 884,
                  "location": {
                        "address": "7335 Rue du Mile-End",
                        "country": "CA",
                        "cross_street": "Rue de Castelnau",
                        "formatted_address": "7335 Rue du Mile-End (Rue de Castelnau), Montr\u00e9al QC H2R 2Z7",
                        "locality": "Montreal",
                        "postcode": "H2R 2Z7",
                        "region": "QC"
                  },
                  "name": "Caf\u00e9 St-Henri HQ",
                  "popularity": 0.9647993943981832,
                  "price": 1,
                  "rating": 7.7
            },
            {
                  "distance": 794,
                  "location": {
                        "address": "615 Jarry Rue E",
                        "country": "CA",
                        "formatted_address": "615 Jarry Rue E, Montr\u00e9al QC H2P 1V8",
                        "locality": "Montreal",
                        "postcode": "H2P 1V8",
                        "region": "QC"
                  },
                  "name": "Restaurant Da Lillo",
                  "popularity": 0.9266180923542771,
                  "price": 2,
                  "rating": 7.5
            },
            {
                  "distance": 135,
                  "location": {
                        "address": "519 Faillon Rue E",
                        "country": "CA",
                        "formatted_address": "519 Faillon Rue E, Montr\u00e9al QC H2R 1L6",
                        "locality": "Montreal",
                        "postcode": "H2R 1L6",
                        "region": "QC"
                  },
                  "name": "Daou Restaurant",
                  "popularity": 0.9034112414837244,
                  "price": 2,
                  "rating": 7.5
            },
            {
                  "distance": 282,
                  "location": {
                        "address": "220 Villeray Rue",
                        "country": "CA",
                        "cross_street": "coin Henri-Julien",
                        "formatted_address": "220 Villeray Rue (coin Henri-Julien), Montr\u00e9al QC H2R 1G5",
                        "locality": "Montreal",
                        "postcode": "H2R 1G5",
                        "region": "QC"
                  },
                  "name": "Miss Villeray",
                  "popularity": 0.9195448523845572,
                  "price": 2,
                  "rating": 7.4
            },
            {
                  "distance": 484,
                  "location": {
                        "address": "414 Jean-Talon Rue E",
                        "country": "CA",
                        "cross_street": "Saint-Denis",
                        "formatted_address": "414 Jean-Talon Rue E (Saint-Denis), Montr\u00e9al QC H2R 1T5",
                        "locality": "Montreal",
                        "postcode": "H2R 1T5",
                        "region": "QC"
                  },
                  "name": "Ligne Rouge Souvlaki",
                  "popularity": 0.9433904239212718,
                  "price": 1,
                  "rating": 7.3
            },
            {
                  "distance": 876,
                  "location": {
                        "address": "184 Dante Rue",
                        "country": "CA",
                        "cross_street": "btwn Ave. du Gasp\u00e9 & Ave. Casgrain",
                        "formatted_address": "184 Dante Rue (btwn Ave. du Gasp\u00e9 & Ave. Casgrain), Montr\u00e9al QC H2S 1J9",
                        "locality": "Montreal",
                        "postcode": "H2S 1J9",
                        "region": "QC"
                  },
                  "name": "Cafe Concad-Oro",
                  "popularity": 0.9124242997728993,
                  "price": 1,
                  "rating": 6.7
            },
            {
                  "distance": 756,
                  "location": {
                        "address": "552 Jarry Rue E",
                        "country": "CA",
                        "cross_street": "coin Lajeunesse",
                        "formatted_address": "552 Jarry Rue E (coin Lajeunesse), Montr\u00e9al QC H2P 1V5",
                        "locality": "Montreal",
                        "postcode": "H2P 1V5",
                        "region": "QC"
                  },
                  "name": "Taverne Jarry",
                  "popularity": 0.8387940007570023,
                  "price": 2,
                  "rating": 6.7
            },
            {
                  "distance": 458,
                  "location": {
                        "address": "323 Jean-Talon Rue E",
                        "country": "CA",
                        "cross_street": "entre Drolet & Henri-Julien",
                        "formatted_address": "323 Jean-Talon Rue E (entre Drolet & Henri-Julien), Montr\u00e9al QC H2R 1T2",
                        "locality": "Montreal",
                        "postcode": "H2R 1T2",
                        "region": "QC"
                  },
                  "name": "Tim Hortons",
                  "popularity": 0.9721683383800152,
                  "price": 1,
                  "rating": 6.6
            },
            {
                  "distance": 660,
                  "location": {
                        "address": "236 Pl du Marche du Nord",
                        "country": "CA",
                        "cross_street": "",
                        "formatted_address": "236 Pl du Marche du Nord, Montr\u00e9al QC H2S 1A1",
                        "locality": "Montreal",
                        "postcode": "H2S 1A1",
                        "region": "QC"
                  },
                  "name": "Le Caf\u00e9 du March\u00e9",
                  "popularity": 0.9081306775170326,
                  "price": 1,
                  "rating": 6.6
            },
            {
                  "distance": 480,
                  "location": {
                        "address": "7275 Saint Laurent Blvd",
                        "country": "CA",
                        "cross_street": "coin De Castelnau",
                        "formatted_address": "7275 Saint Laurent Blvd (coin De Castelnau), Montr\u00e9al QC H2R 1W5",
                        "locality": "Montreal",
                        "postcode": "H2R 1W5",
                        "region": "QC"
                  },
                  "name": "McDonald's",
                  "popularity": 0.9951504542013626,
                  "price": 1,
                  "rating": 4.8,
                  "store_id": "7956"
            },
            {
                  "distance": 81,
                  "location": {
                        "address": "426 Faillon Rue E",
                        "country": "CA",
                        "cross_street": "Berri",
                        "formatted_address": "426 Faillon Rue E (Berri), Montr\u00e9al QC H2R 1L4",
                        "locality": "Montreal",
                        "postcode": "H2R 1L4",
                        "region": "QC"
                  },
                  "name": "Caf\u00e9 Coquetel",
                  "popularity": 0.9526873580620742,
                  "price": 1
            },
            {
                  "distance": 432,
                  "location": {
                        "address": "7614 Saint-Hubert Rue",
                        "country": "CA",
                        "cross_street": "",
                        "formatted_address": "7614 Saint-Hubert Rue, Montr\u00e9al QC H2R 2N6",
                        "locality": "Montreal",
                        "postcode": "H2R 2N6",
                        "region": "QC"
                  },
                  "name": "Pizzellicoq Restaurant",
                  "popularity": 0.8172076078728236,
                  "price": 2
            },
            {
                  "distance": 460,
                  "location": {
                        "address": "7245 Saint-Hubert Rue",
                        "country": "CA",
                        "cross_street": "",
                        "formatted_address": "7245 Saint-Hubert Rue, Montr\u00e9al QC H2R 2N2",
                        "locality": "Montreal",
                        "postcode": "H2R 2N2",
                        "region": "QC"
                  },
                  "name": "Restaurant Pachamama",
                  "popularity": 0.9621025738077215,
                  "price": 2
            },
            {
                  "distance": 483,
                  "location": {
                        "address": "7217 Saint-Hubert Rue",
                        "country": "CA",
                        "cross_street": "De Castelnau",
                        "formatted_address": "7217 Saint-Hubert Rue (De Castelnau), Montr\u00e9al QC H2R 2N2",
                        "locality": "Montreal",
                        "postcode": "H2R 2N2",
                        "region": "QC"
                  },
                  "name": "Les Importations Eche",
                  "popularity": 0.9637585162755489,
                  "price": 1
            },
            {
                  "distance": 492,
                  "location": {
                        "address": "360 Jean-Talon Rue E",
                        "country": "CA",
                        "cross_street": "",
                        "formatted_address": "360 Jean-Talon Rue E, Montr\u00e9al QC H2R 1T3",
                        "locality": "Montreal",
                        "postcode": "H2R 1T3",
                        "region": "QC"
                  },
                  "name": "PHO Jean-Talon",
                  "popularity": 0.9650714420893263,
                  "price": 2
            },
            {
                  "distance": 527,
                  "location": {
                        "address": "7016 Casgrain Ave",
                        "country": "CA",
                        "formatted_address": "7016 Casgrain Ave, Montr\u00e9al QC H2S 3A2",
                        "locality": "Montreal",
                        "postcode": "H2S 3A2",
                        "region": "QC"
                  },
                  "name": "Tortilleria Maya",
                  "popularity": 0.6933904239212718
            },
            {
                  "distance": 537,
                  "location": {
                        "address": "7093 Saint-Denis Rue",
                        "country": "CA",
                        "cross_street": "Jean-Talon",
                        "formatted_address": "7093 Saint-Denis Rue (Jean-Talon), Montr\u00e9al QC H2S 2S5",
                        "locality": "Montreal",
                        "postcode": "H2S 2S5",
                        "region": "QC"
                  },
                  "name": "Thaison 1997",
                  "popularity": 0.8101461960635882,
                  "price": 2
            }
      ],
      "context": {
            "geo_bounds": {
                  "circle": {
                        "center": {
                              "latitude": 45.53989085,
                              "longitude": -73.62026989
                        },
                        "radius": 1000
                  }
            }
      }
}