{
      "results": [
            {
                  "distance": 500,
                  "location": {
                        "address": "6128 Ave de Monkland",
                        "country": "CA",
                        "cross_street": "Beaconsfield",
                        "formatted_address": "6128 Ave de Monkland (Beaconsfield), Montr\u00e9al QC H4A 1H4",
                        "locality": "Montreal",
                        "postcode": "H4A 1H4",
                        "region": "QC"
                  },
                  "name": "Caf\u00e9 de' Mercanti",
                  "popularity": 0.9613573996971991,
                  "price": 1,
                  "rating": 9.1
            },
            {
                  "distance": 838,
                  "location": {
                        "address": "6703 Sherbrooke Rue O",
                        "country": "CA",
                        "cross_street": "Montclair St.",
                        "formatted_address": "6703 Sherbrooke Rue O (Montclair St.), Montr\u00e9al QC H4B 1P3",
                        "locality": "Montreal",
                        "postcode": "H4B 1P3",
                        "region": "QC"
                  },
                  "name": "Cafe 92 Degres",
                  "popularity": 0.9332300340651022,
                  "price": 1,
                  "rating": 8.7
            },
            {
                  "distance": 720,
                  "location": {
                        "address": "5732 Sherbrooke Rue O",
                        "address_extended": "Wilson",
                        "country": "CA",
                        "cross_street": "Wilson",
                        "formatted_address": "5732 Sherbrooke Rue O (Wilson), Montr\u00e9al QC H4A 1W8",
                        "locality": "Montreal",
                        "postcode": "H4A 1W8",
                        "region": "QC"
                  },
                  "name": "Notre Boeuf de Gr\u00e2ce",
                  "popularity": 0.9811459121877366,
                  "price": 1,
                  "rating": 8.7
            },
            {
                  "distance": 904,
                  "location": {
                        "address": "6710 Saint Jacques Rue O",
                        "country": "CA",
                        "formatted_address": "6710 Saint Jacques Rue O, Montr\u00e9al QC H4B 1V8",
                        "locality": "Montreal",
                        "postcode": "H4B 1V8",
                        "region": "QC"
                  },
                  "name": "Eggs Frutti",
                  "popularity": 0.9720618849356548,
                  "price": 1,
                  "rating": 8.2
            },
            {
                  "distance": 144,
                  "location": {
                        "address": "6135 Sherbrooke Rue O",
                        "country": "CA",
                        "cross_street": "Grand Boulevard",
                        "formatted_address": "6135 Sherbrooke Rue O (Grand Boulevard), Montr\u00e9al QC H4A 1Y4",
                        "locality": "Montreal",
                        "postcode": "H4A 1Y4",
                        "region": "QC"
                  },
                  "name": "Dawa",
                  "popularity": 0.9545325510976533,
                  "price": 2,
                  "rating": 8.1
            },
            {
                  "distance": 963,
                  "location": {
                        "address": "5626 Ave de Monkland",
                        "country": "CA",
                        "cross_street": "at av. Marcil",
                        "formatted_address": "5626 Ave de Monkland (at av. Marcil), Montr\u00e9al QC H4A 1E3",
                        "locality": "Montreal",
                        "postcode": "H4A 1E3",
                        "region": "QC"
                  },
                  "name": "Lucille's Oyster Dive",
                  "popularity": 0.9606358819076457,
                  "price": 3,
                  "rating": 8.0
            },
            {
                  "distance": 506,
                  "location": {
                        "address": "6151 Ave de Monkland",
                        "country": "CA",
                        "cross_street": "",
                        "formatted_address": "6151 Ave de Monkland, Montr\u00e9al QC H4B 1G3",
                        "locality": "Montreal",
                        "postcode": "H4B 1G3",
                        "region": "QC"
                  },
                  "name": "La Meunerie Urbaine",
                  "popularity": 0.9667155563966692,
                  "price": 1,
                  "rating": 7.8
            },
            {
                  "distance": 506,
                  "location": {
                        "address": "5860 Sherbrooke Rue W",
                        "country": "CA",
                        "cross_street": "btwn Regent & Clifton",
                        "formatted_address": "5860 Sherbrooke Rue W (btwn Regent & Clifton), Montr\u00e9al QC H4A 1X5",
                        "locality": "Montreal",
                        "postcode": "H4A 1X5",
                        "region": "QC"
                  },
                  "name": "Star of India",
                  "popularity": 0.8855507191521574,
                  "price": 2,
                  "rating": 7.6
            },
            {
                  "distance": 508,
                  "location": {
                        "address": "3373 Cavendish Blvd",
                        "country": "CA",
                        "cross_street": "",
                        "formatted_address": "3373 Cavendish Blvd, Montr\u00e9al QC H4B 2L7",
                        "locality": "Montreal",
                        "postcode": "H4B 2L7",
                        "region": "QC"
                  },
                  "name": "The Wheel Club",
                  "popularity": 0.9835943414080243,
                  "rating": 7.5
            },
            {
                  "distance": 227,
                  "location": {
                        "address": "6079 Sherbrooke Rue O",
                        "country": "CA",
                        "formatted_address": "6079 Sherbrooke Rue O, Montr\u00e9al QC H4A 1Y2",
                        "locality": "Montreal",
                        "postcode": "H4A 1Y2",
                        "region": "QC"
                  },
                  "name": "Ganges Restaurant",
                  "popularity": 0.866377271006813,
                  "price": 2,
                  "rating": 7.3
            },
            {
                  "distance": 777,
                  "location": {
                        "address": "5766 Ave de Monkland",
                        "country": "CA",
                        "cross_street": "",
                        "formatted_address": "5766 Ave de Monkland, Montr\u00e9al QC H4A 1E9",
                        "locality": "Montreal",
                        "postcode": "H4A 1E9",
                        "region": "QC"
                  },
                  "name": "Gia Ba",
                  "popularity": 0.8727763058289175,
                  "rating": 7.3
            },
            {
                  "distance": 507,
                  "location": {
                        "address": "6127 Ave de Monkland",
                        "country": "CA",
                        "cross_street": "",
                        "formatted_address": "6127 Ave de Monkland, Montr\u00e9al QC H4A 1H5",
                        "locality": "Montreal",
                        "postcode": "H4A 1H5",
                        "region": "QC"
                  },
                  "name": "Bistro Amerigo",
                  "popularity": 0.9265944360333082,
                  "rating": 7.3
            },
            {
                  "distance": 432,
                  "location": {
                        "address": "5916 Sherbrooke Rue O",
                        "country": "CA",
                        "cross_street": "",
                        "formatted_address": "5916 Sherbrooke Rue O, Montr\u00e9al QC H4A 1X7",
                        "locality": "Montreal",
                        "postcode": "H4A 1X7",
                        "region": "QC"
                  },
                  "name": "Honey Martin",
                  "popularity": 0.9609670704012112,
                  "price": 1,
                  "rating": 6.8
            },
            {
                  "distance": 507,
                  "location": {
                        "address": "6495 St Jacques Rue",
                        "country": "CA",
                        "cross_street": "Cavendish",
                        "formatted_address": "6495 St Jacques Rue (Cavendish), Montr\u00e9al QC H4B 1V1",
                        "locality": "Montreal",
                        "postcode": "H4B 1V1",
                        "region": "QC"
                  },
                  "name": "Tim Hortons",
                  "popularity": 0.9952923921271764,
                  "price": 1,
                  "rating": 6.3
            },
            {
                  "distance": 302,
                  "location": {
                        "address": "6390 Sherbrooke Rue O",
                        "country": "CA",
                        "cross_street": "",
                        "formatted_address": "6390 Sherbrooke Rue O, Montr\u00e9al QC H4B 1M9",
                        "locality": "Montreal",
                        "postcode": "H4B 1M9",
                        "region": "QC"
                  },
                  "name": "Pizza Pizza",
                  "popularity": 0.9750189250567751,
                  "price": 1,
                  "rating": 6.3,
                  "store_id": "302"
            },
            {
                  "distance": 789,
                  "location": {
                        "address": "5752 Ave de Monkland",
                        "country": "CA",
                        "cross_street": "coin Wilson",
                        "formatted_address": "5752 Ave de Monkland (coin Wilson), Montr\u00e9al QC H4A 1E9",
                        "locality": "Montreal",
                        "postcode": "H4A 1E9",
                        "region": "QC"
                  },
                  "name": "Typhoon Lounge",
                  "popularity": 0.9507830242240727,
                  "price": 2,
                  "rating": 6.0
            },
            {
                  "distance": 674,
                  "location": {
                        "address": "6180 Saint-Jacques Rue",
                        "country": "CA",
                        "formatted_address": "6180 Saint-Jacques Rue, Montr\u00e9al QC H4B 1T6",
                        "locality": "Montreal",
                        "postcode": "H4B 1T6",
                        "region": "QC"
                  },
                  "name": "Restaurant Shabu Shabu",
                  "popularity": 0.9392623959121877,
                  "price": 2,
                  "rating": 5.9
            },
            {
                  "distance": 811,
                  "location": {
                        "address": "5737 Ave de Monkland",
                        "country": "CA",
                        "cross_street": "Avenue Wilson",
                        "formatted_address": "5737 Ave de Monkland (Avenue Wilson), Montr\u00e9al QC H4A 1E7",
                        "locality": "Montreal",
                        "postcode": "H4A 1E7",
                        "region": "QC"
                  },
                  "name": "Le Petit Tokebi",
                  "popularity": 0.9233416919000756,
                  "price": 2,
                  "rating": 5.8
            },
            {
                  "distance": 244,
                  "location": {
                        "address": "6365 Sherbrooke Rue O",
                        "country": "CA",
                        "cross_street": "",
                        "formatted_address": "6365 Sherbrooke Rue O, Montreal QC H4B 1N1",
                        "locality": "Montreal",
                        "postcode": "H4B 1N1",
                        "region": "QC"
                  },
                  "name": "Amir",
                  "popularity": 0.929196631339894,
                  "price": 2
            },
            {
                  "distance": 399,
                  "location": {
                        "address": "5942 Sherbrooke Rue O",
                        "address_extended": "Belgrave",
                        "country": "CA",
                        "cross_street": "Belgrave",
                        "formatted_address": "5942 Sherbrooke Rue O (Belgrave), Montr\u00e9al QC H4A 1X7",
                        "locality": "Montreal",
                        "postcode": "H4A 1X7",
                        "region": "QC"
                  },
                  "name": "L'Gros Luxe NDG",
                  "popularity": 0.9426925624526874,
                  "price": 2
            },
            {
                  "distance": 403,
                  "location": {
                        "address": "5899 Sherbrooke Rue O",
                        "country": "CA",
                        "cross_street": "",
                        "formatted_address": "5899 Sherbrooke Rue O, Montr\u00e9al QC H4A 1X6",
                        "locality": "Montreal",
                        "postcode": "H4A 1X6",
                        "region": "QC"
                  },
                  "name": "Crusty's",
                  "popularity": 0.8394090651021953,
                  "price": 1
            },
            {
                  "distance": 421,
                  "location": {
                        "address": "5914 Sherbrooke Rue O",
                        "country": "CA",
                        "cross_street": "rue Clifton",
                        "formatted_address": "5914 Sherbrooke Rue O (rue Clifton), Montreal QC H4A 1X7",
                        "locality": "Montreal",
                        "postcode": "H4A 1X7",
                        "region": "QC"
                  },
                  "name": "Jean's Trinidad Foods",
                  "popularity": 0.7059164458743377,
                  "price": 2
            },
            {
                  "distance": 431,
                  "location": {
                        "address": "5893 Sherbrooke Rue O",
                        "country": "CA",
                        "cross_street": "",
                        "formatted_address": "5893 Sherbrooke Rue O, Montr\u00e9al QC H4A 1X6",
                        "locality": "Montreal",
                        "postcode": "H4A 1X6",
                        "region": "QC"
                  },
                  "name": "East Africa",
                  "popularity": 0.617997728993187,
                  "price": 2
            },
            {
                  "distance": 497,
                  "location": {
                        "address": "3300 Cavendish Blvd",
                        "country": "CA",
                        "formatted_address": "3300 Cavendish Blvd, Montr\u00e9al QC H4B 2M8",
                        "locality": "Montreal",
                        "postcode": "H4B 2M8",
                        "region": "QC"
                  },
                  "name": "Seoul B B Q",
                  "popularity": 0.8914529712339136,
                  "price": 2
            },
            {
                  "distance": 497,
                  "location": {
                        "address": "6112 Ave de Monkland",
                        "country": "CA",
                        "cross_street": "",
                        "formatted_address": "6112 Ave de Monkland, Montr\u00e9al QC H4A 1H4",
                        "locality": "Montreal",
                        "postcode": "H4A 1H4",
                        "region": "QC"
                  },
                  "name": "Gyro Boutique",
                  "popularity": 0.099179125662377,
                  "price": 2
            },
            {
                  "distance": 581,
                  "location": {
                        "address": "5828 Sherbrooke St W",
                        "country": "CA",
                        "cross_street": "",
                        "formatted_address": "5828 Sherbrooke St W, Montr\u00e9al QC H4A 1X3",
                        "locality": "Montreal",
                        "postcode": "H4A 1X3",
                        "region": "QC"
                  },
                  "name": "Babylon",
                  "popularity": 0.9101296366389099,
                  "price": 1
            },
            {
                  "distance": 595,
                  "location": {
                        "address": "5800 Sherbrooke Rue O",
                        "country": "CA",
                        "cross_street": "",
                        "formatted_address": "5800 Sherbrooke Rue O, Montr\u00e9al QC H4A 1X3",
                        "locality": "Montreal",
                        "postcode": "H4A 1X3",
                        "region": "QC"
                  },
                  "name": "Bombay Mahal",
                  "popularity": 0.8857399697199092,
                  "price": 2
            },
            {
                  "distance": 607,
                  "location": {
                        "address": "5791 Sherbrooke Rue O",
                        "country": "CA",
                        "cross_street": "Melrose",
                        "formatted_address": "5791 Sherbrooke Rue O (Melrose), Montr\u00e9al QC H4A 1X2",
                        "locality": "Montreal",
                        "postcode": "H4A 1X2",
                        "region": "QC"
                  },
                  "name": "Cafe Toranj",
                  "popularity": 0.9556325700227101,
                  "price": 1
            },
            {
                  "distance": 655,
                  "location": {
                        "address": "5779 Sherbrooke Rue O",
                        "country": "CA",
                        "cross_street": "",
                        "formatted_address": "5779 Sherbrooke Rue O, Montr\u00e9al QC H4A 1X2",
                        "locality": "Montreal",
                        "postcode": "H4A 1X2",
                        "region": "QC"
                  },
                  "name": "Pizzeria Melrose",
                  "popularity": 0.9676499810749433,
                  "price": 1
            },
            {
                  "distance": 845,
                  "location": {
                        "address": "5700 Ave de Monkland",
                        "country": "CA",
                        "cross_street": "",
                        "formatted_address": "5700 Ave de Monkland, Montr\u00e9al QC H4A 1E6",
                        "locality": "Montreal",
                        "postcode": "H4A 1E6",
                        "region": "QC"
                  },
                  "name": "Hello 123",
                  "popularity": 0.9491980507191522,
                  "price": 2
            },
            {
                  "distance": 920,
                  "location": {
                        "address": "5672 Ave de Monkland",
                        "country": "CA",
                        "cross_street": "",
                        "formatted_address": "5672 Ave de Monkland, Montr\u00e9al QC H4A 1E4",
                        "locality": "Montreal",
                        "postcode": "H4A 1E4",
                        "region": "QC"
                  },
                  "name": "Restaurant Chase",
                  "popularity": 0.7323523845571537,
                  "price": 2
            },
            {
                  "distance": 943,
                  "location": {
                        "address": "5641 Ave de Monkland",
                        "country": "CA",
                        "cross_street": "",
                        "formatted_address": "5641 Ave de Monkland, Montr\u00e9al QC H4A 1E2",
                        "locality": "Montreal",
                        "postcode": "H4A 1E2",
                        "region": "QC"
                  },
                  "name": "\u00d4 Fish",
                  "popularity": 0.41450605601816803,
                  "price": 1
            },
            {
                  "distance": 987,
                  "location": {
                        "address": "6752 St Jacques O",
                        "country": "CA",
                        "cross_street": "",
                        "formatted_address": "6752 St Jacques O, Montr\u00e9al QC",
                        "locality": "Montreal",
                        "region": "QC"
                  },
                  "name": "La Belle Province",
                  "popularity": 0.8788441521574565,
                  "price": 1
            },
            {
                  "distance": 220,
                  "location": {
                        "address": "6087 Sherbrooke Rue O",
                        "country": "CA",
                        "formatted_address": "6087 Sherbrooke Rue O, Montreal QC H4A 1Y2",
                        "locality": "Montreal",
                        "postcode": "H4A 1Y2",
                        "region": "QC"
                  },
                  "name": "Restaurant Greco"
            },
            {
                  "distance": 446,
                  "location": {
                        "address": "5902 Sherbrooke Rue O",
                        "country": "CA",
                        "formatted_address": "5902 Sherbrooke Rue O, Montreal QC H4A 1X7",
                        "locality": "Montreal",
                        "postcode": "H4A 1X7",
                        "region": "QC"
                  },
                  "name": "D Depanneur 7787"
            }
      ],
      "context": {
            "geo_bounds": {
                  "circle": {
                        "center": {
                              "latitude": 45.46670033,
                              "longitude": -73.62355081
                        },
                        "radius": 1000
                  }
            }
      }
}