{
      "results": [
            {
                  "distance": 812,
                  "location": {
                        "address": "1333 Van Horne Ave",
                        "country": "CA",
                        "cross_street": "",
                        "formatted_address": "1333 Van Horne Ave, Montr\u00e9al QC H2V 1K7",
                        "locality": "Montreal",
                        "postcode": "H2V 1K7",
                        "region": "QC"
                  },
                  "name": "Lescurier Tradition Gourmande",
                  "popularity": 0.8525974640423921,
                  "price": 1,
                  "rating": 7.6
            },
            {
                  "distance": 153,
                  "location": {
                        "address": "2049 Edouard Montpetit",
                        "country": "CA",
                        "cross_street": "Vincent D'indy",
                        "formatted_address": "2049 Edouard Montpetit (Vincent D'indy), Montr\u00e9al QC",
                        "locality": "Montreal",
                        "region": "QC"
                  },
                  "name": "Les Navafr\u00e9es",
                  "popularity": 0.9031391937925813,
                  "price": 3
            },
            {
                  "distance": 289,
                  "location": {
                        "address": "9 Vincent d'Indy Ave",
                        "country": "CA",
                        "cross_street": "",
                        "formatted_address": "9 Vincent d'Indy Ave, Montr\u00e9al QC H2V 4N7",
                        "locality": "Montreal",
                        "postcode": "H2V 4N7",
                        "region": "QC"
                  },
                  "name": "Pizza Tifosi Outremont",
                  "popularity": 0.8951788417865254,
                  "price": 1
            },
            {
                  "distance": 67,
                  "location": {
                        "address": "90 Vincent d'Indy Ave",
                        "address_extended": "D-438",
                        "country": "CA",
                        "formatted_address": "90 Vincent d'Indy Ave, Outremont QC",
                        "locality": "Outremont",
                        "region": "QC"
                  },
                  "name": "Le Psychic"
            },
            {
                  "distance": 206,
                  "location": {
                        "address": "2100 Edouard-Montpetit Blvd",
                        "country": "CA",
                        "formatted_address": "2100 Edouard-Montpetit Blvd, Montreal QC H3T 1J4",
                        "locality": "Montreal",
                        "postcode": "H3T 1J4",
                        "region": "QC"
                  },
                  "name": "Caf\u00e9Kine"
            },
            {
                  "distance": 210,
                  "location": {
                        "address": "200 Vincent d'Indy Ave",
                        "country": "CA",
                        "formatted_address": "200 Vincent d'Indy Ave, Montreal QC",
                        "locality": "Montreal",
                        "region": "QC"
                  },
                  "name": "Caf\u00e9 le Triton"
            },
            {
                  "distance": 583,
                  "location": {
                        "address": "2500 Ch de Polytechnique Montr\u00e9al",
                        "country": "CA",
                        "formatted_address": "2500 Ch de Polytechnique Montr\u00e9al, Montreal QC",
                        "locality": "Montreal",
                        "region": "QC"
                  },
                  "name": "J'ai faim POLY MTL"
            },
            {
                  "distance": 583,
                  "location": {
                        "address": "2500 Ch de Polytechnique",
                        "country": "CA",
                        "formatted_address": "2500 Ch de Polytechnique, Montreal QC",
                        "locality": "Montreal",
                        "region": "QC"
                  },
                  "name": "Polybroue"
            },
            {
                  "distance": 845,
                  "location": {
                        "address": "6100 Ave du Boise",
                        "country": "CA",
                        "formatted_address": "6100 Ave du Boise, Montreal QC H3S 2W1",
                        "locality": "Montreal",
                        "postcode": "H3S 2W1",
                        "region": "QC"
                  },
                  "name": "Cafe Morena"
            },
            {
                  "distance": 875,
                  "location": {
                        "address": "779 Rockland Ave",
                        "country": "CA",
                        "formatted_address": "779 Rockland Ave, Outremont QC H2V 2Z7",
                        "locality": "Outremont",
                        "postcode": "H2V 2Z7",
                        "region": "QC"
                  },
                  "name": "Les Vraies Affaires"
            },
            {
                  "distance": 908,
                  "location": {
                        "address": "2662 Ave de Soissons",
                        "country": "CA",
                        "formatted_address": "2662 Ave de Soissons, Montreal QC H3S 1V8",
                        "locality": "Montreal",
                        "postcode": "H3S 1V8",
                        "region": "QC"
                  },
                  "name": "Moist Club"
            },
            {
                  "distance": 951,
                  "location": {
                        "address": "2900 Edouard-Montpetit Blvd",
                        "country": "CA",
                        "formatted_address": "2900 Edouard-Montpetit Blvd, Montreal QC H3T 1J4",
                        "locality": "Montreal",
                        "postcode": "H3T 1J4",
                        "region": "QC"
                  },
                  "name": "Cafe-In"
            },
            {
                  "distance": 989,
                  "location": {
                        "address": "1589 Van Horne Ave",
                        "country": "CA",
                        "formatted_address": "1589 Van Horne Ave, Outremont QC H2V 1L6",
                        "locality": "Outremont",
                        "postcode": "H2V 1L6",
                        "region": "QC"
                  },
                  "name": "BIOBAB Mini March\u00e9"
            }
      ],
      "context": {
            "geo_bounds": {
                  "circle": {
                        "center": {
                              "latitude": 45.5102003,
                              "longitude": -73.61140519
                        },
                        "radius": 1000
                  }
            }
      }
}