{
      "results": [
            {
                  "distance": 972,
                  "location": {
                        "address": "1825 Fleury Rue E",
                        "country": "CA",
                        "cross_street": "",
                        "formatted_address": "1825 Fleury Rue E, Montr\u00e9al QC H2B 1H7",
                        "locality": "Montreal",
                        "postcode": "H2B 1H7",
                        "region": "QC"
                  },
                  "name": "Zagrum",
                  "popularity": 0.8681278387585163,
                  "price": 2,
                  "rating": 8.0
            },
            {
                  "distance": 965,
                  "location": {
                        "address": "10295 Papineau Ave",
                        "country": "CA",
                        "cross_street": "Rue Fleury Est",
                        "formatted_address": "10295 Papineau Ave (Rue Fleury Est), Montr\u00e9al QC H2B 2A1",
                        "locality": "Montreal",
                        "postcode": "H2B 2A1",
                        "region": "QC"
                  },
                  "name": "Broue Pub Brouhaha Papineau",
                  "popularity": 0.9967235995457986,
                  "rating": 7.2
            },
            {
                  "distance": 472,
                  "location": {
                        "address": "9797 Papineau Ave",
                        "country": "CA",
                        "cross_street": "coin Sauv\u00e9",
                        "formatted_address": "9797 Papineau Ave (coin Sauv\u00e9), Montr\u00e9al QC H2B 1Z5",
                        "locality": "Montreal",
                        "postcode": "H2B 1Z5",
                        "region": "QC"
                  },
                  "name": "McDonald's",
                  "popularity": 0.9969128501135504,
                  "price": 1,
                  "rating": 5.1,
                  "store_id": "40167"
            },
            {
                  "distance": 755,
                  "location": {
                        "address": "Desserte Sud Aut 440 Ouest",
                        "country": "CA",
                        "cross_street": "le Carrefour",
                        "formatted_address": "Desserte Sud Aut 440 Ouest (le Carrefour), Laval QC H7T 2H6",
                        "locality": "Laval",
                        "postcode": "H7T 2H6",
                        "region": "QC"
                  },
                  "name": "Broadway Cheesecake Co",
                  "popularity": 0.45649602573807724,
                  "price": 1
            },
            {
                  "distance": 912,
                  "location": {
                        "address": "2050 Fleury Rue E",
                        "country": "CA",
                        "cross_street": "",
                        "formatted_address": "2050 Fleury Rue E, Montr\u00e9al QC H2B 1J3",
                        "locality": "Montreal",
                        "postcode": "H2B 1J3",
                        "region": "QC"
                  },
                  "name": "Restaurant la Piccola",
                  "popularity": 0.9443485049205148,
                  "price": 2
            },
            {
                  "distance": 919,
                  "location": {
                        "address": "2070 Fleury E",
                        "country": "CA",
                        "cross_street": "",
                        "formatted_address": "2070 Fleury E, Montr\u00e9al QC",
                        "locality": "Montreal",
                        "region": "QC"
                  },
                  "name": "Bar Laitier",
                  "popularity": 0.02467354277062831,
                  "price": 1
            },
            {
                  "distance": 924,
                  "location": {
                        "address": "2070A Fleury Rue E",
                        "country": "CA",
                        "cross_street": "",
                        "formatted_address": "2070A Fleury Rue E, Montr\u00e9al QC H2B 1J3",
                        "locality": "Montreal",
                        "postcode": "H2B 1J3",
                        "region": "QC"
                  },
                  "name": "Bar Brewskis",
                  "popularity": 0.8230980317940954,
                  "price": 1
            },
            {
                  "distance": 947,
                  "location": {
                        "address": "2201 Fleury Rue E",
                        "country": "CA",
                        "cross_street": "",
                        "formatted_address": "2201 Fleury Rue E, Montr\u00e9al QC H2B 1K5",
                        "locality": "Montreal",
                        "postcode": "H2B 1K5",
                        "region": "QC"
                  },
                  "name": "Les Deux Copains",
                  "popularity": 0.9913654428463285,
                  "price": 1
            },
            {
                  "distance": 982,
                  "location": {
                        "address": "2237 Fleury Rue E",
                        "country": "CA",
                        "cross_street": "Rue de Martigny",
                        "formatted_address": "2237 Fleury Rue E (Rue de Martigny), Montr\u00e9al QC H2B 1K5",
                        "locality": "Montreal",
                        "postcode": "H2B 1K5",
                        "region": "QC"
                  },
                  "name": "Le Jardin des Puits",
                  "popularity": 0.8476414647993944,
                  "price": 2
            },
            {
                  "distance": 997,
                  "location": {
                        "address": "1420 Legendre Rue E",
                        "country": "CA",
                        "cross_street": "Andre-Grasset",
                        "formatted_address": "1420 Legendre Rue E (Andre-Grasset), Montr\u00e9al QC H2M 1H5",
                        "locality": "Montreal",
                        "postcode": "H2M 1H5",
                        "region": "QC"
                  },
                  "name": "Petit Nguyen",
                  "popularity": 0.966514477668433,
                  "price": 2
            },
            {
                  "distance": 325,
                  "location": {
                        "address": "2275 Charland Ave",
                        "country": "CA",
                        "formatted_address": "2275 Charland Ave, Montreal QC H1Z 1B5",
                        "locality": "Montreal",
                        "postcode": "H1Z 1B5",
                        "region": "QC"
                  },
                  "name": "Boulangerie et Patisserie Romina"
            },
            {
                  "distance": 381,
                  "location": {
                        "address": "2330 Charland Ave",
                        "country": "CA",
                        "formatted_address": "2330 Charland Ave, Montreal QC H1Z 1B7",
                        "locality": "Montreal",
                        "postcode": "H1Z 1B7",
                        "region": "QC"
                  },
                  "name": "Restaurant Chez Ti-Blanc"
            },
            {
                  "distance": 393,
                  "location": {
                        "address": "2347 Charland Ave",
                        "country": "CA",
                        "formatted_address": "2347 Charland Ave, Montreal QC H1Z 1B8",
                        "locality": "Montreal",
                        "postcode": "H1Z 1B8",
                        "region": "QC"
                  },
                  "name": "Restaurant Cafe Bistro"
            },
            {
                  "distance": 407,
                  "location": {
                        "address": "2347 Charland Ave",
                        "country": "CA",
                        "formatted_address": "2347 Charland Ave, Montreal QC H1Z 1B8",
                        "locality": "Montreal",
                        "postcode": "H1Z 1B8",
                        "region": "QC"
                  },
                  "name": "Cafe Bistro"
            },
            {
                  "distance": 414,
                  "location": {
                        "address": "2347 Charland Ave",
                        "country": "CA",
                        "formatted_address": "2347 Charland Ave, Montreal QC H1Z 1B8",
                        "locality": "Montreal",
                        "postcode": "H1Z 1B8",
                        "region": "QC"
                  },
                  "name": "Cafe Bistro Charland"
            },
            {
                  "distance": 557,
                  "location": {
                        "address": "1799 Sauve Rue E",
                        "country": "CA",
                        "formatted_address": "1799 Sauve Rue E, Montreal QC H2C 3H2",
                        "locality": "Montreal",
                        "postcode": "H2C 3H2",
                        "region": "QC"
                  },
                  "name": "Restaurant Dag"
            },
            {
                  "distance": 587,
                  "location": {
                        "address": "2430 Sauve Rue E",
                        "country": "CA",
                        "formatted_address": "2430 Sauve Rue E, Montreal QC H2B 1B7",
                        "locality": "Montreal",
                        "postcode": "H2B 1B7",
                        "region": "QC"
                  },
                  "name": "Cremerie Douceur d Ete"
            },
            {
                  "distance": 635,
                  "location": {
                        "address": "9237 d'Iberville Rue",
                        "country": "CA",
                        "formatted_address": "9237 d'Iberville Rue, Montreal QC H1Z 2R3",
                        "locality": "Montreal",
                        "postcode": "H1Z 2R3",
                        "region": "QC"
                  },
                  "name": "Resto Bar Patchek"
            },
            {
                  "distance": 851,
                  "location": {
                        "address": "9099 d'Iberville Rue",
                        "country": "CA",
                        "formatted_address": "9099 d'Iberville Rue, Montreal QC H1Z 2R2",
                        "locality": "Montreal",
                        "postcode": "H1Z 2R2",
                        "region": "QC"
                  },
                  "name": "Boulangerie Island Organix"
            },
            {
                  "distance": 887,
                  "location": {
                        "address": "2720 Legendre Rue E",
                        "country": "CA",
                        "formatted_address": "2720 Legendre Rue E, Montreal QC H1Z 1N4",
                        "locality": "Montreal",
                        "postcode": "H1Z 1N4",
                        "region": "QC"
                  },
                  "name": "Produits Maia"
            },
            {
                  "distance": 902,
                  "location": {
                        "address": "2790 Charland Ave",
                        "country": "CA",
                        "formatted_address": "2790 Charland Ave, Montreal QC H1Z 1C9",
                        "locality": "Montreal",
                        "postcode": "H1Z 1C9",
                        "region": "QC"
                  },
                  "name": "Cafe Larose"
            },
            {
                  "distance": 940,
                  "location": {
                        "address": "2151 Fleury Rue E",
                        "country": "CA",
                        "formatted_address": "2151 Fleury Rue E, Montreal QC H2B 1J9",
                        "locality": "Montreal",
                        "postcode": "H2B 1J9",
                        "region": "QC"
                  },
                  "name": "Pasta Pizza"
            },
            {
                  "distance": 946,
                  "location": {
                        "address": "2260 Fleury Rue E",
                        "country": "CA",
                        "formatted_address": "2260 Fleury Rue E, Montreal QC H2B 1K6",
                        "locality": "Montreal",
                        "postcode": "H2B 1K6",
                        "region": "QC"
                  },
                  "name": "Resto-Pizzeria DZ Taouk"
            },
            {
                  "distance": 949,
                  "location": {
                        "address": "2260 Fleury Rue E",
                        "country": "CA",
                        "formatted_address": "2260 Fleury Rue E, Montreal QC H2B 1K6",
                        "locality": "Montreal",
                        "postcode": "H2B 1K6",
                        "region": "QC"
                  },
                  "name": "Resto Bistro l'Antidote"
            },
            {
                  "distance": 951,
                  "location": {
                        "address": "2179 Fleury Rue E",
                        "country": "CA",
                        "formatted_address": "2179 Fleury Rue E, Montreal QC H2B 1J9",
                        "locality": "Montreal",
                        "postcode": "H2B 1J9",
                        "region": "QC"
                  },
                  "name": "Resto-Bar Gelbison"
            }
      ],
      "context": {
            "geo_bounds": {
                  "circle": {
                        "center": {
                              "latitude": 45.56686935,
                              "longitude": -73.64101678
                        },
                        "radius": 1000
                  }
            }
      }
}