{
      "results": [
            {
                  "distance": 631,
                  "location": {
                        "address": "9530 Blvd de l'Acadie",
                        "country": "CA",
                        "cross_street": "",
                        "formatted_address": "9530 Blvd de l'Acadie, Montr\u00e9al QC H4N 1L8",
                        "locality": "Montreal",
                        "postcode": "H4N 1L8",
                        "region": "QC"
                  },
                  "name": "Restaurant Nostos Souvlaki",
                  "popularity": 0.9973031794095383,
                  "price": 2,
                  "rating": 9.0
            },
            {
                  "distance": 32,
                  "location": {
                        "address": "9299 Ave du Parc",
                        "country": "CA",
                        "cross_street": "Chabanel",
                        "formatted_address": "9299 Ave du Parc (Chabanel), Montr\u00e9al QC H2N 2A2",
                        "locality": "Montreal",
                        "postcode": "H2N 2A2",
                        "region": "QC"
                  },
                  "name": "Gentile Bar",
                  "popularity": 0.9411194171082513,
                  "price": 2,
                  "rating": 8.6
            },
            {
                  "distance": 601,
                  "location": {
                        "address": "9460 Blvd de l'Acadie",
                        "country": "CA",
                        "cross_street": "",
                        "formatted_address": "9460 Blvd de l'Acadie, Montr\u00e9al QC H4N 1L7",
                        "locality": "Montreal",
                        "postcode": "H4N 1L7",
                        "region": "QC"
                  },
                  "name": "Pho Mymy",
                  "popularity": 0.9762845382286147,
                  "price": 2,
                  "rating": 7.7
            },
            {
                  "distance": 807,
                  "location": {
                        "address": "9705 De. l'Acadie Blvd",
                        "country": "CA",
                        "cross_street": "Boul Sauv\u00e9",
                        "formatted_address": "9705 De. l'Acadie Blvd (Boul Sauv\u00e9), Montr\u00e9al QC H4N 2W2",
                        "locality": "Montreal",
                        "postcode": "H4N 2W2",
                        "region": "QC"
                  },
                  "name": "Patisserie Mahrouse",
                  "popularity": 0.9907030658591975,
                  "rating": 7.6
            },
            {
                  "distance": 860,
                  "location": {
                        "address": "9835 Blvd de l'Acadie",
                        "country": "CA",
                        "cross_street": "",
                        "formatted_address": "9835 Blvd de l'Acadie, Montr\u00e9al QC H4N 2W2",
                        "locality": "Montreal",
                        "postcode": "H4N 2W2",
                        "region": "QC"
                  },
                  "name": "Mikasa Sushi Bar",
                  "popularity": 0.9356074943224829,
                  "price": 2,
                  "rating": 7.6
            },
            {
                  "distance": 616,
                  "location": {
                        "address": "1000 Legendre Rue O",
                        "country": "CA",
                        "formatted_address": "1000 Legendre Rue O, Montr\u00e9al QC H4N 3L9",
                        "locality": "Montreal",
                        "postcode": "H4N 3L9",
                        "region": "QC"
                  },
                  "name": "Tim Hortons",
                  "popularity": 0.9945353898561695,
                  "price": 1,
                  "rating": 6.8
            },
            {
                  "distance": 649,
                  "location": {
                        "address": "9258 Blvd de l'Acadie",
                        "country": "CA",
                        "cross_street": "",
                        "formatted_address": "9258 Blvd de l'Acadie, Montr\u00e9al QC H4N 3C5",
                        "locality": "Montreal",
                        "postcode": "H4N 3C5",
                        "region": "QC"
                  },
                  "name": "New Mondo Caf\u00e9",
                  "popularity": 0.9513389477668432,
                  "price": 1,
                  "rating": 6.8
            },
            {
                  "distance": 598,
                  "location": {
                        "address": "9394 Blvd de l'Acadie Local 102",
                        "country": "CA",
                        "cross_street": "",
                        "formatted_address": "9394 Blvd de l'Acadie Local 102, Montreal QC H4N 3H1",
                        "locality": "Montreal",
                        "postcode": "H4N 3H1",
                        "region": "QC"
                  },
                  "name": "Restaurant Shish-Kebab",
                  "popularity": 0.8341100492051476,
                  "price": 2,
                  "rating": 6.7
            },
            {
                  "distance": 894,
                  "location": {
                        "address": "9720 St Laurent Blvd",
                        "country": "CA",
                        "cross_street": "Port-Royal",
                        "formatted_address": "9720 St Laurent Blvd (Port-Royal), Montr\u00e9al QC H3L 2N3",
                        "locality": "Montreal",
                        "postcode": "H3L 2N3",
                        "region": "QC"
                  },
                  "name": "Subway",
                  "popularity": 0.9250212906888721,
                  "price": 1,
                  "rating": 6.6,
                  "store_id": "Restaurant #29723"
            },
            {
                  "distance": 584,
                  "location": {
                        "address": "9394 Blvd de l'Acadie",
                        "country": "CA",
                        "cross_street": "",
                        "formatted_address": "9394 Blvd de l'Acadie, Montr\u00e9al QC H4N 3H1",
                        "locality": "Montreal",
                        "postcode": "H4N 3H1",
                        "region": "QC"
                  },
                  "name": "Foo Lam Restaurant Maison",
                  "popularity": 0.9838072482967449,
                  "price": 1,
                  "rating": 6.5
            },
            {
                  "distance": 605,
                  "location": {
                        "address": "9450 Blvd de l'Acadie",
                        "country": "CA",
                        "cross_street": "",
                        "formatted_address": "9450 Blvd de l'Acadie, Montr\u00e9al QC H4N 1L7",
                        "locality": "Montreal",
                        "postcode": "H4N 1L7",
                        "region": "QC"
                  },
                  "name": "Subway",
                  "popularity": 0.8625804314912945,
                  "price": 1,
                  "rating": 6.4,
                  "store_id": "43030"
            },
            {
                  "distance": 568,
                  "location": {
                        "address": "1021 F Rue du March\u00e9 Central",
                        "country": "CA",
                        "cross_street": "",
                        "formatted_address": "1021 F Rue du March\u00e9 Central, Montr\u00e9al QC H4N 1J8",
                        "locality": "Montreal",
                        "postcode": "H4N 1J8",
                        "region": "QC"
                  },
                  "name": "McDonald's",
                  "popularity": 0.9921461014383043,
                  "price": 1,
                  "rating": 6.3
            },
            {
                  "distance": 955,
                  "location": {
                        "address": "1805 Sauve Rue O",
                        "address_extended": "Suite 101",
                        "country": "CA",
                        "cross_street": "",
                        "formatted_address": "1805 Sauve Rue O, Montr\u00e9al QC H4N 3B8",
                        "locality": "Montreal",
                        "postcode": "H4N 3B8",
                        "region": "QC"
                  },
                  "name": "Solemer",
                  "popularity": 0.9202072293716881,
                  "price": 3,
                  "rating": 6.2
            },
            {
                  "distance": 573,
                  "location": {
                        "address": "1023 Rue du March\u00e9 Central",
                        "address_extended": "March\u00e9 Central",
                        "country": "CA",
                        "cross_street": "",
                        "formatted_address": "1023 Rue du March\u00e9 Central, Montr\u00e9al QC H4N 1J8",
                        "locality": "Montreal",
                        "postcode": "H4N 1J8",
                        "region": "QC"
                  },
                  "name": "Thai Express",
                  "popularity": 0.9873556964420893,
                  "price": 2,
                  "rating": 6.2,
                  "store_id": "16"
            },
            {
                  "distance": 909,
                  "location": {
                        "address": "9901 Blvd de l'Acadie",
                        "country": "CA",
                        "cross_street": "",
                        "formatted_address": "9901 Blvd de l'Acadie, Montr\u00e9al QC H4N 3K3",
                        "locality": "Montreal",
                        "postcode": "H4N 3K3",
                        "region": "QC"
                  },
                  "name": "A&W Restaurant",
                  "popularity": 0.9576078728236185,
                  "price": 1,
                  "rating": 6.2,
                  "store_id": "5507"
            },
            {
                  "distance": 85,
                  "location": {
                        "address": "433 Chabanel Rue O",
                        "address_extended": "# 102",
                        "country": "CA",
                        "formatted_address": "433 Chabanel Rue O, Montr\u00e9al QC H2N 2J4",
                        "locality": "Montreal",
                        "postcode": "H2N 2J4",
                        "region": "QC"
                  },
                  "name": "La Prep",
                  "popularity": 0.9830147615442847,
                  "price": 1,
                  "rating": 6.1
            },
            {
                  "distance": 590,
                  "location": {
                        "address": "9394 Blvd de l'Acadie",
                        "address_extended": "Suite 101",
                        "country": "CA",
                        "cross_street": "",
                        "formatted_address": "9394 Blvd de l'Acadie, Montr\u00e9al QC H4N 3H1",
                        "locality": "Montreal",
                        "postcode": "H4N 3H1",
                        "region": "QC"
                  },
                  "name": "Chez Cora",
                  "popularity": 0.9583767032551098,
                  "price": 1,
                  "rating": 6.1
            },
            {
                  "distance": 800,
                  "location": {
                        "address": "255 Cremazie Blvd O",
                        "country": "CA",
                        "formatted_address": "255 Cremazie Blvd O, Montr\u00e9al QC H2N 1L8",
                        "locality": "Montreal",
                        "postcode": "H2N 1L8",
                        "region": "QC"
                  },
                  "name": "Harvey's",
                  "popularity": 0.9109576078728236,
                  "price": 2,
                  "rating": 6.1,
                  "store_id": "2263"
            },
            {
                  "distance": 613,
                  "location": {
                        "address": "1010 Legendre Rue O",
                        "country": "CA",
                        "cross_street": "",
                        "formatted_address": "1010 Legendre Rue O, Montr\u00e9al QC H4N 3L9",
                        "locality": "Montreal",
                        "postcode": "H4N 3L9",
                        "region": "QC"
                  },
                  "name": "Dic Ann's",
                  "popularity": 0.9723694171082513,
                  "price": 1,
                  "rating": 6.0
            },
            {
                  "distance": 553,
                  "location": {
                        "address": "1027 Rue du Marche-Central",
                        "country": "CA",
                        "cross_street": "",
                        "formatted_address": "1027 Rue du Marche-Central, Montr\u00e9al QC H4N 1J8",
                        "locality": "Montreal",
                        "postcode": "H4N 1J8",
                        "region": "QC"
                  },
                  "name": "Zouki's",
                  "popularity": 0.9405871498864496,
                  "price": 2,
                  "rating": 5.9
            },
            {
                  "distance": 820,
                  "location": {
                        "address": "931 Cremazie Blvd O",
                        "country": "CA",
                        "formatted_address": "931 Cremazie Blvd O, Montr\u00e9al QC H4N 3M5",
                        "locality": "Montreal",
                        "postcode": "H4N 3M5",
                        "region": "QC"
                  },
                  "name": "Roasters Rotisserie & Bar",
                  "popularity": 0.9552658970476912,
                  "price": 3,
                  "rating": 5.9
            },
            {
                  "distance": 815,
                  "location": {
                        "address": "9485 St Laurent Blvd",
                        "country": "CA",
                        "cross_street": "Chabanel West",
                        "formatted_address": "9485 St Laurent Blvd (Chabanel West), Montr\u00e9al QC H2N 1P6",
                        "locality": "Montreal",
                        "postcode": "H2N 1P6",
                        "region": "QC"
                  },
                  "name": "Tim Hortons",
                  "popularity": 0.9955880961392884,
                  "price": 1,
                  "rating": 5.7
            },
            {
                  "distance": 474,
                  "location": {
                        "address": "1003 rue du March\u00e9-Central",
                        "country": "CA",
                        "cross_street": "in March\u00e9 Central",
                        "formatted_address": "1003 rue du March\u00e9-Central (in March\u00e9 Central), Montr\u00e9al QC H4N 1J8",
                        "locality": "Montreal",
                        "postcode": "H4N 1J8",
                        "region": "QC"
                  },
                  "name": "Presse Cafe",
                  "popularity": 0.8631126987130961,
                  "price": 1,
                  "rating": 5.4
            },
            {
                  "distance": 949,
                  "location": {
                        "address": "115 Cremazie Blvd O",
                        "country": "CA",
                        "cross_street": "entre St-Urbain & De Reims",
                        "formatted_address": "115 Cremazie Blvd O (entre St-Urbain & De Reims), Montr\u00e9al QC H2N 1L4",
                        "locality": "Montreal",
                        "postcode": "H2N 1L4",
                        "region": "QC"
                  },
                  "name": "Tim Hortons",
                  "popularity": 0.9939203255109765,
                  "price": 1,
                  "rating": 5.1
            },
            {
                  "distance": 187,
                  "location": {
                        "address": "304 Chabanel Rue O",
                        "country": "CA",
                        "cross_street": "",
                        "formatted_address": "304 Chabanel Rue O, Montreal QC H2N 1G5",
                        "locality": "Montreal",
                        "postcode": "H2N 1G5",
                        "region": "QC"
                  },
                  "name": "Thai City",
                  "popularity": 0.526435938682816,
                  "price": 2
            },
            {
                  "distance": 542,
                  "location": {
                        "address": "1029 Rue du March\u00e9 Central",
                        "country": "CA",
                        "cross_street": "",
                        "formatted_address": "1029 Rue du March\u00e9 Central, Montr\u00e9al QC H4N 1J8",
                        "locality": "Montreal",
                        "postcode": "H4N 1J8",
                        "region": "QC"
                  },
                  "name": "Mucho Burrito Fresh Mexican Grill",
                  "popularity": 0.9623746214988645,
                  "store_id": "111"
            },
            {
                  "distance": 588,
                  "location": {
                        "address": "9191 Blvd de l'Acadie",
                        "country": "CA",
                        "cross_street": "",
                        "formatted_address": "9191 Blvd de l'Acadie, Montr\u00e9al QC H4N 3K1",
                        "locality": "Montreal",
                        "postcode": "H4N 3K1",
                        "region": "QC"
                  },
                  "name": "Mr. Puffs",
                  "popularity": 0.9723339326267979
            },
            {
                  "distance": 635,
                  "location": {
                        "address": "9252 Blvd de l Acadie",
                        "country": "CA",
                        "cross_street": "",
                        "formatted_address": "9252 Blvd de l Acadie, Montr\u00e9al QC H4N 3C5",
                        "locality": "Montreal",
                        "postcode": "H4N 3C5",
                        "region": "QC"
                  },
                  "name": "Sushi Shop",
                  "popularity": 0.8999810749432249,
                  "price": 2
            },
            {
                  "distance": 711,
                  "location": {
                        "address": "8901\u20138999 Blvd de l'Acadie",
                        "country": "CA",
                        "cross_street": "March\u00e9 Central",
                        "formatted_address": "8901\u20138999 Blvd de l'Acadie (March\u00e9 Central), Montr\u00e9al QC H4N 3K1",
                        "locality": "Montreal",
                        "postcode": "H4N 3K1",
                        "region": "QC"
                  },
                  "name": "Green Cafe",
                  "popularity": 0.8339799394398183,
                  "price": 1
            },
            {
                  "distance": 847,
                  "location": {
                        "address": "1150 Sauve Rue O",
                        "country": "CA",
                        "cross_street": "Birman",
                        "formatted_address": "1150 Sauve Rue O (Birman), Montr\u00e9al QC H4N 0C6",
                        "locality": "Montreal",
                        "postcode": "H4N 0C6",
                        "region": "QC"
                  },
                  "name": "Kokoro Sushi",
                  "popularity": 0.8590083270249811,
                  "price": 2
            },
            {
                  "distance": 868,
                  "location": {
                        "address": "9805 Blvd de l'Acadie",
                        "country": "CA",
                        "cross_street": "",
                        "formatted_address": "9805 Blvd de l'Acadie, Montr\u00e9al QC H4N 2W2",
                        "locality": "Montreal",
                        "postcode": "H4N 2W2",
                        "region": "QC"
                  },
                  "name": "B12 Burger",
                  "popularity": 0.9134415215745647,
                  "price": 1
            },
            {
                  "distance": 966,
                  "location": {
                        "address": "340 Bellarmin Rue",
                        "country": "CA",
                        "cross_street": "",
                        "formatted_address": "340 Bellarmin Rue, Montr\u00e9al QC H2P 1G5",
                        "locality": "Montreal",
                        "postcode": "H2P 1G5",
                        "region": "QC"
                  },
                  "name": "Chenail",
                  "popularity": 0.8327024981074943,
                  "price": 2
            },
            {
                  "distance": 37,
                  "location": {
                        "address": "555 Chabanel Rue O",
                        "address_extended": "R7",
                        "country": "CA",
                        "formatted_address": "555 Chabanel Rue O, Montreal QC",
                        "locality": "Montreal",
                        "region": "QC"
                  },
                  "name": "Restaurant le Tisserand"
            },
            {
                  "distance": 249,
                  "location": {
                        "address": "221 Chabanel Rue O",
                        "country": "CA",
                        "formatted_address": "221 Chabanel Rue O, Montreal QC H2N 1G3",
                        "locality": "Montreal",
                        "postcode": "H2N 1G3",
                        "region": "QC"
                  },
                  "name": "Autour du pot"
            },
            {
                  "distance": 348,
                  "location": {
                        "address": "9600 Meilleur Rue",
                        "country": "CA",
                        "formatted_address": "9600 Meilleur Rue, Montreal QC H2N 2E3",
                        "locality": "Montreal",
                        "postcode": "H2N 2E3",
                        "region": "QC"
                  },
                  "name": "Restaurant la Barraque Cdn"
            }
      ],
      "context": {
            "geo_bounds": {
                  "circle": {
                        "center": {
                              "latitude": 45.53830765,
                              "longitude": -73.6548838
                        },
                        "radius": 1000
                  }
            }
      }
}