{
      "results": [
            {
                  "distance": 664,
                  "location": {
                        "address": "8803 Hochelaga Rue",
                        "country": "CA",
                        "cross_street": "Joffre",
                        "formatted_address": "8803 Hochelaga Rue (Joffre), Montr\u00e9al QC H1L 2N1",
                        "locality": "Montreal",
                        "postcode": "H1L 2N1",
                        "region": "QC"
                  },
                  "name": "Le Coq de l'Est 2015 Inc",
                  "popularity": 0.8620363361090083,
                  "price": 2,
                  "rating": 8.2
            },
            {
                  "distance": 63,
                  "location": {
                        "address": "8746 Notre-Dame Rue E",
                        "country": "CA",
                        "cross_street": "",
                        "formatted_address": "8746 Notre-Dame Rue E, Montr\u00e9al QC H1L 3M1",
                        "locality": "Montreal",
                        "postcode": "H1L 3M1",
                        "region": "QC"
                  },
                  "name": "Coronel Restaurant",
                  "popularity": 0.9031746782740349,
                  "price": 2,
                  "rating": 7.0
            },
            {
                  "distance": 706,
                  "location": {
                        "address": "8235 Notre-Dame Rue E",
                        "country": "CA",
                        "cross_street": "",
                        "formatted_address": "8235 Notre-Dame Rue E, Montr\u00e9al QC H1L 3L2",
                        "locality": "Montreal",
                        "postcode": "H1L 3L2",
                        "region": "QC"
                  },
                  "name": "McDonald's",
                  "popularity": 0.9922880393641181,
                  "price": 1,
                  "rating": 6.3,
                  "store_id": "12013"
            },
            {
                  "distance": 510,
                  "location": {
                        "address": "2263 des Ormeaux Rue",
                        "country": "CA",
                        "cross_street": "",
                        "formatted_address": "2263 des Ormeaux Rue, Montr\u00e9al QC H1L 4X2",
                        "locality": "Montreal",
                        "postcode": "H1L 4X2",
                        "region": "QC"
                  },
                  "name": "Chopine P\u00e2tisserie",
                  "popularity": 0.7051239591218774
            },
            {
                  "distance": 652,
                  "location": {
                        "address": "8792 Hochelaga Rue",
                        "country": "CA",
                        "cross_street": "",
                        "formatted_address": "8792 Hochelaga Rue, Montr\u00e9al QC H1L 2M9",
                        "locality": "Montreal",
                        "postcode": "H1L 2M9",
                        "region": "QC"
                  },
                  "name": "Restaurant Zykaa",
                  "popularity": 0.9669876040878123,
                  "price": 2
            },
            {
                  "distance": 677,
                  "location": {
                        "address": "2525 des Ormeaux Rue",
                        "country": "CA",
                        "cross_street": "",
                        "formatted_address": "2525 des Ormeaux Rue, Montr\u00e9al QC H1L 4X4",
                        "locality": "Montreal",
                        "postcode": "H1L 4X4",
                        "region": "QC"
                  },
                  "name": "Kem CoBa",
                  "popularity": 0.31227526495079483,
                  "price": 1
            },
            {
                  "distance": 709,
                  "location": {
                        "address": "8517 Hochelaga Rue",
                        "country": "CA",
                        "cross_street": "Lebrun",
                        "formatted_address": "8517 Hochelaga Rue (Lebrun), Montr\u00e9al QC H1L 2M1",
                        "locality": "Montreal",
                        "postcode": "H1L 2M1",
                        "region": "QC"
                  },
                  "name": "Chez Simon Cantine Urbaine",
                  "popularity": 0.9938138720666162,
                  "price": 1
            },
            {
                  "distance": 712,
                  "location": {
                        "address": "8480 Hochelaga Rue",
                        "country": "CA",
                        "cross_street": "",
                        "formatted_address": "8480 Hochelaga Rue, Montr\u00e9al QC H1L 2L9",
                        "locality": "Montreal",
                        "postcode": "H1L 2L9",
                        "region": "QC"
                  },
                  "name": "Taverne Reeves Inc",
                  "popularity": 0.7225704958364875,
                  "price": 1
            },
            {
                  "distance": 721,
                  "location": {
                        "address": "8980 Hochelaga Rue",
                        "country": "CA",
                        "cross_street": "",
                        "formatted_address": "8980 Hochelaga Rue, Montr\u00e9al QC H1L 2N7",
                        "locality": "Montreal",
                        "postcode": "H1L 2N7",
                        "region": "QC"
                  },
                  "name": "Dominic Sous-Marins",
                  "popularity": 0.905611279333838,
                  "price": 1
            },
            {
                  "distance": 43,
                  "location": {
                        "address": "8746 Notre-Dame Rue E",
                        "country": "CA",
                        "formatted_address": "8746 Notre-Dame Rue E, Montreal QC H1L 3M1",
                        "locality": "Montreal",
                        "postcode": "H1L 3M1",
                        "region": "QC"
                  },
                  "name": "Coronel Restaurant et Pizzeria"
            },
            {
                  "distance": 369,
                  "location": {
                        "address": "8477 Notre-Dame Rue E",
                        "country": "CA",
                        "formatted_address": "8477 Notre-Dame Rue E, Montreal QC H1L 3L5",
                        "locality": "Montreal",
                        "postcode": "H1L 3L5",
                        "region": "QC"
                  },
                  "name": "Taverne Rancho"
            },
            {
                  "distance": 477,
                  "location": {
                        "address": "9041 Notre-Dame Rue E",
                        "country": "CA",
                        "formatted_address": "9041 Notre-Dame Rue E, Montreal QC H1L 3M9",
                        "locality": "Montreal",
                        "postcode": "H1L 3M9",
                        "region": "QC"
                  },
                  "name": "resto chez Denise"
            },
            {
                  "distance": 493,
                  "location": {
                        "address": "2269 des Ormeaux Rue",
                        "country": "CA",
                        "formatted_address": "2269 des Ormeaux Rue, Montreal QC H1L 4X2",
                        "locality": "Montreal",
                        "postcode": "H1L 4X2",
                        "region": "QC"
                  },
                  "name": "Bar des Ormeaux"
            },
            {
                  "distance": 616,
                  "location": {
                        "address": "8720 Hochelaga Rue",
                        "country": "CA",
                        "formatted_address": "8720 Hochelaga Rue, Montreal QC H1L 2M7",
                        "locality": "Montreal",
                        "postcode": "H1L 2M7",
                        "region": "QC"
                  },
                  "name": "Au Go\u00fbt Tropical"
            },
            {
                  "distance": 622,
                  "location": {
                        "address": "8726 Hochelaga St",
                        "country": "CA",
                        "formatted_address": "8726 Hochelaga St, Montreal QC H1L 2M7",
                        "locality": "Montreal",
                        "postcode": "H1L 2M7",
                        "region": "QC"
                  },
                  "name": "La Diperie"
            },
            {
                  "distance": 647,
                  "location": {
                        "address": "8582 Hochelaga Rue",
                        "country": "CA",
                        "formatted_address": "8582 Hochelaga Rue, Montreal QC H1L 2M3",
                        "locality": "Montreal",
                        "postcode": "H1L 2M3",
                        "region": "QC"
                  },
                  "name": "Cafe d'Abord"
            },
            {
                  "distance": 657,
                  "location": {
                        "address": "8874 Hochelaga Rue",
                        "country": "CA",
                        "formatted_address": "8874 Hochelaga Rue, Montreal QC H1L 2N2",
                        "locality": "Montreal",
                        "postcode": "H1L 2N2",
                        "region": "QC"
                  },
                  "name": "\u00d4 Poids Vert"
            },
            {
                  "distance": 715,
                  "location": {
                        "address": "8933 Hochelaga Rue",
                        "country": "CA",
                        "formatted_address": "8933 Hochelaga Rue, Montreal QC H1L 2N4",
                        "locality": "Montreal",
                        "postcode": "H1L 2N4",
                        "region": "QC"
                  },
                  "name": "Pub Romana"
            },
            {
                  "distance": 752,
                  "location": {
                        "address": "2557 Pierre-Tetreault Rue",
                        "country": "CA",
                        "formatted_address": "2557 Pierre-Tetreault Rue, Montreal QC H1L 4Z3",
                        "locality": "Montreal",
                        "postcode": "H1L 4Z3",
                        "region": "QC"
                  },
                  "name": "La Caba\u00f1a"
            },
            {
                  "distance": 767,
                  "location": {
                        "address": "9007 Hochelaga Rue",
                        "country": "CA",
                        "formatted_address": "9007 Hochelaga Rue, Montreal QC H1L 2N6",
                        "locality": "Montreal",
                        "postcode": "H1L 2N6",
                        "region": "QC"
                  },
                  "name": "Restaurant Malaythai"
            },
            {
                  "distance": 940,
                  "location": {
                        "address": "8115 A.-A.-Desroches Rue",
                        "country": "CA",
                        "formatted_address": "8115 A.-A.-Desroches Rue, Montreal QC H1L 2S3",
                        "locality": "Montreal",
                        "postcode": "H1L 2S3",
                        "region": "QC"
                  },
                  "name": "Chez D&N"
            },
            {
                  "distance": 954,
                  "location": {
                        "address": "9200 Dubuisson Ave",
                        "country": "CA",
                        "formatted_address": "9200 Dubuisson Ave, Montreal QC H1L 2X1",
                        "locality": "Montreal",
                        "postcode": "H1L 2X1",
                        "region": "QC"
                  },
                  "name": "Pecherie Atlantique"
            }
      ],
      "context": {
            "geo_bounds": {
                  "circle": {
                        "center": {
                              "latitude": 45.59926552,
                              "longitude": -73.51226069
                        },
                        "radius": 1000
                  }
            }
      }
}