{
      "results": [
            {
                  "distance": 255,
                  "location": {
                        "address": "4662 Notre-Dame Rue O",
                        "country": "CA",
                        "cross_street": "De Courcelles",
                        "formatted_address": "4662 Notre-Dame Rue O (De Courcelles), Montr\u00e9al QC H4C 1S6",
                        "locality": "Montreal",
                        "postcode": "H4C 1S6",
                        "region": "QC"
                  },
                  "name": "Tuck Shop",
                  "popularity": 0.9177469719909159,
                  "price": 3,
                  "rating": 9.2
            },
            {
                  "distance": 512,
                  "location": {
                        "address": "5001 Notre Dame Rue O",
                        "country": "CA",
                        "cross_street": "coin St-R\u00e9mi",
                        "formatted_address": "5001 Notre Dame Rue O (coin St-R\u00e9mi), Montr\u00e9al QC H4C 1T2",
                        "locality": "Montreal",
                        "postcode": "H4C 1T2",
                        "region": "QC"
                  },
                  "name": "Le Bar Loic",
                  "popularity": 0.9594767221801666,
                  "price": 3,
                  "rating": 8.9
            },
            {
                  "distance": 770,
                  "location": {
                        "address": "3721 Notre-Dame Rue O",
                        "country": "CA",
                        "cross_street": "entre Bourget & Turgeon",
                        "formatted_address": "3721 Notre-Dame Rue O (entre Bourget & Turgeon), Montr\u00e9al QC H4C 1P8",
                        "locality": "Montreal",
                        "postcode": "H4C 1P8",
                        "region": "QC"
                  },
                  "name": "Satay Brothers",
                  "popularity": 0.9822577592732779,
                  "price": 2,
                  "rating": 8.9
            },
            {
                  "distance": 634,
                  "location": {
                        "address": "5080 Saint-Ambroise Rue",
                        "address_extended": "b\u00e2tisse \u00e0 c\u00f4t\u00e9 de la Brasserie McAuslan",
                        "country": "CA",
                        "cross_street": "b\u00e2tisse \u00e0 c\u00f4t\u00e9 de la Brasserie McAuslan",
                        "formatted_address": "5080 Saint-Ambroise Rue (b\u00e2tisse \u00e0 c\u00f4t\u00e9 de la Brasserie McAuslan), Montr\u00e9al QC H4C 2G1",
                        "locality": "Montreal",
                        "postcode": "H4C 2G1",
                        "region": "QC"
                  },
                  "name": "L'Annexe St-Ambroise (L\u2019Annexe St-Ambroise)",
                  "popularity": 0.8646267032551098,
                  "price": 1,
                  "rating": 8.6
            },
            {
                  "distance": 831,
                  "location": {
                        "address": "3618 Notre-Dame Rue O",
                        "country": "CA",
                        "cross_street": "",
                        "formatted_address": "3618 Notre-Dame Rue O, Montr\u00e9al QC H4C 1P5",
                        "locality": "Montreal",
                        "postcode": "H4C 1P5",
                        "region": "QC"
                  },
                  "name": "Sumac",
                  "popularity": 0.9393806775170326,
                  "price": 2,
                  "rating": 8.5
            },
            {
                  "distance": 966,
                  "location": {
                        "address": "3502 Notre-Dame Rue O",
                        "country": "CA",
                        "cross_street": "",
                        "formatted_address": "3502 Notre-Dame Rue O, Montr\u00e9al QC H4C 1P4",
                        "locality": "Montreal",
                        "postcode": "H4C 1P4",
                        "region": "QC"
                  },
                  "name": "Eko Sushi",
                  "popularity": 0.925316994700984,
                  "price": 2,
                  "rating": 8.5
            },
            {
                  "distance": 607,
                  "location": {
                        "address": "5090 Notre-Dame Rue O",
                        "country": "CA",
                        "cross_street": "d'Yamaska",
                        "formatted_address": "5090 Notre-Dame Rue O (d'Yamaska), Montr\u00e9al QC H4C 1T1",
                        "locality": "Montreal",
                        "postcode": "H4C 1T1",
                        "region": "QC"
                  },
                  "name": "Elena",
                  "popularity": 0.9710919757759273,
                  "price": 1,
                  "rating": 8.4
            },
            {
                  "distance": 703,
                  "location": {
                        "address": "5080 Saint-Ambroise Rue",
                        "country": "CA",
                        "cross_street": "St-R\u00e9mi & C\u00f4te St-Paul",
                        "formatted_address": "5080 Saint-Ambroise Rue (St-R\u00e9mi & C\u00f4te St-Paul), Montr\u00e9al QC H4C 2G1",
                        "locality": "Montreal",
                        "postcode": "H4C 2G1",
                        "region": "QC"
                  },
                  "name": "Terrasse St-Ambroise",
                  "popularity": 0.9150264950794852,
                  "price": 2,
                  "rating": 8.4
            },
            {
                  "distance": 244,
                  "location": {
                        "address": "4621 Notre-Dame Rue O",
                        "country": "CA",
                        "cross_street": "",
                        "formatted_address": "4621 Notre-Dame Rue O, Montr\u00e9al QC H4C 1S5",
                        "locality": "Montreal",
                        "postcode": "H4C 1S5",
                        "region": "QC"
                  },
                  "name": "Arthurs Nosh Bar",
                  "popularity": 0.9455668054504164,
                  "rating": 8.3
            },
            {
                  "distance": 479,
                  "location": {
                        "address": "2233 Pitt Rue",
                        "country": "CA",
                        "cross_street": "Saint-Patrick",
                        "formatted_address": "2233 Pitt Rue (Saint-Patrick), Montr\u00e9al QC H4E 4H2",
                        "locality": "Montreal",
                        "postcode": "H4E 4H2",
                        "region": "QC"
                  },
                  "name": "Messorem Bracitorium",
                  "popularity": 0.9737296555639667,
                  "price": 2,
                  "rating": 8.3
            },
            {
                  "distance": 280,
                  "location": {
                        "address": "4685 Notre-Dame Rue O",
                        "country": "CA",
                        "cross_street": "Notre-Dame O.",
                        "formatted_address": "4685 Notre-Dame Rue O (Notre-Dame O.), Montr\u00e9al QC H4C 1S7",
                        "locality": "Montreal",
                        "postcode": "H4C 1S7",
                        "region": "QC"
                  },
                  "name": "Bar de Courcelles",
                  "popularity": 0.9457915404996216,
                  "price": 1,
                  "rating": 8.0
            },
            {
                  "distance": 229,
                  "location": {
                        "address": "4615 Notre-Dame Rue O",
                        "country": "CA",
                        "formatted_address": "4615 Notre-Dame Rue O, Montr\u00e9al QC H4C 1S5",
                        "locality": "Montreal",
                        "postcode": "H4C 1S5",
                        "region": "QC"
                  },
                  "name": "Rustique",
                  "popularity": 0.8620599924299773,
                  "price": 1,
                  "rating": 8.0
            },
            {
                  "distance": 885,
                  "location": {
                        "address": "3570A Notre-Dame Rue O",
                        "country": "CA",
                        "cross_street": "",
                        "formatted_address": "3570A Notre-Dame Rue O, Montr\u00e9al QC H4C 1P4",
                        "locality": "Montreal",
                        "postcode": "H4C 1P4",
                        "region": "QC"
                  },
                  "name": "Sandwicherie St-Henri",
                  "popularity": 0.8425790121120363,
                  "price": 1,
                  "rating": 7.9
            },
            {
                  "distance": 175,
                  "location": {
                        "address": "291 Beaudoin Rue",
                        "country": "CA",
                        "cross_street": "entre Notre-Dame & Ste-\u00c9milie",
                        "formatted_address": "291 Beaudoin Rue (entre Notre-Dame & Ste-\u00c9milie), Montr\u00e9al QC H4C 2Y3",
                        "locality": "Montreal",
                        "postcode": "H4C 2Y3",
                        "region": "QC"
                  },
                  "name": "Pops Art",
                  "popularity": 0.841514477668433,
                  "price": 1,
                  "rating": 7.9
            },
            {
                  "distance": 239,
                  "location": {
                        "address": "4629 Notre-Dame Rue O",
                        "country": "CA",
                        "cross_street": "Delinelle",
                        "formatted_address": "4629 Notre-Dame Rue O (Delinelle), Montr\u00e9al QC H4C 1S5",
                        "locality": "Montreal",
                        "postcode": "H4C 1S5",
                        "region": "QC"
                  },
                  "name": "Adamo",
                  "popularity": 0.8417392127176382,
                  "price": 1,
                  "rating": 7.8
            },
            {
                  "distance": 771,
                  "location": {
                        "address": "3714 Notre-Dame Rue O",
                        "country": "CA",
                        "cross_street": "Bourget",
                        "formatted_address": "3714 Notre-Dame Rue O (Bourget), Montr\u00e9al QC H4C 1P7",
                        "locality": "Montreal",
                        "postcode": "H4C 1P7",
                        "region": "QC"
                  },
                  "name": "L'Oeufrier",
                  "popularity": 0.9444313020439061,
                  "price": 1,
                  "rating": 7.5
            },
            {
                  "distance": 236,
                  "location": {
                        "address": "4412 Notre-Dame Rue O",
                        "country": "CA",
                        "cross_street": "",
                        "formatted_address": "4412 Notre-Dame Rue O, Montr\u00e9al QC H4C 1S1",
                        "locality": "Montreal",
                        "postcode": "H4C 1S1",
                        "region": "QC"
                  },
                  "name": "Uniburger",
                  "popularity": 0.874384935654807,
                  "price": 1,
                  "rating": 7.4
            },
            {
                  "distance": 171,
                  "location": {
                        "address": "291 Beaudoin Rue",
                        "country": "CA",
                        "cross_street": "entre Notre-Dame & Ste-\u00c9milie",
                        "formatted_address": "291 Beaudoin Rue (entre Notre-Dame & Ste-\u00c9milie), Montr\u00e9al QC H4C 2Y3",
                        "locality": "Montreal",
                        "postcode": "H4C 2Y3",
                        "region": "QC"
                  },
                  "name": "Boulangerie Rustique Sweet Lee's",
                  "popularity": 0.8460210068130204,
                  "price": 1,
                  "rating": 7.4
            },
            {
                  "distance": 997,
                  "location": {
                        "address": "138 Atwater Ave",
                        "country": "CA",
                        "formatted_address": "138 Atwater Ave, Montreal QC H4C 2G3",
                        "locality": "Montreal",
                        "postcode": "H4C 2G3",
                        "region": "QC"
                  },
                  "name": "Pasta d'ici",
                  "popularity": 0.7177091218773657,
                  "price": 2,
                  "rating": 7.3
            },
            {
                  "distance": 234,
                  "location": {
                        "address": "4609 Notre Dame Rue O",
                        "country": "CA",
                        "cross_street": "",
                        "formatted_address": "4609 Notre Dame Rue O, Montr\u00e9al QC H4C 1S5",
                        "locality": "Montreal",
                        "postcode": "H4C 1S5",
                        "region": "QC"
                  },
                  "name": "Dalla Rose",
                  "popularity": 0.9003359197577593,
                  "price": 1,
                  "rating": 7.3
            },
            {
                  "distance": 276,
                  "location": {
                        "address": "4376 Notre-Dame Rue O",
                        "country": "CA",
                        "cross_street": "",
                        "formatted_address": "4376 Notre-Dame Rue O, Montr\u00e9al QC H4C 1R8",
                        "locality": "Montreal",
                        "postcode": "H4C 1R8",
                        "region": "QC"
                  },
                  "name": "Tacos Victor",
                  "popularity": 0.9654499432248297,
                  "price": 1,
                  "rating": 7.3
            },
            {
                  "distance": 886,
                  "location": {
                        "address": "3568 Notre-Dame Rue O",
                        "country": "CA",
                        "cross_street": "coin Rose de Lima",
                        "formatted_address": "3568 Notre-Dame Rue O (coin Rose de Lima), Montr\u00e9al QC H4C 1P4",
                        "locality": "Montreal",
                        "postcode": "H4C 1P4",
                        "region": "QC"
                  },
                  "name": "Restaurant Nozy",
                  "popularity": 0.9039435087055261,
                  "price": 2,
                  "rating": 7.2
            },
            {
                  "distance": 260,
                  "location": {
                        "address": "4400 Notre-Dame Rue O",
                        "country": "CA",
                        "cross_street": "",
                        "formatted_address": "4400 Notre-Dame Rue O, Montr\u00e9al QC H4C 1S1",
                        "locality": "Montreal",
                        "postcode": "H4C 1S1",
                        "region": "QC"
                  },
                  "name": "F+F Pizza",
                  "popularity": 0.8892292770628312,
                  "price": 1,
                  "rating": 7.1
            },
            {
                  "distance": 445,
                  "location": {
                        "address": "4020 Saint-Ambroise Rue",
                        "address_extended": "# 140",
                        "country": "CA",
                        "formatted_address": "4020 Saint-Ambroise Rue, Montr\u00e9al QC H4C 2C7",
                        "locality": "Montreal",
                        "postcode": "H4C 2C7",
                        "region": "QC"
                  },
                  "name": "Restaurant l'Ambroisie",
                  "popularity": 0.9416871688115064,
                  "price": 2,
                  "rating": 6.3
            },
            {
                  "distance": 549,
                  "location": {
                        "address": "4005 Notre-Dame Rue O",
                        "country": "CA",
                        "cross_street": "",
                        "formatted_address": "4005 Notre-Dame Rue O, Montr\u00e9al QC H4C 1R3",
                        "locality": "Montreal",
                        "postcode": "H4C 1R3",
                        "region": "QC"
                  },
                  "name": "Paperplane MTL",
                  "popularity": 0.8468489780469342,
                  "price": 2,
                  "rating": 6.2
            },
            {
                  "distance": 988,
                  "location": {
                        "address": "3419 Notre-Dame Rue O",
                        "country": "CA",
                        "cross_street": "",
                        "formatted_address": "3419 Notre-Dame Rue O, Montr\u00e9al QC H4C 1P3",
                        "locality": "Montreal",
                        "postcode": "H4C 1P3",
                        "region": "QC"
                  },
                  "name": "New System Restaurant",
                  "popularity": 0.9502152725208176,
                  "price": 1,
                  "rating": 5.8
            },
            {
                  "distance": 265,
                  "location": {
                        "address": "4401 Notre-Dame Rue O",
                        "country": "CA",
                        "cross_street": "Beaudoin",
                        "formatted_address": "4401 Notre-Dame Rue O (Beaudoin), Montr\u00e9al QC H4C 1S2",
                        "locality": "Montreal",
                        "postcode": "H4C 1S2",
                        "region": "QC"
                  },
                  "name": "Le T\u00e9quila Bar",
                  "popularity": 0.929515991672975,
                  "price": 1,
                  "rating": 5.7
            },
            {
                  "distance": 846,
                  "location": {
                        "address": "3600 Notre-Dame Rue O",
                        "country": "CA",
                        "cross_street": "Rose-de-Lima",
                        "formatted_address": "3600 Notre-Dame Rue O (Rose-de-Lima), Montr\u00e9al QC H4C 1P5",
                        "locality": "Montreal",
                        "postcode": "H4C 1P5",
                        "region": "QC"
                  },
                  "name": "Tim Hortons",
                  "popularity": 0.8952734670704012,
                  "price": 1,
                  "rating": 5.6
            },
            {
                  "distance": 233,
                  "location": {
                        "address": "4450 Notre-Dame Rue O",
                        "country": "CA",
                        "cross_street": "",
                        "formatted_address": "4450 Notre-Dame Rue O, Montr\u00e9al QC H4C 1S1",
                        "locality": "Montreal",
                        "postcode": "H4C 1S1",
                        "region": "QC"
                  },
                  "name": "BarBara",
                  "popularity": 0.9310299962149886,
                  "price": 2
            },
            {
                  "distance": 239,
                  "location": {
                        "address": "4601 Notre-Dame Rue O",
                        "country": "CA",
                        "cross_street": "Therien",
                        "formatted_address": "4601 Notre-Dame Rue O (Therien), Montr\u00e9al QC H4C 1S5",
                        "locality": "Montreal",
                        "postcode": "H4C 1S5",
                        "region": "QC"
                  },
                  "name": "Lloydie\u2019s",
                  "popularity": 0.8455242240726722,
                  "price": 2
            },
            {
                  "distance": 245,
                  "location": {
                        "address": "4609 Notre Dame Rue O",
                        "country": "CA",
                        "cross_street": "",
                        "formatted_address": "4609 Notre Dame Rue O, Montr\u00e9al QC H4C 1S5",
                        "locality": "Montreal",
                        "postcode": "H4C 1S5",
                        "region": "QC"
                  },
                  "name": "Ramen 9000",
                  "popularity": 0.559058005299016
            },
            {
                  "distance": 337,
                  "location": {
                        "address": "4293 Notre-Dame Rue O",
                        "country": "CA",
                        "cross_street": "",
                        "formatted_address": "4293 Notre-Dame Rue O, Montr\u00e9al QC H4C 1R7",
                        "locality": "Montreal",
                        "postcode": "H4C 1R7",
                        "region": "QC"
                  },
                  "name": "Pikeos",
                  "popularity": 0.8117311695685087,
                  "price": 2
            },
            {
                  "distance": 427,
                  "location": {
                        "address": "Pl Alexis Nihon Plaza",
                        "country": "CA",
                        "cross_street": "Atwater et Ste. Catherine O.",
                        "formatted_address": "Pl Alexis Nihon Plaza (Atwater et Ste. Catherine O.), Montr\u00e9al QC",
                        "locality": "Montreal",
                        "region": "QC"
                  },
                  "name": "Yeh! Yogourt Glac\u00e9 et Caf\u00e9",
                  "popularity": 0.24658166161998485,
                  "price": 1
            },
            {
                  "distance": 458,
                  "location": {
                        "address": "3780 Saint-Patrick Rue",
                        "country": "CA",
                        "cross_street": "Pitt",
                        "formatted_address": "3780 Saint-Patrick Rue (Pitt), Montr\u00e9al QC H4E 1A2",
                        "locality": "Montreal",
                        "postcode": "H4E 1A2",
                        "region": "QC"
                  },
                  "name": "Canadian Roasting Society",
                  "popularity": 0.8535200605601817,
                  "price": 1
            },
            {
                  "distance": 495,
                  "location": {
                        "address": "4945 Notre-Dame Rue O",
                        "country": "CA",
                        "cross_street": "Saint-R\u00e9mi",
                        "formatted_address": "4945 Notre-Dame Rue O (Saint-R\u00e9mi), Montr\u00e9al QC H4C 1S9",
                        "locality": "Montreal",
                        "postcode": "H4C 1S9",
                        "region": "QC"
                  },
                  "name": "Caf\u00e9 Moccacino",
                  "popularity": 0.8637632475397427,
                  "price": 1
            }
      ],
      "context": {
            "geo_bounds": {
                  "circle": {
                        "center": {
                              "latitude": 45.47278107,
                              "longitude": -73.58527243
                        },
                        "radius": 1000
                  }
            }
      }
}