{
      "results": [
            {
                  "distance": 769,
                  "location": {
                        "address": "1625 Marcel-Laurin Blvd",
                        "country": "CA",
                        "cross_street": "",
                        "formatted_address": "1625 Marcel-Laurin Blvd, Saint-Laurent QC H4R 0B7",
                        "locality": "Saint-Laurent",
                        "postcode": "H4R 0B7",
                        "region": "QC"
                  },
                  "name": "Lylac",
                  "popularity": 0.9968182248296745,
                  "price": 1,
                  "rating": 8.5
            },
            {
                  "distance": 591,
                  "location": {
                        "address": "1676 Poirier Rue",
                        "country": "CA",
                        "cross_street": "Crevier",
                        "formatted_address": "1676 Poirier Rue (Crevier), Saint-Laurent QC H4L 1J3",
                        "locality": "Saint-Laurent",
                        "postcode": "H4L 1J3",
                        "region": "QC"
                  },
                  "name": "Restaurant Asie Moderne",
                  "popularity": 0.9916848031794095,
                  "price": 1,
                  "rating": 8.2
            },
            {
                  "distance": 830,
                  "location": {
                        "address": "1555 Marcel-Laurin Blvd",
                        "country": "CA",
                        "formatted_address": "1555 Marcel-Laurin Blvd, Saint-Laurent QC H4R 0B7",
                        "locality": "Saint-Laurent",
                        "postcode": "H4R 0B7",
                        "region": "QC"
                  },
                  "name": "Second Cup CAF\u00c9 & Cie",
                  "popularity": 0.9503690386071159,
                  "price": 1,
                  "rating": 7.2
            },
            {
                  "distance": 911,
                  "location": {
                        "address": "1191 Decarie Rue",
                        "country": "CA",
                        "cross_street": "Rochon",
                        "formatted_address": "1191 Decarie Rue (Rochon), Saint-Laurent QC H4L 3M8",
                        "locality": "Saint-Laurent",
                        "postcode": "H4L 3M8",
                        "region": "QC"
                  },
                  "name": "Tim Hortons",
                  "popularity": 0.9984741672975019,
                  "price": 1,
                  "rating": 6.6
            },
            {
                  "distance": 859,
                  "location": {
                        "address": "1997 Marcel-Laurin Blvd",
                        "country": "CA",
                        "cross_street": "",
                        "formatted_address": "1997 Marcel-Laurin Blvd, Saint-Laurent QC H4R 1K4",
                        "locality": "Saint-Laurent",
                        "postcode": "H4R 1K4",
                        "region": "QC"
                  },
                  "name": "Restaurant Au Vieux Duluth",
                  "popularity": 0.9025714420893263,
                  "price": 2,
                  "rating": 5.9
            },
            {
                  "distance": 793,
                  "location": {
                        "address": "1995 Marcel-Laurin Blvd",
                        "country": "CA",
                        "cross_street": "Poirier",
                        "formatted_address": "1995 Marcel-Laurin Blvd (Poirier), Saint-Laurent QC H4R 1K4",
                        "locality": "Saint-Laurent",
                        "postcode": "H4R 1K4",
                        "region": "QC"
                  },
                  "name": "Thai Express",
                  "popularity": 0.8191237698713096,
                  "price": 2,
                  "rating": 5.8,
                  "store_id": "95"
            },
            {
                  "distance": 982,
                  "location": {
                        "address": "2323 Marcel-Laurin Blvd",
                        "country": "CA",
                        "cross_street": "",
                        "formatted_address": "2323 Marcel-Laurin Blvd, Saint-Laurent QC H4R 1K4",
                        "locality": "Saint-Laurent",
                        "postcode": "H4R 1K4",
                        "region": "QC"
                  },
                  "name": "Tim Hortons",
                  "popularity": 0.9874621498864496,
                  "price": 1,
                  "rating": 5.4
            },
            {
                  "distance": 366,
                  "location": {
                        "address": "1805 O'Brien Ave",
                        "country": "CA",
                        "cross_street": "",
                        "formatted_address": "1805 O'Brien Ave, Montr\u00e9al QC H4L 3W6",
                        "locality": "Montreal",
                        "postcode": "H4L 3W6",
                        "region": "QC"
                  },
                  "name": "Mamma's Restaurant Pizzeria",
                  "popularity": 0.5918929788039364,
                  "price": 2
            },
            {
                  "distance": 623,
                  "location": {
                        "address": "1775 Grenet Rue",
                        "country": "CA",
                        "cross_street": "Poirier",
                        "formatted_address": "1775 Grenet Rue (Poirier), Cartierville QC H4L 2R6",
                        "locality": "Cartierville",
                        "postcode": "H4L 2R6",
                        "region": "QC"
                  },
                  "name": "Express Pizza & Poulet",
                  "popularity": 0.5642505677517032,
                  "price": 1
            },
            {
                  "distance": 659,
                  "location": {
                        "address": "1771 Grenet Rue",
                        "country": "CA",
                        "cross_street": "",
                        "formatted_address": "1771 Grenet Rue, Saint-Laurent QC H4L 2R6",
                        "locality": "Saint-Laurent",
                        "postcode": "H4L 2R6",
                        "region": "QC"
                  },
                  "name": "Restaurant Amara",
                  "popularity": 0.7435063398940197,
                  "price": 2
            },
            {
                  "distance": 764,
                  "location": {
                        "address": "1803 Poirier Rue",
                        "country": "CA",
                        "cross_street": "",
                        "formatted_address": "1803 Poirier Rue, Montr\u00e9al QC H4R 1K4",
                        "locality": "Montreal",
                        "postcode": "H4R 1K4",
                        "region": "QC"
                  },
                  "name": "Restaurant Miran",
                  "popularity": 0.8331164837244511,
                  "price": 2
            },
            {
                  "distance": 848,
                  "location": {
                        "address": "1995 Marcel-Laurin Blvd",
                        "country": "CA",
                        "cross_street": "",
                        "formatted_address": "1995 Marcel-Laurin Blvd, Saint-Laurent QC H4R 1K4",
                        "locality": "Saint-Laurent",
                        "postcode": "H4R 1K4",
                        "region": "QC"
                  },
                  "name": "Villa Madina",
                  "popularity": 0.2170822293716881,
                  "price": 2
            },
            {
                  "distance": 909,
                  "location": {
                        "address": "2135 Marcel Laurin Blvd",
                        "country": "CA",
                        "cross_street": "",
                        "formatted_address": "2135 Marcel Laurin Blvd, Montr\u00e9al QC H4R 1K4",
                        "locality": "Montreal",
                        "postcode": "H4R 1K4",
                        "region": "QC"
                  },
                  "name": "Hibi Korean BBQ",
                  "popularity": 0.36023845571536717,
                  "price": 2
            },
            {
                  "distance": 943,
                  "location": {
                        "address": "1709 Poirier Rue",
                        "country": "CA",
                        "cross_street": "",
                        "formatted_address": "1709 Poirier Rue, Saint-Laurent QC H4L 1J4",
                        "locality": "Saint-Laurent",
                        "postcode": "H4L 1J4",
                        "region": "QC"
                  },
                  "name": "Domino's Pizza",
                  "popularity": 0.9292794284632854,
                  "price": 1,
                  "store_id": "10722"
            },
            {
                  "distance": 958,
                  "location": {
                        "address": "1181 Decarie Rue",
                        "country": "CA",
                        "cross_street": "",
                        "formatted_address": "1181 Decarie Rue, Saint-Laurent QC H4L 3M8",
                        "locality": "Saint-Laurent",
                        "postcode": "H4L 3M8",
                        "region": "QC"
                  },
                  "name": "Planete Pizza",
                  "popularity": 0.9933525738077215,
                  "price": 1
            },
            {
                  "distance": 1012,
                  "location": {
                        "address": "1120 Decarie Rue",
                        "country": "CA",
                        "cross_street": "",
                        "formatted_address": "1120 Decarie Rue, Saint-Laurent QC H4L 3M9",
                        "locality": "Saint-Laurent",
                        "postcode": "H4L 3M9",
                        "region": "QC"
                  },
                  "name": "Centrale Bergham",
                  "popularity": 0.2516086298258895,
                  "price": 1
            },
            {
                  "distance": 624,
                  "location": {
                        "address": "1771 Grenet Rue",
                        "country": "CA",
                        "formatted_address": "1771 Grenet Rue, Saint-Laurent QC H4L 2R6",
                        "locality": "Saint-Laurent",
                        "postcode": "H4L 2R6",
                        "region": "QC"
                  },
                  "name": "Domino's Pizza"
            },
            {
                  "distance": 809,
                  "location": {
                        "address": "1991 Marcel-Laurin Blvd",
                        "country": "CA",
                        "formatted_address": "1991 Marcel-Laurin Blvd, Saint-Laurent QC H4R 1K4",
                        "locality": "Saint-Laurent",
                        "postcode": "H4R 1K4",
                        "region": "QC"
                  },
                  "name": "Nickels Deli & Bar"
            },
            {
                  "distance": 809,
                  "location": {
                        "address": "1700 d'Oxford Rue",
                        "country": "CA",
                        "formatted_address": "1700 d'Oxford Rue, Saint-Laurent QC H4L 1B6",
                        "locality": "Saint-Laurent",
                        "postcode": "H4L 1B6",
                        "region": "QC"
                  },
                  "name": "Wifi Pizza"
            },
            {
                  "distance": 823,
                  "location": {
                        "address": "H4L MONTR\u00e9AL",
                        "country": "CA",
                        "formatted_address": "H4L MONTR\u00e9AL, Montreal QC",
                        "locality": "Montreal",
                        "region": "QC"
                  },
                  "name": "Restaurant Au Vieux Duluth"
            },
            {
                  "distance": 833,
                  "location": {
                        "address": "2275 Marcel-Laurin Blvd",
                        "country": "CA",
                        "formatted_address": "2275 Marcel-Laurin Blvd, Saint-Laurent QC H4R 1K4",
                        "locality": "Saint-Laurent",
                        "postcode": "H4R 1K4",
                        "region": "QC"
                  },
                  "name": "Rotisserie Ebal"
            },
            {
                  "distance": 833,
                  "location": {
                        "address": "2015 Marcel-Laurin Blvd",
                        "country": "CA",
                        "formatted_address": "2015 Marcel-Laurin Blvd, Saint-Laurent QC H4R 1K4",
                        "locality": "Saint-Laurent",
                        "postcode": "H4R 1K4",
                        "region": "QC"
                  },
                  "name": "Dagwoods Sandwichs et Salades"
            },
            {
                  "distance": 874,
                  "location": {
                        "address": "1991 Marcel-Laurin Blvd",
                        "country": "CA",
                        "formatted_address": "1991 Marcel-Laurin Blvd, Saint-Laurent QC H4R 1K4",
                        "locality": "Saint-Laurent",
                        "postcode": "H4R 1K4",
                        "region": "QC"
                  },
                  "name": "Nickels Resto Bar St-Laurent"
            },
            {
                  "distance": 874,
                  "location": {
                        "address": "1991 Marcel-Laurin Blvd",
                        "country": "CA",
                        "formatted_address": "1991 Marcel-Laurin Blvd, Saint-Laurent QC",
                        "locality": "Saint-Laurent",
                        "region": "QC"
                  },
                  "name": "Nickels Deli & Grillade"
            },
            {
                  "distance": 915,
                  "location": {
                        "address": "1180 Decarie Rue",
                        "country": "CA",
                        "formatted_address": "1180 Decarie Rue, Saint-Laurent QC H4L 3M9",
                        "locality": "Saint-Laurent",
                        "postcode": "H4L 3M9",
                        "region": "QC"
                  },
                  "name": "Restaurant Fu Kam Wah"
            },
            {
                  "distance": 941,
                  "location": {
                        "address": "1555 Marcel Laurin",
                        "country": "CA",
                        "formatted_address": "1555 Marcel Laurin, Saint-Laurent QC H4R 0B7",
                        "locality": "Saint-Laurent",
                        "postcode": "H4R 0B7",
                        "region": "QC"
                  },
                  "name": "Second Cup Caf\u00e9"
            },
            {
                  "distance": 992,
                  "location": {
                        "address": "2167 Marcel Laurin Blvd",
                        "country": "CA",
                        "formatted_address": "2167 Marcel Laurin Blvd, Saint-Laurent QC H4R 1K4",
                        "locality": "Saint-Laurent",
                        "postcode": "H4R 1K4",
                        "region": "QC"
                  },
                  "name": "Cafe la Gourmandise"
            }
      ],
      "context": {
            "geo_bounds": {
                  "circle": {
                        "center": {
                              "latitude": 45.52252484,
                              "longitude": -73.69143963
                        },
                        "radius": 1000
                  }
            }
      }
}