{
      "results": [
            {
                  "distance": 806,
                  "location": {
                        "address": "12208 Laurentien Blvd",
                        "country": "CA",
                        "cross_street": "",
                        "formatted_address": "12208 Laurentien Blvd, Montr\u00e9al QC H4K 1M9",
                        "locality": "Montreal",
                        "postcode": "H4K 1M9",
                        "region": "QC"
                  },
                  "name": "Nuit de Beyrouth",
                  "popularity": 0.9128855980317941,
                  "price": 2,
                  "rating": 6.8
            },
            {
                  "distance": 745,
                  "location": {
                        "address": "12242 Laurentien Blvd",
                        "country": "CA",
                        "cross_street": "at Gouin",
                        "formatted_address": "12242 Laurentien Blvd (at Gouin), Montr\u00e9al QC H4K 1M9",
                        "locality": "Montreal",
                        "postcode": "H4K 1M9",
                        "region": "QC"
                  },
                  "name": "Restaurant Tong Por St-Laurent",
                  "popularity": 0.991992335352006,
                  "price": 2,
                  "rating": 6.6
            },
            {
                  "distance": 656,
                  "location": {
                        "address": "12 333 Blvd Laurentien",
                        "address_extended": "# 12",
                        "country": "CA",
                        "cross_street": "",
                        "formatted_address": "12 333 Blvd Laurentien, Montr\u00e9al QC H4K 2Z1",
                        "locality": "Montreal",
                        "postcode": "H4K 2Z1",
                        "region": "QC"
                  },
                  "name": "Benny&Co",
                  "popularity": 0.9936246214988645,
                  "price": 2,
                  "store_id": "BC_09"
            },
            {
                  "distance": 710,
                  "location": {
                        "address": "12245 Laurentien Blvd",
                        "country": "CA",
                        "cross_street": "",
                        "formatted_address": "12245 Laurentien Blvd, Montr\u00e9al QC H4K 1N4",
                        "locality": "Montreal",
                        "postcode": "H4K 1N4",
                        "region": "QC"
                  },
                  "name": "Expresso Bar",
                  "popularity": 0.9970784443603331,
                  "price": 1
            },
            {
                  "distance": 719,
                  "location": {
                        "address": "6419 Gouin Blvd O",
                        "country": "CA",
                        "cross_street": "coin Cousineau",
                        "formatted_address": "6419 Gouin Blvd O (coin Cousineau), Montr\u00e9al QC H4K 1A9",
                        "locality": "Montreal",
                        "postcode": "H4K 1A9",
                        "region": "QC"
                  },
                  "name": "Ristorante Il Cenone",
                  "popularity": 0.8122161241483724
            },
            {
                  "distance": 759,
                  "location": {
                        "address": "12230 Laurentien Blvd",
                        "country": "CA",
                        "cross_street": "",
                        "formatted_address": "12230 Laurentien Blvd, Montreal QC H4K 1M9",
                        "locality": "Montreal",
                        "postcode": "H4K 1M9",
                        "region": "QC"
                  },
                  "name": "Le Cristal Chinois Bbq Express",
                  "popularity": 0.960174583648751
            },
            {
                  "distance": 786,
                  "location": {
                        "address": "12210 Laurentien Blvd",
                        "country": "CA",
                        "cross_street": "",
                        "formatted_address": "12210 Laurentien Blvd, Montr\u00e9al QC H4K 1M9",
                        "locality": "Montreal",
                        "postcode": "H4K 1M9",
                        "region": "QC"
                  },
                  "name": "La Reine Patissiere",
                  "popularity": 0.9451528198334594,
                  "price": 1
            },
            {
                  "distance": 581,
                  "location": {
                        "address": "6370 Gouin Blvd O",
                        "country": "CA",
                        "formatted_address": "6370 Gouin Blvd O, Montreal QC H4K 1A8",
                        "locality": "Montreal",
                        "postcode": "H4K 1A8",
                        "region": "QC"
                  },
                  "name": "Cafe Imane"
            },
            {
                  "distance": 672,
                  "location": {
                        "address": "12289 Laurentien Blvd",
                        "country": "CA",
                        "formatted_address": "12289 Laurentien Blvd, Montreal QC H4K 1N5",
                        "locality": "Montreal",
                        "postcode": "H4K 1N5",
                        "region": "QC"
                  },
                  "name": "Grill a Rama"
            },
            {
                  "distance": 692,
                  "location": {
                        "address": "12226 Laurentien Blvd",
                        "country": "CA",
                        "formatted_address": "12226 Laurentien Blvd, Montreal QC H4K 1M9",
                        "locality": "Montreal",
                        "postcode": "H4K 1M9",
                        "region": "QC"
                  },
                  "name": "Expresso Bar"
            },
            {
                  "distance": 706,
                  "location": {
                        "address": "12230 Laurentien Blvd",
                        "country": "CA",
                        "formatted_address": "12230 Laurentien Blvd, Montreal QC H4K 1M9",
                        "locality": "Montreal",
                        "postcode": "H4K 1M9",
                        "region": "QC"
                  },
                  "name": "Le Baladi"
            },
            {
                  "distance": 748,
                  "location": {
                        "address": "6114 Gouin Blvd O",
                        "country": "CA",
                        "formatted_address": "6114 Gouin Blvd O, Montreal QC",
                        "locality": "Montreal",
                        "region": "QC"
                  },
                  "name": "Nikos Pizza & Deli"
            },
            {
                  "distance": 801,
                  "location": {
                        "address": "12242 Laurentien Blvd",
                        "country": "CA",
                        "formatted_address": "12242 Laurentien Blvd, Montreal QC H4K 1M9",
                        "locality": "Montreal",
                        "postcode": "H4K 1M9",
                        "region": "QC"
                  },
                  "name": "Tong Por Resto-Reception"
            },
            {
                  "distance": 809,
                  "location": {
                        "address": "6003 Gouin Blvd O",
                        "country": "CA",
                        "formatted_address": "6003 Gouin Blvd O, Montreal QC H4J 1E7",
                        "locality": "Montreal",
                        "postcode": "H4J 1E7",
                        "region": "QC"
                  },
                  "name": "Mon Petit Casse Croute"
            },
            {
                  "distance": 811,
                  "location": {
                        "address": "12208 Laurentien Blvd",
                        "country": "CA",
                        "formatted_address": "12208 Laurentien Blvd, Montreal QC H4K 1M9",
                        "locality": "Montreal",
                        "postcode": "H4K 1M9",
                        "region": "QC"
                  },
                  "name": "Restaurant Pappagallo"
            },
            {
                  "distance": 838,
                  "location": {
                        "address": "5995 Gouin Blvd O",
                        "country": "CA",
                        "formatted_address": "5995 Gouin Blvd O, Montreal QC H4J 2P8",
                        "locality": "Montreal",
                        "postcode": "H4J 2P8",
                        "region": "QC"
                  },
                  "name": "P\u00e2tisserie Samadi et Fils Enr"
            },
            {
                  "distance": 851,
                  "location": {
                        "address": "12172 Laurentien Blvd",
                        "country": "CA",
                        "formatted_address": "12172 Laurentien Blvd, Montreal QC H4K 1M9",
                        "locality": "Montreal",
                        "postcode": "H4K 1M9",
                        "region": "QC"
                  },
                  "name": "Saveur Med Cafe Restaurant"
            },
            {
                  "distance": 852,
                  "location": {
                        "address": "12167 Laurentien Blvd",
                        "country": "CA",
                        "formatted_address": "12167 Laurentien Blvd, Montreal QC H4K 1N4",
                        "locality": "Montreal",
                        "postcode": "H4K 1N4",
                        "region": "QC"
                  },
                  "name": "Cafe Nationale Plus"
            },
            {
                  "distance": 853,
                  "location": {
                        "address": "5995 Gouin Blvd O",
                        "country": "CA",
                        "formatted_address": "5995 Gouin Blvd O, Montreal QC H4J 2P8",
                        "locality": "Montreal",
                        "postcode": "H4J 2P8",
                        "region": "QC"
                  },
                  "name": "Mai-Tai"
            },
            {
                  "distance": 866,
                  "location": {
                        "address": "33 Blvd Cur\u00e9-Labelle",
                        "country": "CA",
                        "formatted_address": "33 Blvd Cur\u00e9-Labelle, Laval QC",
                        "locality": "Laval",
                        "region": "QC"
                  },
                  "name": "Le Hub 33"
            },
            {
                  "distance": 887,
                  "location": {
                        "address": "12174 Laurentien Blvd",
                        "country": "CA",
                        "formatted_address": "12174 Laurentien Blvd, Montreal QC H4K 1M9",
                        "locality": "Montreal",
                        "postcode": "H4K 1M9",
                        "region": "QC"
                  },
                  "name": "Poulet Mankal"
            },
            {
                  "distance": 900,
                  "location": {
                        "address": "5904 Gouin Blvd W",
                        "country": "CA",
                        "formatted_address": "5904 Gouin Blvd W, Montreal QC H4J 1E6",
                        "locality": "Montreal",
                        "postcode": "H4J 1E6",
                        "region": "QC"
                  },
                  "name": "Kennedy fried chicken and pizza"
            },
            {
                  "distance": 985,
                  "location": {
                        "address": "5810 Gouin Blvd O",
                        "country": "CA",
                        "formatted_address": "5810 Gouin Blvd O, Montreal QC H4J 1E4",
                        "locality": "Montreal",
                        "postcode": "H4J 1E4",
                        "region": "QC"
                  },
                  "name": "Morjane"
            },
            {
                  "distance": 988,
                  "location": {
                        "address": "145 Cure-Labelle Blvd",
                        "country": "CA",
                        "formatted_address": "145 Cure-Labelle Blvd, Laval QC H7V 2R7",
                        "locality": "Laval",
                        "postcode": "H7V 2R7",
                        "region": "QC"
                  },
                  "name": "Restaurant Al Sultan"
            }
      ],
      "context": {
            "geo_bounds": {
                  "circle": {
                        "center": {
                              "latitude": 45.526765,
                              "longitude": -73.730423
                        },
                        "radius": 1000
                  }
            }
      }
}