{
      "results": [
            {
                  "distance": 944,
                  "location": {
                        "address": "35 Desaulniers Blvd",
                        "country": "CA",
                        "formatted_address": "35 Desaulniers Blvd, Saint-Lambert QC J4P 1L7",
                        "locality": "Saint-Lambert",
                        "postcode": "J4P 1L7",
                        "region": "QC"
                  },
                  "name": "Bidon Taverne Culinaire",
                  "popularity": 0.990230312405508,
                  "price": 3,
                  "rating": 8.5
            },
            {
                  "distance": 147,
                  "location": {
                        "address": "1 Ave du Casino 5e \u00e9tage",
                        "country": "CA",
                        "cross_street": "",
                        "formatted_address": "1 Ave du Casino 5e \u00e9tage, Montr\u00e9al QC H3C 4W7",
                        "locality": "Montreal",
                        "postcode": "H3C 4W7",
                        "region": "QC"
                  },
                  "name": "Pavillon 67",
                  "popularity": 0.9956708932626798,
                  "rating": 7.8
            },
            {
                  "distance": 158,
                  "location": {
                        "address": "1 ave du Casino",
                        "country": "CA",
                        "cross_street": "5e \u00e9tage du Pavillon de la France",
                        "formatted_address": "1 ave du Casino (5e \u00e9tage du Pavillon de la France), Montr\u00e9al QC H3C 4W7",
                        "locality": "Montreal",
                        "postcode": "H3C 4W7",
                        "region": "QC"
                  },
                  "name": "M le Montr\u00e9al",
                  "popularity": 0.9961913323239969,
                  "price": 3,
                  "rating": 6.6
            },
            {
                  "distance": 111,
                  "location": {
                        "address": "1 ave du Casino",
                        "country": "CA",
                        "cross_street": "",
                        "formatted_address": "1 ave du Casino, Montr\u00e9al QC H3C 4W7",
                        "locality": "Montreal",
                        "postcode": "H3C 4W7",
                        "region": "QC"
                  },
                  "name": "L'Instant d\u00e9li et p\u00e2tes",
                  "popularity": 0.9953160484481454,
                  "price": 1
            },
            {
                  "distance": 123,
                  "location": {
                        "address": "1 Ave du Casino",
                        "country": "CA",
                        "cross_street": "",
                        "formatted_address": "1 Ave du Casino, Montr\u00e9al QC H3C 4W7",
                        "locality": "Montreal",
                        "postcode": "H3C 4W7",
                        "region": "QC"
                  },
                  "name": "Le Cabaret du Casino",
                  "popularity": 0.9704532551097653
            },
            {
                  "distance": 949,
                  "location": {
                        "address": "22 MacDonald Ch",
                        "country": "CA",
                        "cross_street": "",
                        "formatted_address": "22 MacDonald Ch, Montr\u00e9al QC H3C 6A3",
                        "locality": "Montreal",
                        "postcode": "H3C 6A3",
                        "region": "QC"
                  },
                  "name": "Le Ste-Helene",
                  "popularity": 0.8294142694928085
            },
            {
                  "distance": 973,
                  "location": {
                        "address": "410 Victoria Ave",
                        "country": "CA",
                        "formatted_address": "410 Victoria Ave, Saint-Lambert QC J4P 2H9",
                        "locality": "Saint-Lambert",
                        "postcode": "J4P 2H9",
                        "region": "QC"
                  },
                  "name": "Cafe de l'Ecluse",
                  "popularity": 0.9760011141737537,
                  "price": 2
            },
            {
                  "distance": 126,
                  "location": {
                        "address": "1 ave du Casino",
                        "country": "CA",
                        "formatted_address": "1 ave du Casino, Montreal QC H3C 4W7",
                        "locality": "Montreal",
                        "postcode": "H3C 4W7",
                        "region": "QC"
                  },
                  "name": "Ajia Comptoir Asiatique"
            },
            {
                  "distance": 292,
                  "location": {
                        "address": "222 Circt Gilles Villeneuve",
                        "country": "CA",
                        "formatted_address": "222 Circt Gilles Villeneuve, Montreal QC H3C 6A1",
                        "locality": "Montreal",
                        "postcode": "H3C 6A1",
                        "region": "QC"
                  },
                  "name": "Espace Bouffe"
            },
            {
                  "distance": 927,
                  "location": {
                        "address": "281 Riverside Rue",
                        "country": "CA",
                        "formatted_address": "281 Riverside Rue, Saint-Lambert QC J4P 1A6",
                        "locality": "Saint-Lambert",
                        "postcode": "J4P 1A6",
                        "region": "QC"
                  },
                  "name": "Bangkok 3D eyebrow & Nail Art Studio"
            },
            {
                  "distance": 927,
                  "location": {
                        "address": "10 Desaulniers Blvd",
                        "country": "CA",
                        "formatted_address": "10 Desaulniers Blvd, Saint-Lambert QC J4P 1L1",
                        "locality": "Saint-Lambert",
                        "postcode": "J4P 1L1",
                        "region": "QC"
                  },
                  "name": "Mes Baguettes"
            },
            {
                  "distance": 933,
                  "location": {
                        "address": "10 Desaulniers Blvd",
                        "country": "CA",
                        "formatted_address": "10 Desaulniers Blvd, Saint-Lambert QC J4P 1L1",
                        "locality": "Saint-Lambert",
                        "postcode": "J4P 1L1",
                        "region": "QC"
                  },
                  "name": "La Colonie Thai"
            }
      ],
      "context": {
            "geo_bounds": {
                  "circle": {
                        "center": {
                              "latitude": 45.5063732,
                              "longitude": -73.52457672
                        },
                        "radius": 1000
                  }
            }
      }
}