{
      "results": [
            {
                  "distance": 895,
                  "location": {
                        "address": "1272 Sainte-Catherine Rue E",
                        "country": "CA",
                        "cross_street": "",
                        "formatted_address": "1272 Sainte-Catherine Rue E, Montr\u00e9al QC H2L 2H2",
                        "locality": "Montreal",
                        "postcode": "H2L 2H2",
                        "region": "QC"
                  },
                  "name": "Bar Renard",
                  "popularity": 0.9689274224072673,
                  "price": 2,
                  "rating": 9.0
            },
            {
                  "distance": 166,
                  "location": {
                        "address": "1700 Ontario Rue E",
                        "country": "CA",
                        "cross_street": "coin Papineau",
                        "formatted_address": "1700 Ontario Rue E (coin Papineau), Montr\u00e9al QC H2L 1S7",
                        "locality": "Montreal",
                        "postcode": "H2L 1S7",
                        "region": "QC"
                  },
                  "name": "La Fabrique Arhoma",
                  "popularity": 0.953420704012112,
                  "price": 1,
                  "rating": 8.9
            },
            {
                  "distance": 782,
                  "location": {
                        "address": "1310 Blvd de Maisonneuve Est",
                        "country": "CA",
                        "cross_street": "Visitation",
                        "formatted_address": "1310 Blvd de Maisonneuve Est (Visitation), Montr\u00e9al QC H2L 2A5",
                        "locality": "Montreal",
                        "postcode": "H2L 2A5",
                        "region": "QC"
                  },
                  "name": "Bistro le Passe Compose",
                  "popularity": 0.9547809424678274,
                  "price": 1,
                  "rating": 8.5
            },
            {
                  "distance": 962,
                  "location": {
                        "address": "1112 Blvd de Maisonneuve Est",
                        "country": "CA",
                        "cross_street": "btwn Amherst & Wolfe St.",
                        "formatted_address": "1112 Blvd de Maisonneuve Est (btwn Amherst & Wolfe St.), Montr\u00e9al QC H2L 1Z5",
                        "locality": "Montreal",
                        "postcode": "H2L 1Z5",
                        "region": "QC"
                  },
                  "name": "O'Thym",
                  "popularity": 0.9423613739591219,
                  "price": 3,
                  "rating": 8.5
            },
            {
                  "distance": 863,
                  "location": {
                        "address": "1301 Sainte-Catherine Rue E",
                        "country": "CA",
                        "cross_street": "coin De la Visitation",
                        "formatted_address": "1301 Sainte-Catherine Rue E (coin De la Visitation), Montr\u00e9al QC H2L 2H4",
                        "locality": "Montreal",
                        "postcode": "H2L 2H4",
                        "region": "QC"
                  },
                  "name": "Starbucks",
                  "popularity": 0.9795254542013626,
                  "price": 2,
                  "rating": 8.3,
                  "store_id": "830"
            },
            {
                  "distance": 869,
                  "location": {
                        "address": "1212 Blvd de Maisonneuve Est",
                        "country": "CA",
                        "cross_street": "",
                        "formatted_address": "1212 Blvd de Maisonneuve Est, Montr\u00e9al QC H2L 1Z9",
                        "locality": "Montreal",
                        "postcode": "H2L 1Z9",
                        "region": "QC"
                  },
                  "name": "En Couleur",
                  "popularity": 0.9447861468584405,
                  "rating": 8.0
            },
            {
                  "distance": 192,
                  "location": {
                        "address": "1690 Ontario Rue E",
                        "country": "CA",
                        "cross_street": "entre De Champlain & Papineau",
                        "formatted_address": "1690 Ontario Rue E (entre De Champlain & Papineau), Montr\u00e9al QC H2L 1S7",
                        "locality": "Montreal",
                        "postcode": "H2L 1S7",
                        "region": "QC"
                  },
                  "name": "Au Petit Extra",
                  "popularity": 0.9349924299772899,
                  "price": 4,
                  "rating": 7.9
            },
            {
                  "distance": 852,
                  "location": {
                        "address": "1315 Sainte-Catherine Rue E",
                        "country": "CA",
                        "cross_street": "entre Visitation et Panet",
                        "formatted_address": "1315 Sainte-Catherine Rue E (entre Visitation et Panet), Montr\u00e9al QC H2L 2H4",
                        "locality": "Montreal",
                        "postcode": "H2L 2H4",
                        "region": "QC"
                  },
                  "name": "Bar l'aigle Noir",
                  "popularity": 0.9607778198334594,
                  "price": 2,
                  "rating": 7.9
            },
            {
                  "distance": 489,
                  "location": {
                        "address": "1365 Ontario Rue E",
                        "country": "CA",
                        "formatted_address": "1365 Ontario Rue E, Montr\u00e9al QC H2L 1S2",
                        "locality": "Montreal",
                        "postcode": "H2L 1S2",
                        "region": "QC"
                  },
                  "name": "Poutineville",
                  "popularity": 0.9661241483724451,
                  "price": 2,
                  "rating": 7.9
            },
            {
                  "distance": 850,
                  "location": {
                        "address": "1326 Sainte-Catherine Rue E",
                        "country": "CA",
                        "cross_street": "Entre les rues Panet et de la Visitation",
                        "formatted_address": "1326 Sainte-Catherine Rue E (Entre les rues Panet et de la Visitation), Montr\u00e9al QC H2L 2H5",
                        "locality": "Montreal",
                        "postcode": "H2L 2H5",
                        "region": "QC"
                  },
                  "name": "Restaurant Mozza P\u00e2tes et Passions Inc",
                  "popularity": 0.815717259651779,
                  "price": 3,
                  "rating": 7.7
            },
            {
                  "distance": 882,
                  "location": {
                        "address": "1030 Cherrier Rue",
                        "country": "CA",
                        "cross_street": "at Parc-Lafontaine Ave.",
                        "formatted_address": "1030 Cherrier Rue (at Parc-Lafontaine Ave.), Montr\u00e9al QC H2L 1H9",
                        "locality": "Montreal",
                        "postcode": "H2L 1H9",
                        "region": "QC"
                  },
                  "name": "Bistro T\u00f4t ou Tard",
                  "popularity": 0.9615821347464042,
                  "price": 1,
                  "rating": 7.7
            },
            {
                  "distance": 666,
                  "location": {
                        "address": "1812 Sainte-Catherine Rue E",
                        "country": "CA",
                        "cross_street": "Av Papineau",
                        "formatted_address": "1812 Sainte-Catherine Rue E (Av Papineau), Montr\u00e9al QC H2K 2H3",
                        "locality": "Montreal",
                        "postcode": "H2K 2H3",
                        "region": "QC"
                  },
                  "name": "Bar le Stud",
                  "popularity": 0.9814534443603331,
                  "price": 2,
                  "rating": 7.5
            },
            {
                  "distance": 487,
                  "location": {
                        "address": "2308 Ontario Rue E",
                        "country": "CA",
                        "cross_street": "",
                        "formatted_address": "2308 Ontario Rue E, Montr\u00e9al QC H2K 1W1",
                        "locality": "Montreal",
                        "postcode": "H2K 1W1",
                        "region": "QC"
                  },
                  "name": "Cr\u00e8merie Confiserie le Gourmandin",
                  "popularity": 0.8898679977289932,
                  "price": 1,
                  "rating": 7.4
            },
            {
                  "distance": 825,
                  "location": {
                        "address": "1333 Sainte-Catherine Rue E",
                        "country": "CA",
                        "cross_street": "coin Panet",
                        "formatted_address": "1333 Sainte-Catherine Rue E (coin Panet), Montr\u00e9al QC H2L 2H4",
                        "locality": "Montreal",
                        "postcode": "H2L 2H4",
                        "region": "QC"
                  },
                  "name": "Le Saloon Bistro Bar Inc",
                  "popularity": 0.9465721990915973,
                  "price": 2,
                  "rating": 7.3
            },
            {
                  "distance": 242,
                  "location": {
                        "address": "1652 Ontario Rue E",
                        "country": "CA",
                        "cross_street": "",
                        "formatted_address": "1652 Ontario Rue E, Montr\u00e9al QC H2L 1S7",
                        "locality": "Montreal",
                        "postcode": "H2L 1S7",
                        "region": "QC"
                  },
                  "name": "Dame Tartine D\u00e9jeuner et D\u00eener",
                  "popularity": 0.9304031037093111,
                  "price": 1,
                  "rating": 7.3
            },
            {
                  "distance": 872,
                  "location": {
                        "address": "1840 Amherst Rue",
                        "country": "CA",
                        "cross_street": "",
                        "formatted_address": "1840 Amherst Rue, Montr\u00e9al QC H2L 3L6",
                        "locality": "Montreal",
                        "postcode": "H2L 3L6",
                        "region": "QC"
                  },
                  "name": "Ti-Agrikol",
                  "popularity": 0.3280658591975776,
                  "price": 2,
                  "rating": 7.1
            },
            {
                  "distance": 68,
                  "location": {
                        "address": "1851 Ontario Rue E",
                        "country": "CA",
                        "cross_street": "Rue Cartier",
                        "formatted_address": "1851 Ontario Rue E (Rue Cartier), Montr\u00e9al QC H2K 1T6",
                        "locality": "Montreal",
                        "postcode": "H2K 1T6",
                        "region": "QC"
                  },
                  "name": "A Quinta",
                  "popularity": 0.9652488644965935,
                  "price": 2,
                  "rating": 7.0
            },
            {
                  "distance": 648,
                  "location": {
                        "address": "1870 Sainte-Catherine Rue E",
                        "country": "CA",
                        "cross_street": "coin Cartier",
                        "formatted_address": "1870 Sainte-Catherine Rue E (coin Cartier), Montr\u00e9al QC H2K 2H5",
                        "locality": "Montreal",
                        "postcode": "H2K 2H5",
                        "region": "QC"
                  },
                  "name": "Lafayette Hot Dog",
                  "popularity": 0.9246191332323997,
                  "price": 1,
                  "rating": 6.8
            },
            {
                  "distance": 802,
                  "location": {
                        "address": "1365 Sainte Catherine Rue E",
                        "country": "CA",
                        "cross_street": "",
                        "formatted_address": "1365 Sainte Catherine Rue E, Montr\u00e9al QC H2L 2H7",
                        "locality": "Montreal",
                        "postcode": "H2L 2H7",
                        "region": "QC"
                  },
                  "name": "District Video Lounge",
                  "popularity": 0.9562712906888721,
                  "price": 3,
                  "rating": 6.7
            },
            {
                  "distance": 938,
                  "location": {
                        "address": "1218 Sainte-Catherine Rue E",
                        "country": "CA",
                        "cross_street": "entre Beaudry et Montcalm",
                        "formatted_address": "1218 Sainte-Catherine Rue E (entre Beaudry et Montcalm), Montr\u00e9al QC H2L 2G9",
                        "locality": "Montreal",
                        "postcode": "H2L 2G9",
                        "region": "QC"
                  },
                  "name": "Le Date Karaok\u00e9",
                  "popularity": 0.9557508516275549,
                  "price": 2,
                  "rating": 6.6
            },
            {
                  "distance": 907,
                  "location": {
                        "address": "1663 Atateken Rue",
                        "country": "CA",
                        "cross_street": "",
                        "formatted_address": "1663 Atateken Rue, Montr\u00e9al QC H2L 3L4",
                        "locality": "Montreal",
                        "postcode": "H2L 3L4",
                        "region": "QC"
                  },
                  "name": "Restaurant Pho Viet",
                  "popularity": 0.9077048637395913,
                  "price": 2,
                  "rating": 6.5
            },
            {
                  "distance": 770,
                  "location": {
                        "address": "1453 Sainte-Catherine Rue E",
                        "country": "CA",
                        "cross_street": "",
                        "formatted_address": "1453 Sainte-Catherine Rue E, Montr\u00e9al QC H2L 2H9",
                        "locality": "Montreal",
                        "postcode": "H2L 2H9",
                        "region": "QC"
                  },
                  "name": "Toro Rosso",
                  "popularity": 0.9418645912187736,
                  "price": 4,
                  "rating": 6.3
            },
            {
                  "distance": 478,
                  "location": {
                        "address": "2033 Blvd de Maisonneuve Est Petro Canada",
                        "country": "CA",
                        "cross_street": "",
                        "formatted_address": "2033 Blvd de Maisonneuve Est Petro Canada, Montr\u00e9al QC H2K 4M2",
                        "locality": "Montreal",
                        "postcode": "H2K 4M2",
                        "region": "QC"
                  },
                  "name": "A&W Restaurant",
                  "popularity": 0.9394989591218774,
                  "price": 1,
                  "rating": 6.2,
                  "store_id": "5516"
            },
            {
                  "distance": 501,
                  "location": {
                        "address": "2155 Blvd de Maisonneuve Est",
                        "country": "CA",
                        "cross_street": "coin Delorimier",
                        "formatted_address": "2155 Blvd de Maisonneuve Est (coin Delorimier), Montr\u00e9al QC H2K 4S3",
                        "locality": "Montreal",
                        "postcode": "H2K 4S3",
                        "region": "QC"
                  },
                  "name": "Tim Hortons",
                  "popularity": 0.992631056018168,
                  "price": 1,
                  "rating": 6.1
            },
            {
                  "distance": 967,
                  "location": {
                        "address": "1101 Blvd de Maisonneuve Est",
                        "country": "CA",
                        "cross_street": "",
                        "formatted_address": "1101 Blvd de Maisonneuve Est, Montr\u00e9al QC H2L 1Z6",
                        "locality": "Montreal",
                        "postcode": "H2L 1Z6",
                        "region": "QC"
                  },
                  "name": "Le Blossom",
                  "popularity": 0.9020391748675246,
                  "price": 2,
                  "rating": 6.1
            },
            {
                  "distance": 656,
                  "location": {
                        "address": "1830 Sainte-Catherine Rue E",
                        "country": "CA",
                        "cross_street": "Cartier",
                        "formatted_address": "1830 Sainte-Catherine Rue E (Cartier), Montr\u00e9al QC H2K 2H3",
                        "locality": "Montreal",
                        "postcode": "H2K 2H3",
                        "region": "QC"
                  },
                  "name": "Restaurant Pho an Nam",
                  "popularity": 0.9299299772899319,
                  "price": 2,
                  "rating": 6.0
            },
            {
                  "distance": 972,
                  "location": {
                        "address": "1200 Sainte-Catherine Rue E",
                        "country": "CA",
                        "cross_street": "",
                        "formatted_address": "1200 Sainte-Catherine Rue E, Montr\u00e9al QC H2L 2G9",
                        "locality": "Montreal",
                        "postcode": "H2L 2G9",
                        "region": "QC"
                  },
                  "name": "A&W Restaurant",
                  "popularity": 0.9603520060560181,
                  "price": 1,
                  "rating": 5.8,
                  "store_id": "5582"
            },
            {
                  "distance": 529,
                  "location": {
                        "address": "1950 Blvd de Maisonneuve Est",
                        "country": "CA",
                        "cross_street": "",
                        "formatted_address": "1950 Blvd de Maisonneuve Est, Montr\u00e9al QC H2K 2C8",
                        "locality": "Montreal",
                        "postcode": "H2K 2C8",
                        "region": "QC"
                  },
                  "name": "Bar Taboo",
                  "popularity": 0.9578326078728236,
                  "price": 2,
                  "rating": 5.8
            },
            {
                  "distance": 989,
                  "location": {
                        "address": "2700 Ontario Rue E",
                        "country": "CA",
                        "cross_street": "Bercy",
                        "formatted_address": "2700 Ontario Rue E (Bercy), Montr\u00e9al QC H2K 1W9",
                        "locality": "Montreal",
                        "postcode": "H2K 1W9",
                        "region": "QC"
                  },
                  "name": "Tim Hortons",
                  "popularity": 0.967791919000757,
                  "price": 1,
                  "rating": 5.6
            },
            {
                  "distance": 192,
                  "location": {
                        "address": "2010 Papineau Ave",
                        "country": "CA",
                        "cross_street": "coin Ontario",
                        "formatted_address": "2010 Papineau Ave (coin Ontario), Montr\u00e9al QC H2K 4J4",
                        "locality": "Montreal",
                        "postcode": "H2K 4J4",
                        "region": "QC"
                  },
                  "name": "McDonald's",
                  "popularity": 0.9692586109008327,
                  "price": 1,
                  "rating": 4.9,
                  "store_id": "23293"
            },
            {
                  "distance": 912,
                  "location": {
                        "address": "2600 Ontario Rue E",
                        "country": "CA",
                        "cross_street": "coin Du Havre",
                        "formatted_address": "2600 Ontario Rue E (coin Du Havre), Montr\u00e9al QC H2K 4K4",
                        "locality": "Montreal",
                        "postcode": "H2K 4K4",
                        "region": "QC"
                  },
                  "name": "McDonald's",
                  "popularity": 0.9883729182437547,
                  "price": 1,
                  "rating": 4.6,
                  "store_id": "10089"
            },
            {
                  "distance": 107,
                  "location": {
                        "address": "1821 Ontario Rue E",
                        "country": "CA",
                        "cross_street": "Goulet",
                        "formatted_address": "1821 Ontario Rue E (Goulet), Montr\u00e9al QC H2K 1T6",
                        "locality": "Montreal",
                        "postcode": "H2K 1T6",
                        "region": "QC"
                  },
                  "name": "Pizza City",
                  "popularity": 0.8540641559424679,
                  "price": 1
            },
            {
                  "distance": 453,
                  "location": {
                        "address": "1560 Sherbrooke Rue E",
                        "country": "CA",
                        "cross_street": "",
                        "formatted_address": "1560 Sherbrooke Rue E, Montr\u00e9al QC H2L 4M1",
                        "locality": "Montreal",
                        "postcode": "H2L 4M1",
                        "region": "QC"
                  },
                  "name": "Br\u00fblerie St-Denis",
                  "popularity": 0.9073855034065103,
                  "price": 1
            },
            {
                  "distance": 498,
                  "location": {
                        "address": "1345B Ontario Rue E",
                        "country": "CA",
                        "cross_street": "",
                        "formatted_address": "1345B Ontario Rue E, Montr\u00e9al QC H2L 1R8",
                        "locality": "Montreal",
                        "postcode": "H2L 1R8",
                        "region": "QC"
                  },
                  "name": "Usine Grecque",
                  "popularity": 0.8532361847085541,
                  "price": 2
            },
            {
                  "distance": 583,
                  "location": {
                        "address": "1470 Rue de Champlain",
                        "country": "CA",
                        "cross_street": "",
                        "formatted_address": "1470 Rue de Champlain, Montr\u00e9al QC H2L 2B3",
                        "locality": "Montreal",
                        "postcode": "H2L 2B3",
                        "region": "QC"
                  },
                  "name": "Caf\u00e9 l'interm\u00e8de",
                  "popularity": 0.7469601627554883,
                  "price": 1
            }
      ],
      "context": {
            "geo_bounds": {
                  "circle": {
                        "center": {
                              "latitude": 45.52699128,
                              "longitude": -73.55821162
                        },
                        "radius": 1000
                  }
            }
      }
}