{
      "results": [
            {
                  "distance": 835,
                  "location": {
                        "address": "360 Saint-Jacques Rue",
                        "country": "CA",
                        "cross_street": "",
                        "formatted_address": "360 Saint-Jacques Rue, Montr\u00e9al QC H2Y 1P5",
                        "locality": "Montreal",
                        "postcode": "H2Y 1P5",
                        "region": "QC"
                  },
                  "name": "Crew Collective & Caf\u00e9",
                  "popularity": 0.9824115253595761,
                  "price": 1,
                  "rating": 9.3
            },
            {
                  "distance": 469,
                  "location": {
                        "address": "195 Young Rue",
                        "country": "CA",
                        "cross_street": "entre Ottawa & Wellington",
                        "formatted_address": "195 Young Rue (entre Ottawa & Wellington), Montr\u00e9al QC H3C 2E9",
                        "locality": "Montreal",
                        "postcode": "H3C 2E9",
                        "region": "QC"
                  },
                  "name": "La B\u00eate \u00e0 Pain",
                  "popularity": 0.967153198334595,
                  "price": 1,
                  "rating": 9.3
            },
            {
                  "distance": 851,
                  "location": {
                        "address": "351 Saint-Paul Rue O",
                        "country": "CA",
                        "cross_street": "Coin St-Pierre",
                        "formatted_address": "351 Saint-Paul Rue O (Coin St-Pierre), Montr\u00e9al QC H2Y 2A7",
                        "locality": "Montreal",
                        "postcode": "H2Y 2A7",
                        "region": "QC"
                  },
                  "name": "Olive & Gourmando",
                  "popularity": 0.9503217259651779,
                  "price": 2,
                  "rating": 9.2
            },
            {
                  "distance": 623,
                  "location": {
                        "address": "782 Wellington Rue",
                        "country": "CA",
                        "cross_street": "Prince",
                        "formatted_address": "782 Wellington Rue (Prince), Montr\u00e9al QC H3C 1T7",
                        "locality": "Montreal",
                        "postcode": "H3C 1T7",
                        "region": "QC"
                  },
                  "name": "Monopole",
                  "popularity": 0.9502389288417865,
                  "price": 1,
                  "rating": 9.0
            },
            {
                  "distance": 866,
                  "location": {
                        "address": "312 Saint-Paul Rue O",
                        "country": "CA",
                        "cross_street": "Saint-Pierre",
                        "formatted_address": "312 Saint-Paul Rue O (Saint-Pierre), Montr\u00e9al QC H2Y 2A3",
                        "locality": "Montreal",
                        "postcode": "H2Y 2A3",
                        "region": "QC"
                  },
                  "name": "Barroco",
                  "popularity": 0.9301901968205905,
                  "price": 4,
                  "rating": 9.0
            },
            {
                  "distance": 929,
                  "location": {
                        "address": "425 Saint Nicolas Rue",
                        "country": "CA",
                        "cross_street": "",
                        "formatted_address": "425 Saint Nicolas Rue, Montr\u00e9al QC H2Y 2P4",
                        "locality": "Montreal",
                        "postcode": "H2Y 2P4",
                        "region": "QC"
                  },
                  "name": "Mandy's",
                  "popularity": 0.9572175435276306,
                  "price": 1,
                  "rating": 9.0
            },
            {
                  "distance": 762,
                  "location": {
                        "address": "1206 Stanley Rue",
                        "country": "CA",
                        "cross_street": "entre Ren\u00e9-L\u00e9vesque & Ste-Catherine",
                        "formatted_address": "1206 Stanley Rue (entre Ren\u00e9-L\u00e9vesque & Ste-Catherine), Montr\u00e9al QC H3B 2S7",
                        "locality": "Montreal",
                        "postcode": "H3B 2S7",
                        "region": "QC"
                  },
                  "name": "Melk Bar a Caf\u00e9",
                  "popularity": 0.9670704012112036,
                  "price": 2,
                  "rating": 9.0
            },
            {
                  "distance": 818,
                  "location": {
                        "address": "363 d'Youville Pl",
                        "country": "CA",
                        "cross_street": "St Pierre et McGill",
                        "formatted_address": "363 d'Youville Pl (St Pierre et McGill), Montr\u00e9al QC H2Y 2B7",
                        "locality": "Montreal",
                        "postcode": "H2Y 2B7",
                        "region": "QC"
                  },
                  "name": "Deli Italien Bello",
                  "popularity": 0.9035058667676003,
                  "price": 2,
                  "rating": 8.9
            },
            {
                  "distance": 673,
                  "location": {
                        "address": "460 McGill Rue",
                        "country": "CA",
                        "cross_street": "",
                        "formatted_address": "460 McGill Rue, Montr\u00e9al QC H2Y 2H2",
                        "locality": "Montreal",
                        "postcode": "H2Y 2H2",
                        "region": "QC"
                  },
                  "name": "Structure Torr\u00e9facteurs - Structure Coffee Roasters",
                  "popularity": 0.9362343868281605,
                  "price": 1,
                  "rating": 8.6
            },
            {
                  "distance": 904,
                  "location": {
                        "address": "1116 Sainte-Catherine Rue O",
                        "country": "CA",
                        "cross_street": "Peel",
                        "formatted_address": "1116 Sainte-Catherine Rue O (Peel), Montr\u00e9al QC H3B 1H4",
                        "locality": "Montreal",
                        "postcode": "H3B 1H4",
                        "region": "QC"
                  },
                  "name": "Reuben's Deli",
                  "popularity": 0.9828136828160484,
                  "price": 2,
                  "rating": 8.6
            },
            {
                  "distance": 940,
                  "location": {
                        "address": "1255 Crescent Rue",
                        "country": "CA",
                        "cross_street": "Sainte-Catherine",
                        "formatted_address": "1255 Crescent Rue (Sainte-Catherine), Montr\u00e9al QC H3G 2B1",
                        "locality": "Montreal",
                        "postcode": "H3G 2B1",
                        "region": "QC"
                  },
                  "name": "Gyu-Kaku BBQ",
                  "popularity": 0.9762253974261923,
                  "price": 2,
                  "rating": 8.6,
                  "store_id": "14142"
            },
            {
                  "distance": 693,
                  "location": {
                        "address": "433 McGill Rue",
                        "country": "CA",
                        "cross_street": "St-Maurice",
                        "formatted_address": "433 McGill Rue (St-Maurice), Montr\u00e9al QC H2Y 2H1",
                        "locality": "Montreal",
                        "postcode": "H2Y 2H1",
                        "region": "QC"
                  },
                  "name": "Brit & Chips",
                  "popularity": 0.9405280090840272,
                  "price": 2,
                  "rating": 8.6
            },
            {
                  "distance": 232785,
                  "location": {
                        "address": "363 d'Youville Pl",
                        "country": "CA",
                        "cross_street": "",
                        "formatted_address": "363 d'Youville Pl, Montreal QC H2Y 2B7",
                        "locality": "Qu\u00e9bec",
                        "postcode": "H2Y 2B7",
                        "region": "QC"
                  },
                  "name": "Bello Deli",
                  "popularity": 0.9531404375441073,
                  "price": 2,
                  "rating": 8.5
            },
            {
                  "distance": 656,
                  "location": {
                        "address": "1485 Ottawa Rue",
                        "country": "CA",
                        "cross_street": "coin Guy",
                        "formatted_address": "1485 Ottawa Rue (coin Guy), Montr\u00e9al QC H3C 1S9",
                        "locality": "Montreal",
                        "postcode": "H3C 1S9",
                        "region": "QC"
                  },
                  "name": "Brasseur de Montr\u00e9al",
                  "popularity": 0.9854750189250567,
                  "price": 2,
                  "rating": 8.5
            },
            {
                  "distance": 816,
                  "location": {
                        "address": "1224 Drummond Rue",
                        "country": "CA",
                        "cross_street": "",
                        "formatted_address": "1224 Drummond Rue, Montr\u00e9al QC H3G 1V7",
                        "locality": "Montreal",
                        "postcode": "H3G 1V7",
                        "region": "QC"
                  },
                  "name": "Restaurant Medusa",
                  "popularity": 0.9541895344436033,
                  "price": 2,
                  "rating": 8.3
            },
            {
                  "distance": 802,
                  "location": {
                        "address": "1189 Rue de la Montagne",
                        "country": "CA",
                        "cross_street": "at Ren\u00e9-Levesque",
                        "formatted_address": "1189 Rue de la Montagne (at Ren\u00e9-Levesque), Montr\u00e9al QC H3G 1Z2",
                        "locality": "Montreal",
                        "postcode": "H3G 1Z2",
                        "region": "QC"
                  },
                  "name": "Ye Olde Orchard Pub & Grill",
                  "popularity": 0.9698855034065103,
                  "price": 2,
                  "rating": 8.3
            },
            {
                  "distance": 963,
                  "location": {
                        "address": "1255 Bishop Rue",
                        "country": "CA",
                        "cross_street": "",
                        "formatted_address": "1255 Bishop Rue, Montr\u00e9al QC H3G 2E2",
                        "locality": "Montreal",
                        "postcode": "H3G 2E2",
                        "region": "QC"
                  },
                  "name": "C'Cho-Colat",
                  "popularity": 0.9571110900832702,
                  "price": 1,
                  "rating": 8.2
            },
            {
                  "distance": 386,
                  "location": {
                        "address": "300 Rue de la Montagne",
                        "country": "CA",
                        "cross_street": "Rue Du Seminaire",
                        "formatted_address": "300 Rue de la Montagne (Rue Du Seminaire), Montr\u00e9al QC H3C 2B1",
                        "locality": "Montreal",
                        "postcode": "H3C 2B1",
                        "region": "QC"
                  },
                  "name": "Le Petit Dep",
                  "popularity": 0.9751963474640424,
                  "price": 1,
                  "rating": 8.2
            },
            {
                  "distance": 976,
                  "location": {
                        "address": "1356 Sainte-Catherine Rue O",
                        "country": "CA",
                        "cross_street": "coin Crescent",
                        "formatted_address": "1356 Sainte-Catherine Rue O (coin Crescent), Montr\u00e9al QC H3G 1P6",
                        "locality": "Montreal",
                        "postcode": "H3G 1P6",
                        "region": "QC"
                  },
                  "name": "Les 3 Brasseurs",
                  "popularity": 0.9850728614685844,
                  "price": 2,
                  "rating": 8.2
            },
            {
                  "distance": 646,
                  "location": {
                        "address": "468 McGill Rue",
                        "country": "CA",
                        "cross_street": "",
                        "formatted_address": "468 McGill Rue, Montr\u00e9al QC H2Y 2H2",
                        "locality": "Montreal",
                        "postcode": "H2Y 2H2",
                        "region": "QC"
                  },
                  "name": "Five Guys Burgers & Fries",
                  "popularity": 0.9749361279333838,
                  "price": 2,
                  "rating": 8.2,
                  "store_id": "1281"
            },
            {
                  "distance": 944,
                  "location": {
                        "address": "1850 Notre-Dame Rue O",
                        "country": "CA",
                        "cross_street": "Rue des Seigneurs",
                        "formatted_address": "1850 Notre-Dame Rue O (Rue des Seigneurs), Montr\u00e9al QC H3J 1M5",
                        "locality": "Montreal",
                        "postcode": "H3J 1M5",
                        "region": "QC"
                  },
                  "name": "Caf\u00e9 Lali",
                  "popularity": 0.9049134178652536,
                  "price": 1,
                  "rating": 8.1
            },
            {
                  "distance": 791,
                  "location": {
                        "address": "626 Marguerite d'Youville Rue",
                        "country": "CA",
                        "cross_street": "",
                        "formatted_address": "626 Marguerite d'Youville Rue, Montr\u00e9al QC H3C 1W7",
                        "locality": "Montreal",
                        "postcode": "H3C 1W7",
                        "region": "QC"
                  },
                  "name": "Jellyfish Crudo+Charbon",
                  "popularity": 0.9344601627554883,
                  "price": 3,
                  "rating": 8.1
            },
            {
                  "distance": 569,
                  "location": {
                        "address": "100 Peel Rue",
                        "country": "CA",
                        "cross_street": "coin Smith",
                        "formatted_address": "100 Peel Rue (coin Smith), Montr\u00e9al QC H3C 0L8",
                        "locality": "Montreal",
                        "postcode": "H3C 0L8",
                        "region": "QC"
                  },
                  "name": "Zibo",
                  "popularity": 0.9744275170325511,
                  "price": 2,
                  "rating": 8.1
            },
            {
                  "distance": 935,
                  "location": {
                        "address": "1250 Robert-Bourassa Blvd",
                        "country": "CA",
                        "cross_street": "",
                        "formatted_address": "1250 Robert-Bourassa Blvd, Montr\u00e9al QC H3B 3B8",
                        "locality": "Montreal",
                        "postcode": "H3B 3B8",
                        "region": "QC"
                  },
                  "name": "Le East",
                  "popularity": 0.9653316616199848,
                  "price": 2,
                  "rating": 8.1
            },
            {
                  "distance": 750,
                  "location": {
                        "address": "1325 Blvd Ren\u00e9-L\u00e9vesque O",
                        "country": "CA",
                        "cross_street": "",
                        "formatted_address": "1325 Blvd Ren\u00e9-L\u00e9vesque O, Montr\u00e9al QC H3G 0A1",
                        "locality": "Montreal",
                        "postcode": "H3G 0A1",
                        "region": "QC"
                  },
                  "name": "Siam",
                  "popularity": 0.9710564912944739,
                  "price": 2,
                  "rating": 8.0
            },
            {
                  "distance": 513,
                  "location": {
                        "address": "1059 Wellington Rue",
                        "country": "CA",
                        "cross_street": "Rue Peel",
                        "formatted_address": "1059 Wellington Rue (Rue Peel), Montr\u00e9al QC H3C 1V6",
                        "locality": "Montreal",
                        "postcode": "H3C 1V6",
                        "region": "QC"
                  },
                  "name": "Pizzeria Moretti",
                  "popularity": 0.965237036336109,
                  "price": 2,
                  "rating": 8.0
            },
            {
                  "distance": 949,
                  "location": {
                        "address": "732 Sainte-Catherine Rue O",
                        "country": "CA",
                        "cross_street": "McGill Av.",
                        "formatted_address": "732 Sainte-Catherine Rue O (McGill Av.), Montr\u00e9al QC H3B 1B9",
                        "locality": "Montreal",
                        "postcode": "H3B 1B9",
                        "region": "QC"
                  },
                  "name": "Les 3 Brasseurs",
                  "popularity": 0.9831566994700984,
                  "price": 2,
                  "rating": 8.0
            },
            {
                  "distance": 961,
                  "location": {
                        "address": "230 Saint-Paul Rue O",
                        "country": "CA",
                        "cross_street": "Rue St-Nicolas",
                        "formatted_address": "230 Saint-Paul Rue O (Rue St-Nicolas), Montr\u00e9al QC H2Y 1Z9",
                        "locality": "Montreal",
                        "postcode": "H2Y 1Z9",
                        "region": "QC"
                  },
                  "name": "Restaurant Gandhi (restaurant Gandhi)",
                  "popularity": 0.9266299205147616,
                  "price": 3,
                  "rating": 7.9
            },
            {
                  "distance": 681,
                  "location": {
                        "address": "1221 Rene-Levesque Blvd O",
                        "country": "CA",
                        "cross_street": "coin Drummond",
                        "formatted_address": "1221 Rene-Levesque Blvd O (coin Drummond), Montr\u00e9al QC H3G 1T1",
                        "locality": "Montreal",
                        "postcode": "H3G 1T1",
                        "region": "QC"
                  },
                  "name": "Bier Markt",
                  "popularity": 0.9826244322482968,
                  "price": 2,
                  "rating": 7.7,
                  "store_id": "4862"
            },
            {
                  "distance": 860,
                  "location": {
                        "address": "360 Saint-Antoine Rue O",
                        "country": "CA",
                        "cross_street": "Rue Saint Pierre",
                        "formatted_address": "360 Saint-Antoine Rue O (Rue Saint Pierre), Montreal QC H2Y 3X4",
                        "locality": "Montreal",
                        "postcode": "H2Y 3X4",
                        "region": "QC"
                  },
                  "name": "Sarah B. Bar Absinthe",
                  "popularity": 0.9571229182437547,
                  "price": 2,
                  "rating": 7.7
            },
            {
                  "distance": 918,
                  "location": {
                        "address": "1198 Sainte-Catherine Rue O",
                        "country": "CA",
                        "formatted_address": "1198 Sainte-Catherine Rue O, Montr\u00e9al QC H3B 1K1",
                        "locality": "Montreal",
                        "postcode": "H3B 1K1",
                        "region": "QC"
                  },
                  "name": "Mister Steer Restaurant",
                  "popularity": 0.9775974640423921,
                  "price": 1,
                  "rating": 7.7
            },
            {
                  "distance": 801,
                  "location": {
                        "address": "1 Ville-Marie Pl",
                        "country": "CA",
                        "cross_street": "Robert-Bourassa",
                        "formatted_address": "1 Ville-Marie Pl (Robert-Bourassa), Montr\u00e9al QC H3B 2C4",
                        "locality": "Montreal",
                        "postcode": "H3B 2C4",
                        "region": "QC"
                  },
                  "name": "Les Enfants Terribles",
                  "popularity": 0.9822814155942468,
                  "price": 3,
                  "rating": 7.7
            },
            {
                  "distance": 907,
                  "location": {
                        "address": "1225 Crescent Rue",
                        "country": "CA",
                        "cross_street": "btwn Ren\u00e9-L\u00e9vesque O & Sainte-Catherine O",
                        "formatted_address": "1225 Crescent Rue (btwn Ren\u00e9-L\u00e9vesque O & Sainte-Catherine O), Montr\u00e9al QC H3G 2B1",
                        "locality": "Montreal",
                        "postcode": "H3G 2B1",
                        "region": "QC"
                  },
                  "name": "Hurley's Irish Pub",
                  "popularity": 0.9727242619227857,
                  "price": 2,
                  "rating": 7.7
            },
            {
                  "distance": 585,
                  "location": {
                        "address": "1265 des Canadiens-De-Montreal Ave",
                        "country": "CA",
                        "cross_street": "",
                        "formatted_address": "1265 des Canadiens-De-Montreal Ave, Montr\u00e9al QC H3B 0G6",
                        "locality": "Montreal",
                        "postcode": "H3B 0G6",
                        "region": "QC"
                  },
                  "name": "Starbucks",
                  "popularity": 0.9798684708554126,
                  "price": 1,
                  "rating": 7.7,
                  "store_id": "1016766"
            },
            {
                  "distance": 860,
                  "location": {
                        "address": "1249 Metcalfe Rue",
                        "country": "CA",
                        "cross_street": "entre Sainte-Catherine Ouest et Square Dorchester",
                        "formatted_address": "1249 Metcalfe Rue (entre Sainte-Catherine Ouest et Square Dorchester), Montr\u00e9al QC H3B 2V5",
                        "locality": "Montreal",
                        "postcode": "H3B 2V5",
                        "region": "QC"
                  },
                  "name": "Dunn's Famous",
                  "popularity": 0.9749716124148372,
                  "price": 2,
                  "rating": 7.6
            }
      ],
      "context": {
            "geo_bounds": {
                  "circle": {
                        "center": {
                              "latitude": 45.49544692,
                              "longitude": -73.56329441
                        },
                        "radius": 1000
                  }
            }
      }
}