{
      "results": [
            {
                  "distance": 662,
                  "location": {
                        "address": "322 Ave du Mont-Royal Est",
                        "country": "CA",
                        "cross_street": "coin Drolet",
                        "formatted_address": "322 Ave du Mont-Royal Est (coin Drolet), Montr\u00e9al QC H2T 1P7",
                        "locality": "Montreal",
                        "postcode": "H2T 1P7",
                        "region": "QC"
                  },
                  "name": "Au Kouign-Amann",
                  "popularity": 0.9501206472369417,
                  "price": 2,
                  "rating": 9.2
            },
            {
                  "distance": 664,
                  "location": {
                        "address": "9 Fairmount Ave E",
                        "country": "CA",
                        "cross_street": "coin Fairmount",
                        "formatted_address": "9 Fairmount Ave E (coin Fairmount), Montr\u00e9al QC H2T 1C7",
                        "locality": "Montreal",
                        "postcode": "H2T 1C7",
                        "region": "QC"
                  },
                  "name": "Larry's",
                  "popularity": 0.9267955147615443,
                  "price": 2,
                  "rating": 9.2
            },
            {
                  "distance": 473,
                  "location": {
                        "address": "4627 Saint-Denis Rue",
                        "country": "CA",
                        "cross_street": "",
                        "formatted_address": "4627 Saint-Denis Rue, Montr\u00e9al QC H2J 2L4",
                        "locality": "Montreal",
                        "postcode": "H2J 2L4",
                        "region": "QC"
                  },
                  "name": "Caf\u00e9 Myriade - le Plateau",
                  "popularity": 0.9432603141559425,
                  "price": 1,
                  "rating": 9.1
            },
            {
                  "distance": 130,
                  "location": {
                        "address": "809 Laurier Ave E",
                        "country": "CA",
                        "formatted_address": "809 Laurier Ave E, Montr\u00e9al QC H2J 1G2",
                        "locality": "Montreal",
                        "postcode": "H2J 1G2",
                        "region": "QC"
                  },
                  "name": "Fous Desserts",
                  "popularity": 0.9535389856169568,
                  "rating": 9.0
            },
            {
                  "distance": 402,
                  "location": {
                        "address": "4690 Saint-Denis Rue",
                        "country": "CA",
                        "formatted_address": "4690 Saint-Denis Rue, Montr\u00e9al QC H2J 2L3",
                        "locality": "Montreal",
                        "postcode": "H2J 2L3",
                        "region": "QC"
                  },
                  "name": "Ouzeri",
                  "popularity": 0.9096801665404997,
                  "price": 2,
                  "rating": 9.0
            },
            {
                  "distance": 779,
                  "location": {
                        "address": "4631 Saint-Laurent Blvd",
                        "country": "CA",
                        "cross_street": "entre Mont-Royal & Villeneuve",
                        "formatted_address": "4631 Saint-Laurent Blvd (entre Mont-Royal & Villeneuve), Montr\u00e9al QC H2T 1R2",
                        "locality": "Montreal",
                        "postcode": "H2T 1R2",
                        "region": "QC"
                  },
                  "name": "Aux Vivres",
                  "popularity": 0.9429054693414081,
                  "price": 2,
                  "rating": 9.0
            },
            {
                  "distance": 845,
                  "location": {
                        "address": "1266 Ave du Mont-Royal Est",
                        "country": "CA",
                        "cross_street": "entre Br\u00e9beuf & Chambord",
                        "formatted_address": "1266 Ave du Mont-Royal Est (entre Br\u00e9beuf & Chambord), Montr\u00e9al QC H2J 1Y3",
                        "locality": "Montreal",
                        "postcode": "H2J 1Y3",
                        "region": "QC"
                  },
                  "name": "Point G",
                  "popularity": 0.9041800719152158,
                  "price": 1,
                  "rating": 8.9
            },
            {
                  "distance": 864,
                  "location": {
                        "address": "4524 Saint-Laurent Blvd",
                        "country": "CA",
                        "cross_street": "coin Mont-Royal",
                        "formatted_address": "4524 Saint-Laurent Blvd (coin Mont-Royal), Montr\u00e9al QC H2T 1R3",
                        "locality": "Montreal",
                        "postcode": "H2T 1R3",
                        "region": "QC"
                  },
                  "name": "Hof Kelsten",
                  "popularity": 0.9274578917486752,
                  "price": 2,
                  "rating": 8.8
            },
            {
                  "distance": 733,
                  "location": {
                        "address": "1127 Ave du Mont-Royal Est",
                        "country": "CA",
                        "cross_street": "coin Christophe-Colomb",
                        "formatted_address": "1127 Ave du Mont-Royal Est (coin Christophe-Colomb), Montr\u00e9al QC H2J 1X9",
                        "locality": "Montreal",
                        "postcode": "H2J 1X9",
                        "region": "QC"
                  },
                  "name": "St-Viateur Bagel & Cafe",
                  "popularity": 0.9727715745647237,
                  "price": 1,
                  "rating": 8.7
            },
            {
                  "distance": 747,
                  "location": {
                        "address": "5605 Ave de Gasp\u00e9",
                        "country": "CA",
                        "cross_street": "coin St-Viateur Est",
                        "formatted_address": "5605 Ave de Gasp\u00e9 (coin St-Viateur Est), Montr\u00e9al QC H2T 2A4",
                        "locality": "Montreal",
                        "postcode": "H2T 2A4",
                        "region": "QC"
                  },
                  "name": "Caf\u00e9 Falco",
                  "popularity": 0.942952781983346,
                  "price": 2,
                  "rating": 8.7
            },
            {
                  "distance": 923,
                  "location": {
                        "address": "54 Saint-Viateur Rue O",
                        "country": "CA",
                        "cross_street": "",
                        "formatted_address": "54 Saint-Viateur Rue O, Montr\u00e9al QC H2T 2K8",
                        "locality": "Montreal",
                        "postcode": "H2T 2K8",
                        "region": "QC"
                  },
                  "name": "Falafel Yoni",
                  "popularity": 0.9097038228614686,
                  "price": 1,
                  "rating": 8.6
            },
            {
                  "distance": 758,
                  "location": {
                        "address": "4653 Saint-Laurent Blvd",
                        "country": "CA",
                        "cross_street": "angle Villeneuve",
                        "formatted_address": "4653 Saint-Laurent Blvd (angle Villeneuve), Montr\u00e9al QC H2T 1R2",
                        "locality": "Montreal",
                        "postcode": "H2T 1R2",
                        "region": "QC"
                  },
                  "name": "Robin des Bois",
                  "popularity": 0.8559093489780469,
                  "price": 1,
                  "rating": 8.6
            },
            {
                  "distance": 920,
                  "location": {
                        "address": "52 Saint-Viateur Rue O",
                        "country": "CA",
                        "cross_street": "",
                        "formatted_address": "52 Saint-Viateur Rue O, Montr\u00e9al QC H2T 2K8",
                        "locality": "Montreal",
                        "postcode": "H2T 2K8",
                        "region": "QC"
                  },
                  "name": "Bishop & Bagg",
                  "popularity": 0.9365064345193036,
                  "price": 2,
                  "rating": 8.6
            },
            {
                  "distance": 470,
                  "location": {
                        "address": "1059 Gilford Rue",
                        "country": "CA",
                        "cross_street": "Christophe-Colomb",
                        "formatted_address": "1059 Gilford Rue (Christophe-Colomb), Montr\u00e9al QC H2J 1P7",
                        "locality": "Montreal",
                        "postcode": "H2J 1P7",
                        "region": "QC"
                  },
                  "name": "Restaurant la Raclette",
                  "popularity": 0.9396527252081757,
                  "price": 3,
                  "rating": 8.5
            },
            {
                  "distance": 681,
                  "location": {
                        "address": "4449 Rue de Mentana",
                        "country": "CA",
                        "cross_street": "Avenue du Mont-Royal",
                        "formatted_address": "4449 Rue de Mentana (Avenue du Mont-Royal), Montr\u00e9al QC H2J 3B4",
                        "locality": "Montreal",
                        "postcode": "H2J 3B4",
                        "region": "QC"
                  },
                  "name": "Tampopo",
                  "popularity": 0.8850539364118092,
                  "price": 2,
                  "rating": 8.5
            },
            {
                  "distance": 647,
                  "location": {
                        "address": "922 Ave du Mont-Royal Est",
                        "country": "CA",
                        "cross_street": "entre St-Andr\u00e9 & De Mentana",
                        "formatted_address": "922 Ave du Mont-Royal Est (entre St-Andr\u00e9 & De Mentana), Montr\u00e9al QC H2J 1X2",
                        "locality": "Montreal",
                        "postcode": "H2J 1X2",
                        "region": "QC"
                  },
                  "name": "Restaurant l'Avenue",
                  "popularity": 0.9553132096896291,
                  "price": 2,
                  "rating": 8.4
            },
            {
                  "distance": 636,
                  "location": {
                        "address": "351 Ave du Mont-Royal E",
                        "country": "CA",
                        "cross_street": "",
                        "formatted_address": "351 Ave du Mont-Royal E, Montr\u00e9al QC H2T 1R1",
                        "locality": "Montreal",
                        "postcode": "H2T 1R1",
                        "region": "QC"
                  },
                  "name": "Le Toledo",
                  "popularity": 0.9615111657834974,
                  "price": 1,
                  "rating": 8.4
            },
            {
                  "distance": 980,
                  "location": {
                        "address": "4720 Marquette Rue",
                        "country": "CA",
                        "cross_street": "coin Gilford",
                        "formatted_address": "4720 Marquette Rue (coin Gilford), Montr\u00e9al QC H2J 3Y6",
                        "locality": "Montreal",
                        "postcode": "H2J 3Y6",
                        "region": "QC"
                  },
                  "name": "Maison Publique",
                  "popularity": 0.9193674299772899,
                  "price": 3,
                  "rating": 8.4
            },
            {
                  "distance": 672,
                  "location": {
                        "address": "5207 Saint-Laurent Blvd",
                        "country": "CA",
                        "cross_street": "",
                        "formatted_address": "5207 Saint-Laurent Blvd, Montr\u00e9al QC H2T 1S4",
                        "locality": "Montreal",
                        "postcode": "H2T 1S4",
                        "region": "QC"
                  },
                  "name": "Tsukuyomi Ramen",
                  "popularity": 0.9078113171839516,
                  "rating": 8.3
            },
            {
                  "distance": 228,
                  "location": {
                        "address": "351 Laurier Ave E",
                        "country": "CA",
                        "cross_street": "coin Drolet",
                        "formatted_address": "351 Laurier Ave E (coin Drolet), Montr\u00e9al QC H2T 1G7",
                        "locality": "Montreal",
                        "postcode": "H2T 1G7",
                        "region": "QC"
                  },
                  "name": "Restaurant Chez Claudette",
                  "popularity": 0.9536454390613172,
                  "price": 1,
                  "rating": 8.3
            },
            {
                  "distance": 673,
                  "location": {
                        "address": "5150 St-Laurent Blvd",
                        "country": "CA",
                        "cross_street": "",
                        "formatted_address": "5150 St-Laurent Blvd, Montr\u00e9al QC H2T 1R8",
                        "locality": "Montreal",
                        "postcode": "H2T 1R8",
                        "region": "QC"
                  },
                  "name": "Cin\u00e9ma Moderne",
                  "popularity": 0.9271267032551098,
                  "price": 1,
                  "rating": 8.3
            },
            {
                  "distance": 742,
                  "location": {
                        "address": "4710 rue de Lanaudi\u00e8re",
                        "country": "CA",
                        "cross_street": "coin Gilford",
                        "formatted_address": "4710 rue de Lanaudi\u00e8re (coin Gilford), Montr\u00e9al QC H2J 3P7",
                        "locality": "Montreal",
                        "postcode": "H2J 3P7",
                        "region": "QC"
                  },
                  "name": "Le Chien Fumant",
                  "popularity": 0.9083435844057532,
                  "price": 3,
                  "rating": 8.2
            },
            {
                  "distance": 657,
                  "location": {
                        "address": "354 Ave du Mont-Royal Est",
                        "country": "CA",
                        "cross_street": "entre Drolet & St-Denis",
                        "formatted_address": "354 Ave du Mont-Royal Est (entre Drolet & St-Denis), Montr\u00e9al QC H2T 1P9",
                        "locality": "Montreal",
                        "postcode": "H2T 1P9",
                        "region": "QC"
                  },
                  "name": "Bily Kun",
                  "popularity": 0.927327781983346,
                  "price": 2,
                  "rating": 8.2
            },
            {
                  "distance": 863,
                  "location": {
                        "address": "1546 Laurier Ave E",
                        "country": "CA",
                        "cross_street": "Rue Fabre",
                        "formatted_address": "1546 Laurier Ave E (Rue Fabre), Montr\u00e9al QC H2J 1H9",
                        "locality": "Montreal",
                        "postcode": "H2J 1H9",
                        "region": "QC"
                  },
                  "name": "Caf\u00e9 M\u00e9chants Pinsons",
                  "popularity": 0.9265707797123391,
                  "price": 1,
                  "rating": 8.1
            },
            {
                  "distance": 739,
                  "location": {
                        "address": "34 Fairmount Ave O",
                        "country": "CA",
                        "cross_street": "coin Clark",
                        "formatted_address": "34 Fairmount Ave O (coin Clark), Montr\u00e9al QC H2T 2M1",
                        "locality": "Montreal",
                        "postcode": "H2T 2M1",
                        "region": "QC"
                  },
                  "name": "Wilensky's Light Lunch",
                  "popularity": 0.9229631907645723,
                  "price": 1,
                  "rating": 8.1
            },
            {
                  "distance": 848,
                  "location": {
                        "address": "115 Laurier Ave O",
                        "country": "CA",
                        "cross_street": "entre St-Urbain & De l'Esplanade",
                        "formatted_address": "115 Laurier Ave O (entre St-Urbain & De l'Esplanade), Montr\u00e9al QC H2T 2N6",
                        "locality": "Montreal",
                        "postcode": "H2T 2N6",
                        "region": "QC"
                  },
                  "name": "Bar Henrietta",
                  "popularity": 0.9364591218773657,
                  "price": 2,
                  "rating": 8.1
            },
            {
                  "distance": 632,
                  "location": {
                        "address": "860 Ave du Mont-Royal Est",
                        "country": "CA",
                        "cross_street": "coin Saint-Andr\u00e9",
                        "formatted_address": "860 Ave du Mont-Royal Est (coin Saint-Andr\u00e9), Montr\u00e9al QC H2J 1X1",
                        "locality": "Montreal",
                        "postcode": "H2J 1X1",
                        "region": "QC"
                  },
                  "name": "Boulangerie Premi\u00e8re Moisson",
                  "popularity": 0.9510787282361847,
                  "price": 1,
                  "rating": 8.0
            },
            {
                  "distance": 893,
                  "location": {
                        "address": "142 Fairmount Ave O",
                        "country": "CA",
                        "cross_street": "",
                        "formatted_address": "142 Fairmount Ave O, Montr\u00e9al QC H2T 2M5",
                        "locality": "Montreal",
                        "postcode": "H2T 2M5",
                        "region": "QC"
                  },
                  "name": "La Khaima",
                  "popularity": 0.9312310749432249,
                  "price": 2,
                  "rating": 8.0
            },
            {
                  "distance": 678,
                  "location": {
                        "address": "4873 Saint-Laurent Blvd",
                        "country": "CA",
                        "cross_street": "entre Villeneuve & St-Joseph",
                        "formatted_address": "4873 Saint-Laurent Blvd (entre Villeneuve & St-Joseph), Montr\u00e9al QC H2T 1R6",
                        "locality": "Montreal",
                        "postcode": "H2T 1R6",
                        "region": "QC"
                  },
                  "name": "Casa del Popolo",
                  "popularity": 0.9028789742619228,
                  "price": 2,
                  "rating": 8.0
            },
            {
                  "distance": 827,
                  "location": {
                        "address": "104 Laurier Ave O",
                        "country": "CA",
                        "formatted_address": "104 Laurier Ave O, Montr\u00e9al QC H2T 2N7",
                        "locality": "Montreal",
                        "postcode": "H2T 2N7",
                        "region": "QC"
                  },
                  "name": "Restaurant la Chronique",
                  "popularity": 0.9418764193792581,
                  "price": 3,
                  "rating": 8.0
            },
            {
                  "distance": 661,
                  "location": {
                        "address": "327 Ave du Mont-Royal Est",
                        "country": "CA",
                        "cross_street": "entre Saint-Denis et Drolet",
                        "formatted_address": "327 Ave du Mont-Royal Est (entre Saint-Denis et Drolet), Montr\u00e9al QC H2T 1P8",
                        "locality": "Montreal",
                        "postcode": "H2T 1P8",
                        "region": "QC"
                  },
                  "name": "Bar Plan B",
                  "popularity": 0.9094199470098411,
                  "price": 2,
                  "rating": 8.0
            },
            {
                  "distance": 1002,
                  "location": {
                        "address": "5938 Saint-Hubert Rue",
                        "country": "CA",
                        "cross_street": "",
                        "formatted_address": "5938 Saint-Hubert Rue, Montr\u00e9al QC H2S 2L7",
                        "locality": "Montreal",
                        "postcode": "H2S 2L7",
                        "region": "QC"
                  },
                  "name": "Restaurant Casa Alentejo",
                  "popularity": 0.9143522899318698,
                  "price": 2,
                  "rating": 7.9
            },
            {
                  "distance": 843,
                  "location": {
                        "address": "370 Marie-Anne Rue E",
                        "country": "CA",
                        "cross_street": "Saint-Denis",
                        "formatted_address": "370 Marie-Anne Rue E (Saint-Denis), Montr\u00e9al QC H2W 1B3",
                        "locality": "Montreal",
                        "postcode": "H2W 1B3",
                        "region": "QC"
                  },
                  "name": "Caf\u00e9 Tuyo",
                  "popularity": 0.8958293906131718,
                  "price": 1,
                  "rating": 7.8
            },
            {
                  "distance": 844,
                  "location": {
                        "address": "1499 Laurier Ave E",
                        "country": "CA",
                        "cross_street": "coin Fabre",
                        "formatted_address": "1499 Laurier Ave E (coin Fabre), Montr\u00e9al QC H2J 1H8",
                        "locality": "Montreal",
                        "postcode": "H2J 1H8",
                        "region": "QC"
                  },
                  "name": "Byblos le Petit Caf\u00e9",
                  "popularity": 0.8978046934140802,
                  "price": 2,
                  "rating": 7.8
            },
            {
                  "distance": 704,
                  "location": {
                        "address": "5282 Saint-Laurent Blvd",
                        "address_extended": "coin Maguire",
                        "country": "CA",
                        "cross_street": "coin Maguire",
                        "formatted_address": "5282 Saint-Laurent Blvd (coin Maguire), Montr\u00e9al QC H2T 1S1",
                        "locality": "Montreal",
                        "postcode": "H2T 1S1",
                        "region": "QC"
                  },
                  "name": "Burger de Ville",
                  "popularity": 0.8688611847085541,
                  "price": 2,
                  "rating": 7.8
            }
      ],
      "context": {
            "geo_bounds": {
                  "circle": {
                        "center": {
                              "latitude": 45.52809996,
                              "longitude": -73.58843872
                        },
                        "radius": 1000
                  }
            }
      }
}