{
      "results": [
            {
                  "distance": 295,
                  "location": {
                        "address": "5076 rue de Bellechasse",
                        "country": "CA",
                        "cross_street": "39e avenue",
                        "formatted_address": "5076 rue de Bellechasse (39e avenue), Montr\u00e9al QC H1T 2A2",
                        "locality": "Montreal",
                        "postcode": "H1T 2A2",
                        "region": "QC"
                  },
                  "name": "Une nuit \u00e0 Bangkok",
                  "popularity": 0.9431065480696442,
                  "price": 2
            },
            {
                  "distance": 546,
                  "location": {
                        "address": "4931 Beaubien Rue E",
                        "country": "CA",
                        "cross_street": "coin Viau",
                        "formatted_address": "4931 Beaubien Rue E (coin Viau), Montr\u00e9al QC H1T 1V1",
                        "locality": "Montreal",
                        "postcode": "H1T 1V1",
                        "region": "QC"
                  },
                  "name": "Sachi Sushi",
                  "popularity": 0.8922099735049205,
                  "price": 2
            },
            {
                  "distance": 647,
                  "location": {
                        "address": "5195 Beaubien Rue E",
                        "country": "CA",
                        "cross_street": "41ieme avenue",
                        "formatted_address": "5195 Beaubien Rue E (41ieme avenue), Montr\u00e9al QC H1T 1V9",
                        "locality": "Montreal",
                        "postcode": "H1T 1V9",
                        "region": "QC"
                  },
                  "name": "Restaurant St-Aubin",
                  "popularity": 0.8631718395155186,
                  "price": 1
            },
            {
                  "distance": 925,
                  "location": {
                        "address": "4201 Rosemont Blvd",
                        "country": "CA",
                        "cross_street": "23e avenue",
                        "formatted_address": "4201 Rosemont Blvd (23e avenue), Montr\u00e9al QC H1T 2C6",
                        "locality": "Montreal",
                        "postcode": "H1T 2C6",
                        "region": "QC"
                  },
                  "name": "Aux Sept Bonheurs Restaurant",
                  "popularity": 0.8941497918243755,
                  "price": 1
            },
            {
                  "distance": 80,
                  "location": {
                        "address": "4933 Rosemont Blvd",
                        "country": "CA",
                        "formatted_address": "4933 Rosemont Blvd, Montreal QC H1T 2E6",
                        "locality": "Montreal",
                        "postcode": "H1T 2E6",
                        "region": "QC"
                  },
                  "name": "Dido Restaurant"
            },
            {
                  "distance": 98,
                  "location": {
                        "address": "4943 Rosemont Blvd",
                        "country": "CA",
                        "formatted_address": "4943 Rosemont Blvd, Montreal QC H1T 2E6",
                        "locality": "Montreal",
                        "postcode": "H1T 2E6",
                        "region": "QC"
                  },
                  "name": "Ryo Sushi"
            },
            {
                  "distance": 554,
                  "location": {
                        "address": "4975 Beaubien Rue E",
                        "country": "CA",
                        "formatted_address": "4975 Beaubien Rue E, Montreal QC H1T 1V3",
                        "locality": "Montreal",
                        "postcode": "H1T 1V3",
                        "region": "QC"
                  },
                  "name": "Brasserie Cannebiere Inc"
            },
            {
                  "distance": 576,
                  "location": {
                        "address": "6510 Viau Rue",
                        "country": "CA",
                        "formatted_address": "6510 Viau Rue, Montreal QC H1T 2Y7",
                        "locality": "Montreal",
                        "postcode": "H1T 2Y7",
                        "region": "QC"
                  },
                  "name": "Meurtre et Mysteres"
            },
            {
                  "distance": 585,
                  "location": {
                        "address": "5142 Beaubien Rue E",
                        "country": "CA",
                        "formatted_address": "5142 Beaubien Rue E, Montreal QC H1T 1V7",
                        "locality": "Montreal",
                        "postcode": "H1T 1V7",
                        "region": "QC"
                  },
                  "name": "Cafe Navaro"
            },
            {
                  "distance": 592,
                  "location": {
                        "address": "5152 Beaubien Rue E",
                        "country": "CA",
                        "formatted_address": "5152 Beaubien Rue E, Montreal QC H1T 1W1",
                        "locality": "Montreal",
                        "postcode": "H1T 1W1",
                        "region": "QC"
                  },
                  "name": "Rich Bistro Cafe Inc"
            },
            {
                  "distance": 768,
                  "location": {
                        "address": "4509 Beaubien Rue E",
                        "country": "CA",
                        "formatted_address": "4509 Beaubien Rue E, Montreal QC H1T 1T4",
                        "locality": "Montreal",
                        "postcode": "H1T 1T4",
                        "region": "QC"
                  },
                  "name": "Petit Ya Courtier"
            },
            {
                  "distance": 821,
                  "location": {
                        "address": "4457 Beaubien Rue E",
                        "country": "CA",
                        "formatted_address": "4457 Beaubien Rue E, Montreal QC H1T 1T3",
                        "locality": "Montreal",
                        "postcode": "H1T 1T3",
                        "region": "QC"
                  },
                  "name": "Lourdie Gourmandise"
            },
            {
                  "distance": 894,
                  "location": {
                        "address": "5460 Beaubien Rue E",
                        "country": "CA",
                        "formatted_address": "5460 Beaubien Rue E, Montreal QC H1T 1W9",
                        "locality": "Montreal",
                        "postcode": "H1T 1W9",
                        "region": "QC"
                  },
                  "name": "Tora Sushi"
            }
      ],
      "context": {
            "geo_bounds": {
                  "circle": {
                        "center": {
                              "latitude": 45.56833022,
                              "longitude": -73.56666327
                        },
                        "radius": 1000
                  }
            }
      }
}