{
      "results": [
            {
                  "distance": 543,
                  "location": {
                        "address": "5560 Henri-Bourassa Blvd O",
                        "country": "CA",
                        "cross_street": "",
                        "formatted_address": "5560 Henri-Bourassa Blvd O, Montr\u00e9al QC H4R 0M6",
                        "locality": "Montreal",
                        "postcode": "H4R 0M6",
                        "region": "QC"
                  },
                  "name": "Premi\u00e8re Moisson",
                  "popularity": 0.9880772142316427,
                  "price": 1,
                  "rating": 8.5
            },
            {
                  "distance": 572,
                  "location": {
                        "address": "5540 Henri-Bourassa Blvd O",
                        "country": "CA",
                        "cross_street": "",
                        "formatted_address": "5540 Henri-Bourassa Blvd O, Montr\u00e9al QC H4R 0M6",
                        "locality": "Montreal",
                        "postcode": "H4R 0M6",
                        "region": "QC"
                  },
                  "name": "Chocolats Favoris",
                  "popularity": 0.9551239591218774,
                  "price": 1,
                  "rating": 7.4
            },
            {
                  "distance": 113,
                  "location": {
                        "address": "2525 des Nations",
                        "country": "CA",
                        "cross_street": "Boul Poirier",
                        "formatted_address": "2525 des Nations (Boul Poirier), Montreal QC",
                        "locality": "Montreal",
                        "region": "QC"
                  },
                  "name": "Challenger la Piazza",
                  "popularity": 0.9462291824375473,
                  "price": 2,
                  "rating": 7.0
            },
            {
                  "distance": 117,
                  "location": {
                        "address": "2505 des Nations Rue",
                        "address_extended": "Bombardier",
                        "country": "CA",
                        "cross_street": "at Bois Franc",
                        "formatted_address": "2505 des Nations Rue (at Bois Franc), Saint-Laurent QC H4R 3C8",
                        "locality": "Saint-Laurent",
                        "postcode": "H4R 3C8",
                        "region": "QC"
                  },
                  "name": "Caf\u00e9 D\u00e9p\u00f4t",
                  "popularity": 0.983712623012869,
                  "price": 1,
                  "rating": 6.9
            },
            {
                  "distance": 621,
                  "location": {
                        "address": "Complexe Challenger",
                        "address_extended": "Bldg. 5",
                        "country": "CA",
                        "cross_street": "",
                        "formatted_address": "Complexe Challenger, Saint-Laurent QC H4R 1V9",
                        "locality": "Saint-Laurent",
                        "postcode": "H4R 1V9",
                        "region": "QC"
                  },
                  "name": "Subway",
                  "popularity": 0.8905540310370931,
                  "price": 1,
                  "rating": 6.4,
                  "store_id": "57460"
            },
            {
                  "distance": 717,
                  "location": {
                        "address": "5510 Henri Bourassa Blvd O",
                        "country": "CA",
                        "cross_street": "Rue Wilfrid-Reid",
                        "formatted_address": "5510 Henri Bourassa Blvd O (Rue Wilfrid-Reid), Montr\u00e9al QC H4R 0M6",
                        "locality": "Montreal",
                        "postcode": "H4R 0M6",
                        "region": "QC"
                  },
                  "name": "Pizza Pizza",
                  "popularity": 0.9099758705526116,
                  "price": 1,
                  "rating": 6.2,
                  "store_id": "325"
            },
            {
                  "distance": 619,
                  "location": {
                        "address": "6245 Henri-Bourassa Blvd O",
                        "country": "CA",
                        "cross_street": "",
                        "formatted_address": "6245 Henri-Bourassa Blvd O, Saint-Laurent QC H4R 1C7",
                        "locality": "Saint-Laurent",
                        "postcode": "H4R 1C7",
                        "region": "QC"
                  },
                  "name": "Pizzeria Marios",
                  "popularity": 0.9670467448902347,
                  "price": 1,
                  "rating": 5.9
            },
            {
                  "distance": 526,
                  "location": {
                        "address": "2500 des Nations Rue",
                        "country": "CA",
                        "cross_street": "",
                        "formatted_address": "2500 des Nations Rue, Montr\u00e9al QC H4R 3J9",
                        "locality": "Montreal",
                        "postcode": "H4R 3J9",
                        "region": "QC"
                  },
                  "name": "Nirvana Sushi",
                  "popularity": 0.8738763247539743,
                  "price": 2
            },
            {
                  "distance": 612,
                  "location": {
                        "address": "5516 Henri-Bourassa Blvd O",
                        "country": "CA",
                        "cross_street": "",
                        "formatted_address": "5516 Henri-Bourassa Blvd O, Saint-Laurent QC H4R 0M6",
                        "locality": "Saint-Laurent",
                        "postcode": "H4R 0M6",
                        "region": "QC"
                  },
                  "name": "Yuzu sushi",
                  "popularity": 0.8085493943981832,
                  "price": 2
            },
            {
                  "distance": 831,
                  "location": {
                        "address": "5291 Henri-Bourassa Blvd O",
                        "country": "CA",
                        "formatted_address": "5291 Henri-Bourassa Blvd O, Saint-Laurent QC H4R 1B7",
                        "locality": "Saint-Laurent",
                        "postcode": "H4R 1B7",
                        "region": "QC"
                  },
                  "name": "Ristorante Vino Rosso",
                  "popularity": 0.9803770817562453,
                  "price": 3
            },
            {
                  "distance": 84,
                  "location": {
                        "address": "2525 des Nations Rue",
                        "country": "CA",
                        "formatted_address": "2525 des Nations Rue, Saint-Laurent QC H4R 3C8",
                        "locality": "Saint-Laurent",
                        "postcode": "H4R 3C8",
                        "region": "QC"
                  },
                  "name": "Ristorante la Piazza"
            },
            {
                  "distance": 533,
                  "location": {
                        "address": "6045 Henri Bourassa Blvd O",
                        "country": "CA",
                        "formatted_address": "6045 Henri Bourassa Blvd O, Montreal QC H4R 1C5",
                        "locality": "Montreal",
                        "postcode": "H4R 1C5",
                        "region": "QC"
                  },
                  "name": "Lotus Rouge"
            },
            {
                  "distance": 628,
                  "location": {
                        "address": "6255 Henri-Bourassa Blvd O",
                        "country": "CA",
                        "formatted_address": "6255 Henri-Bourassa Blvd O, Saint-Laurent QC H4R 1C7",
                        "locality": "Saint-Laurent",
                        "postcode": "H4R 1C7",
                        "region": "QC"
                  },
                  "name": "Bois Franc"
            },
            {
                  "distance": 647,
                  "location": {
                        "address": "5560 Henri-Bourassa Blvd O",
                        "country": "CA",
                        "formatted_address": "5560 Henri-Bourassa Blvd O, Saint-Laurent QC H4R 0M6",
                        "locality": "Saint-Laurent",
                        "postcode": "H4R 0M6",
                        "region": "QC"
                  },
                  "name": "Metro Richelieu Inc"
            }
      ],
      "context": {
            "geo_bounds": {
                  "circle": {
                        "center": {
                              "latitude": 45.51317758,
                              "longitude": -73.71306092
                        },
                        "radius": 1000
                  }
            }
      }
}