{
      "results": [
            {
                  "distance": 920,
                  "location": {
                        "address": "5414 Gatineau Ave",
                        "country": "CA",
                        "cross_street": "",
                        "formatted_address": "5414 Gatineau Ave, Montr\u00e9al QC H3T 1X5",
                        "locality": "Montreal",
                        "postcode": "H3T 1X5",
                        "region": "QC"
                  },
                  "name": "Saint-Houblon",
                  "popularity": 0.9870836487509462,
                  "price": 2,
                  "rating": 8.8
            },
            {
                  "distance": 962,
                  "location": {
                        "address": "5002 Ch de la C\u00f4te-des-Neiges",
                        "country": "CA",
                        "cross_street": "Rue du Fr\u00e8re Andr\u00e9",
                        "formatted_address": "5002 Ch de la C\u00f4te-des-Neiges (Rue du Fr\u00e8re Andr\u00e9), Montr\u00e9al QC H3V 1G6",
                        "locality": "Montreal",
                        "postcode": "H3V 1G6",
                        "region": "QC"
                  },
                  "name": "Duc de Lorraine",
                  "popularity": 0.9707134746404239,
                  "price": 1,
                  "rating": 8.7
            },
            {
                  "distance": 184,
                  "location": {
                        "address": "5485 Victoria Ave",
                        "country": "CA",
                        "cross_street": "Saint-Kevin",
                        "formatted_address": "5485 Victoria Ave (Saint-Kevin), Montr\u00e9al QC H3W 2P9",
                        "locality": "Montreal",
                        "postcode": "H3W 2P9",
                        "region": "QC"
                  },
                  "name": "Restaurant Hoai Huong",
                  "popularity": 0.9431420325510976,
                  "price": 1,
                  "rating": 8.5
            },
            {
                  "distance": 926,
                  "location": {
                        "address": "5703B de la Cote-Des-Neiges Ch",
                        "country": "CA",
                        "cross_street": "C\u00f4te-St-Catherine",
                        "formatted_address": "5703B de la Cote-Des-Neiges Ch (C\u00f4te-St-Catherine), Montr\u00e9al QC H3S 1Y7",
                        "locality": "Montreal",
                        "postcode": "H3S 1Y7",
                        "region": "QC"
                  },
                  "name": "Restaurant Pho Lien",
                  "popularity": 0.9779523088569265,
                  "price": 2,
                  "rating": 8.4
            },
            {
                  "distance": 824,
                  "location": {
                        "address": "5400 Ch de la C\u00f4te-des-Neiges",
                        "country": "CA",
                        "cross_street": "coin \u00c9douard-Montpetit",
                        "formatted_address": "5400 Ch de la C\u00f4te-des-Neiges (coin \u00c9douard-Montpetit), Montr\u00e9al QC H3T 1Y5",
                        "locality": "Montreal",
                        "postcode": "H3T 1Y5",
                        "region": "QC"
                  },
                  "name": "McCarold",
                  "popularity": 0.985333080999243,
                  "price": 2,
                  "rating": 8.2
            },
            {
                  "distance": 653,
                  "location": {
                        "address": "5265 Decarie Blvd",
                        "country": "CA",
                        "cross_street": "Isabella",
                        "formatted_address": "5265 Decarie Blvd (Isabella), Montr\u00e9al QC H3W 3C2",
                        "locality": "Montreal",
                        "postcode": "H3W 3C2",
                        "region": "QC"
                  },
                  "name": "Snowdon Deli",
                  "popularity": 0.9864922407267221,
                  "price": 2,
                  "rating": 7.9
            },
            {
                  "distance": 733,
                  "location": {
                        "address": "5136 Decarie Blvd",
                        "country": "CA",
                        "cross_street": "",
                        "formatted_address": "5136 Decarie Blvd, Montreal QC H3X 2H9",
                        "locality": "Hampstead",
                        "postcode": "H3X 2H9",
                        "region": "QC"
                  },
                  "name": "Pho 88",
                  "popularity": 0.9451055071915215,
                  "price": 2,
                  "rating": 7.9
            },
            {
                  "distance": 336,
                  "location": {
                        "address": "5690 Victoria Ave",
                        "country": "CA",
                        "cross_street": "C\u00f4te St-Catherine",
                        "formatted_address": "5690 Victoria Ave (C\u00f4te St-Catherine), Montr\u00e9al QC H3W 2P8",
                        "locality": "Montreal",
                        "postcode": "H3W 2P8",
                        "region": "QC"
                  },
                  "name": "Sen Vang",
                  "popularity": 0.9870363361090083,
                  "price": 2,
                  "rating": 7.9
            },
            {
                  "distance": 668,
                  "location": {
                        "address": "5208 Decarie Blvd",
                        "country": "CA",
                        "cross_street": "",
                        "formatted_address": "5208 Decarie Blvd, Montr\u00e9al QC H3X 2H9",
                        "locality": "Montreal",
                        "postcode": "H3X 2H9",
                        "region": "QC"
                  },
                  "name": "Tropical Paradise",
                  "popularity": 0.9385527062831188,
                  "price": 2,
                  "rating": 7.9
            },
            {
                  "distance": 918,
                  "location": {
                        "address": "5685 Ch C\u00f4te-Des-Neiges",
                        "country": "CA",
                        "cross_street": "",
                        "formatted_address": "5685 Ch C\u00f4te-Des-Neiges, Montr\u00e9al QC H3T 1Y8",
                        "locality": "Montreal",
                        "postcode": "H3T 1Y8",
                        "region": "QC"
                  },
                  "name": "All\u00f4! Mon Coco",
                  "popularity": 0.9823523845571537,
                  "price": 1,
                  "rating": 7.6
            },
            {
                  "distance": 543,
                  "location": {
                        "address": "5095 Queen Mary Ch",
                        "country": "CA",
                        "cross_street": "Westbury",
                        "formatted_address": "5095 Queen Mary Ch (Westbury), Montr\u00e9al QC H3W 1X4",
                        "locality": "Montreal",
                        "postcode": "H3W 1X4",
                        "region": "QC"
                  },
                  "name": "Tim Hortons",
                  "popularity": 0.9688091408024224,
                  "price": 1,
                  "rating": 6.8
            },
            {
                  "distance": 844,
                  "location": {
                        "address": "5540-A C\u00f4TE-DES-NEIGES",
                        "country": "CA",
                        "cross_street": "",
                        "formatted_address": "5540-A C\u00f4TE-DES-NEIGES, Montr\u00e9al QC",
                        "locality": "Montreal",
                        "region": "QC"
                  },
                  "name": "Ngan Dinh",
                  "popularity": 0.9620670893262679,
                  "price": 2,
                  "rating": 6.7
            },
            {
                  "distance": 560,
                  "location": {
                        "address": "5071 Queen Mary Rd",
                        "country": "CA",
                        "cross_street": "",
                        "formatted_address": "5071 Queen Mary Rd, Montr\u00e9al QC H3W 1X4",
                        "locality": "Montreal",
                        "postcode": "H3W 1X4",
                        "region": "QC"
                  },
                  "name": "Second Cup CAF\u00c9 & Cie avec Pinkberry yogourt glac\u00e9",
                  "popularity": 0.9350870552611658,
                  "price": 1,
                  "rating": 6.4
            },
            {
                  "distance": 3459,
                  "location": {
                        "address": "5177 Decarie Blvd",
                        "country": "CA",
                        "cross_street": "at Cornation",
                        "formatted_address": "5177 Decarie Blvd (at Cornation), Montr\u00e9al QC H3W 3C2",
                        "locality": "Montreal",
                        "postcode": "H3W 3C2",
                        "region": "QC"
                  },
                  "name": "Souvlaki George",
                  "popularity": 0.9824233535200606,
                  "price": 3,
                  "rating": 6.2
            },
            {
                  "distance": 832,
                  "location": {
                        "address": "5252 Cote des Neiges",
                        "country": "CA",
                        "cross_street": "rue Jean-Brillant",
                        "formatted_address": "5252 Cote des Neiges (rue Jean-Brillant), Montr\u00e9al QC H3T 1X8",
                        "locality": "Montreal",
                        "postcode": "H3T 1X8",
                        "region": "QC"
                  },
                  "name": "McDonald's",
                  "popularity": 0.9865632096896291,
                  "price": 1,
                  "rating": 6.2,
                  "store_id": "40369"
            },
            {
                  "distance": 886,
                  "location": {
                        "address": "3549 Lacombe Ave",
                        "country": "CA",
                        "cross_street": "",
                        "formatted_address": "3549 Lacombe Ave, Montr\u00e9al QC H3T 1M2",
                        "locality": "Montreal",
                        "postcode": "H3T 1M2",
                        "region": "QC"
                  },
                  "name": "Al Amine",
                  "popularity": 0.9166942657077971,
                  "price": 2,
                  "rating": 6.1
            },
            {
                  "distance": 725,
                  "location": {
                        "address": "5180 Decarie Blvd",
                        "country": "CA",
                        "cross_street": "",
                        "formatted_address": "5180 Decarie Blvd, Montr\u00e9al QC H3X 2H9",
                        "locality": "Montreal",
                        "postcode": "H3X 2H9",
                        "region": "QC"
                  },
                  "name": "Wendy's",
                  "popularity": 0.9889170136260409,
                  "price": 1,
                  "rating": 6.1,
                  "store_id": "6630"
            },
            {
                  "distance": 819,
                  "location": {
                        "address": "5322 Queen Mary Ch",
                        "country": "CA",
                        "cross_street": "Boulevard Decarie",
                        "formatted_address": "5322 Queen Mary Ch (Boulevard Decarie), Montr\u00e9al QC H3X 1T7",
                        "locality": "Montreal",
                        "postcode": "H3X 1T7",
                        "region": "QC"
                  },
                  "name": "Resto Bar Chops",
                  "popularity": 0.8295916919000756,
                  "price": 2,
                  "rating": 6.1
            },
            {
                  "distance": 589,
                  "location": {
                        "address": "5155 Queen-Mary Ch",
                        "country": "CA",
                        "cross_street": "Station Snowdon",
                        "formatted_address": "5155 Queen-Mary Ch (Station Snowdon), Montr\u00e9al QC H3W 1X6",
                        "locality": "Montreal",
                        "postcode": "H3W 1X6",
                        "region": "QC"
                  },
                  "name": "McDonald's",
                  "popularity": 0.9941214042392127,
                  "price": 1,
                  "rating": 6.0,
                  "store_id": "13766"
            },
            {
                  "distance": 844,
                  "location": {
                        "address": "5206C de la Cote des Neiges Ch",
                        "country": "CA",
                        "cross_street": "",
                        "formatted_address": "5206C de la Cote des Neiges Ch, Montr\u00e9al QC H3T 1X8",
                        "locality": "Montreal",
                        "postcode": "H3T 1X8",
                        "region": "QC"
                  },
                  "name": "Second Cup Coffee Co",
                  "popularity": 0.9330526116578349,
                  "price": 2,
                  "rating": 5.7,
                  "store_id": "3179"
            },
            {
                  "distance": 898,
                  "location": {
                        "address": "5185 Ch de la cote-des-Neiges",
                        "country": "CA",
                        "cross_street": "",
                        "formatted_address": "5185 Ch de la cote-des-Neiges, Montr\u00e9al QC H3T 1Y1",
                        "locality": "Montreal",
                        "postcode": "H3T 1Y1",
                        "region": "QC"
                  },
                  "name": "Subway",
                  "popularity": 0.34890707797123394,
                  "price": 1,
                  "rating": 5.4
            },
            {
                  "distance": 157,
                  "location": {
                        "address": "5487 Victoria Ave",
                        "country": "CA",
                        "cross_street": "",
                        "formatted_address": "5487 Victoria Ave, Montr\u00e9al QC H3W 2P9",
                        "locality": "Montreal",
                        "postcode": "H3W 2P9",
                        "region": "QC"
                  },
                  "name": "Pizza Gourmetti",
                  "popularity": 0.9082962717638153,
                  "price": 3
            },
            {
                  "distance": 549,
                  "location": {
                        "address": "4986B Queen Mary Ch",
                        "country": "CA",
                        "cross_street": "",
                        "formatted_address": "4986B Queen Mary Ch, Montr\u00e9al QC H3W 1X2",
                        "locality": "Montreal",
                        "postcode": "H3W 1X2",
                        "region": "QC"
                  },
                  "name": "One More Th\u00e9",
                  "popularity": 0.7747090272520818,
                  "price": 1
            },
            {
                  "distance": 641,
                  "location": {
                        "address": "5940 Victoria Ave",
                        "country": "CA",
                        "cross_street": "",
                        "formatted_address": "5940 Victoria Ave, Montr\u00e9al QC H3W 2R8",
                        "locality": "Montreal",
                        "postcode": "H3W 2R8",
                        "region": "QC"
                  },
                  "name": "Pinoy Pansitan",
                  "popularity": 0.971647899318698,
                  "price": 2
            },
            {
                  "distance": 649,
                  "location": {
                        "address": "5202 Queen-Mary Ch",
                        "country": "CA",
                        "cross_street": "Trans Island",
                        "formatted_address": "5202 Queen-Mary Ch (Trans Island), Montr\u00e9al QC H3W 1X5",
                        "locality": "Montreal",
                        "postcode": "H3W 1X5",
                        "region": "QC"
                  },
                  "name": "Finegan's Irish Pub",
                  "popularity": 0.8670278198334594,
                  "price": 2
            },
            {
                  "distance": 817,
                  "location": {
                        "address": "5470 Ch. de la C\u00f4te des Neiges",
                        "country": "CA",
                        "cross_street": "",
                        "formatted_address": "5470 Ch. de la C\u00f4te des Neiges, Montr\u00e9al QC H3T 1Y5",
                        "locality": "Montreal",
                        "postcode": "H3T 1Y5",
                        "region": "QC"
                  },
                  "name": "Mont Tacos",
                  "popularity": 0.8148892884178652,
                  "price": 3
            },
            {
                  "distance": 818,
                  "location": {
                        "address": "5412 Cote des Neiges Rd",
                        "country": "CA",
                        "cross_street": "",
                        "formatted_address": "5412 Cote des Neiges Rd, Montr\u00e9al QC H3T 1Y5",
                        "locality": "Montreal",
                        "postcode": "H3T 1Y5",
                        "region": "QC"
                  },
                  "name": "L2 Lounge Cote des Neiges",
                  "popularity": 0.8827829295987888
            },
            {
                  "distance": 821,
                  "location": {
                        "address": "4759 Van Horne Ave",
                        "country": "CA",
                        "cross_street": "victoria",
                        "formatted_address": "4759 Van Horne Ave (victoria), Montr\u00e9al QC H3W 1H8",
                        "locality": "Montreal",
                        "postcode": "H3W 1H8",
                        "region": "QC"
                  },
                  "name": "Fireside Steakhouse",
                  "popularity": 0.4522497161241484,
                  "price": 4
            },
            {
                  "distance": 839,
                  "location": {
                        "address": "5332 Queen Mary Ch",
                        "country": "CA",
                        "cross_street": "Boulevard D\u00e9carie",
                        "formatted_address": "5332 Queen Mary Ch (Boulevard D\u00e9carie), Montr\u00e9al QC H3X 1T7",
                        "locality": "Montreal",
                        "postcode": "H3X 1T7",
                        "region": "QC"
                  },
                  "name": "Karin",
                  "popularity": 0.8407456472369417,
                  "price": 2
            },
            {
                  "distance": 843,
                  "location": {
                        "address": "5536A de la Cote-Des-Neiges Ch",
                        "country": "CA",
                        "cross_street": "rue St-Laurent",
                        "formatted_address": "5536A de la Cote-Des-Neiges Ch (rue St-Laurent), Montr\u00e9al QC H3T 1Y9",
                        "locality": "Montreal",
                        "postcode": "H3T 1Y9",
                        "region": "QC"
                  },
                  "name": "Le Petit Vibe",
                  "popularity": 0.9580336866010598,
                  "price": 2
            },
            {
                  "distance": 846,
                  "location": {
                        "address": "3800 Queen-Mary Ch",
                        "country": "CA",
                        "cross_street": "",
                        "formatted_address": "3800 Queen-Mary Ch, Montr\u00e9al QC H3V 1H6",
                        "locality": "Montreal",
                        "postcode": "H3V 1H6",
                        "region": "QC"
                  },
                  "name": "La Sainte-fringale",
                  "popularity": 0.24549347085541257,
                  "price": 1
            },
            {
                  "distance": 892,
                  "location": {
                        "address": "3680 Ch de la C\u00f4te-Sainte-Catherine",
                        "country": "CA",
                        "cross_street": "",
                        "formatted_address": "3680 Ch de la C\u00f4te-Sainte-Catherine, Montr\u00e9al QC H3T 1E1",
                        "locality": "Montreal",
                        "postcode": "H3T 1E1",
                        "region": "QC"
                  },
                  "name": "Quesada Burritos and Tacos",
                  "popularity": 0.977964137017411
            },
            {
                  "distance": 905,
                  "location": {
                        "address": "5153 Ch de la Cote-des-Neiges",
                        "country": "CA",
                        "cross_street": "",
                        "formatted_address": "5153 Ch de la Cote-des-Neiges, Montr\u00e9al QC",
                        "locality": "Montreal",
                        "region": "QC"
                  },
                  "name": "Rizpopotame",
                  "popularity": 0.255772142316427,
                  "price": 2
            },
            {
                  "distance": 905,
                  "location": {
                        "address": "5412 ch de la C\u00f4te-des-Neiges",
                        "country": "CA",
                        "cross_street": "",
                        "formatted_address": "5412 ch de la C\u00f4te-des-Neiges, Montr\u00e9al QC H3T 1Y5",
                        "locality": "Montreal",
                        "postcode": "H3T 1Y5",
                        "region": "QC"
                  },
                  "name": "M Star Sandwich",
                  "popularity": 0.8849711392884179,
                  "price": 1
            },
            {
                  "distance": 914,
                  "location": {
                        "address": "5463 Queen Mary Ch",
                        "country": "CA",
                        "cross_street": "",
                        "formatted_address": "5463 Queen Mary Ch, Montr\u00e9al QC",
                        "locality": "Montreal",
                        "region": "QC"
                  },
                  "name": "Pellegrinos Cafe",
                  "popularity": 0.7257049583648751,
                  "price": 1
            }
      ],
      "context": {
            "geo_bounds": {
                  "circle": {
                        "center": {
                              "latitude": 45.49048314,
                              "longitude": -73.62913728
                        },
                        "radius": 1000
                  }
            }
      }
}