{
      "results": [
            {
                  "distance": 395,
                  "location": {
                        "address": "1431 Saint-Laurent Blvd",
                        "country": "CA",
                        "cross_street": "entre De Maisonneuve & Ste-Catherine",
                        "formatted_address": "1431 Saint-Laurent Blvd (entre De Maisonneuve & Ste-Catherine), Montr\u00e9al QC H2X 2S8",
                        "locality": "Montreal",
                        "postcode": "H2X 2S8",
                        "region": "QC"
                  },
                  "name": "Cadet",
                  "popularity": 0.9538465177895533,
                  "price": 2,
                  "rating": 9.4
            },
            {
                  "distance": 416,
                  "location": {
                        "address": "1595 Saint-Laurent Blvd",
                        "country": "CA",
                        "cross_street": "entre De Maisonneuve & Ontario",
                        "formatted_address": "1595 Saint-Laurent Blvd (entre De Maisonneuve & Ontario), Montr\u00e9al QC H2X 2S9",
                        "locality": "Montreal",
                        "postcode": "H2X 2S9",
                        "region": "QC"
                  },
                  "name": "Bouillon Bilk",
                  "popularity": 0.962682153671461,
                  "price": 3,
                  "rating": 9.3
            },
            {
                  "distance": 946,
                  "location": {
                        "address": "1067 Rue de Bleury",
                        "country": "CA",
                        "cross_street": "De la Gaucheti\u00e8re",
                        "formatted_address": "1067 Rue de Bleury (De la Gaucheti\u00e8re), Montr\u00e9al QC H2Z 1N1",
                        "locality": "Montreal",
                        "postcode": "H2Z 1N1",
                        "region": "QC"
                  },
                  "name": "La Finca caf\u00e9 & bureau",
                  "popularity": 0.9523798258894777,
                  "price": 1,
                  "rating": 9.1
            },
            {
                  "distance": 835,
                  "location": {
                        "address": "520 Saint-Laurent Blvd",
                        "address_extended": "Saint-Jacques",
                        "country": "CA",
                        "cross_street": "Saint-Jacques",
                        "formatted_address": "520 Saint-Laurent Blvd (Saint-Jacques), Montr\u00e9al QC H2Y 2Y9",
                        "locality": "Montreal",
                        "postcode": "H2Y 2Y9",
                        "region": "QC"
                  },
                  "name": "Paquebot Vieux-Mtl",
                  "popularity": 0.9716833838001514,
                  "price": 1,
                  "rating": 9.0
            },
            {
                  "distance": 906,
                  "location": {
                        "address": "19 Prince-Arthur Rue O",
                        "country": "CA",
                        "cross_street": "entre St-Laurent & Clark",
                        "formatted_address": "19 Prince-Arthur Rue O (entre St-Laurent & Clark), Montr\u00e9al QC H2X 1S4",
                        "locality": "Montreal",
                        "postcode": "H2X 1S4",
                        "region": "QC"
                  },
                  "name": "Caf\u00e9 Nocturne",
                  "popularity": 0.9314912944738835,
                  "price": 1,
                  "rating": 9.0
            },
            {
                  "distance": 818,
                  "location": {
                        "address": "1272 Sainte-Catherine Rue E",
                        "country": "CA",
                        "cross_street": "",
                        "formatted_address": "1272 Sainte-Catherine Rue E, Montr\u00e9al QC H2L 2H2",
                        "locality": "Montreal",
                        "postcode": "H2L 2H2",
                        "region": "QC"
                  },
                  "name": "Bar Renard",
                  "popularity": 0.9689274224072673,
                  "price": 2,
                  "rating": 9.0
            },
            {
                  "distance": 488,
                  "location": {
                        "address": "1106B Saint Laurent Blvd",
                        "country": "CA",
                        "cross_street": "coin Ren\u00e9-L\u00e9vesque",
                        "formatted_address": "1106B Saint Laurent Blvd (coin Ren\u00e9-L\u00e9vesque), Montr\u00e9al QC H2Z 1J5",
                        "locality": "Montreal",
                        "postcode": "H2Z 1J5",
                        "region": "QC"
                  },
                  "name": "Bar le Mal N\u00e9cessaire",
                  "popularity": 0.9491152535957608,
                  "price": 3,
                  "rating": 9.0
            },
            {
                  "distance": 854,
                  "location": {
                        "address": "380 Saint Paul Rue E",
                        "country": "CA",
                        "cross_street": "coin Bonsecours",
                        "formatted_address": "380 Saint Paul Rue E (coin Bonsecours), Montr\u00e9al QC H2Y 1H2",
                        "locality": "Montreal",
                        "postcode": "H2Y 1H2",
                        "region": "QC"
                  },
                  "name": "Pub BreWskey",
                  "popularity": 0.9748888152914459,
                  "price": 1,
                  "rating": 8.9
            },
            {
                  "distance": 397,
                  "location": {
                        "address": "300 Ontario Rue E",
                        "country": "CA",
                        "cross_street": "coin Sanguinet",
                        "formatted_address": "300 Ontario Rue E (coin Sanguinet), Montr\u00e9al QC H2X 1H6",
                        "locality": "Montreal",
                        "postcode": "H2X 1H6",
                        "region": "QC"
                  },
                  "name": "La Distillerie",
                  "popularity": 0.9436861279333838,
                  "price": 3,
                  "rating": 8.9
            },
            {
                  "distance": 900,
                  "location": {
                        "address": "419 Saint-Vincent Rue",
                        "country": "CA",
                        "cross_street": "Rue Saint-Amable",
                        "formatted_address": "419 Saint-Vincent Rue (Rue Saint-Amable), Montr\u00e9al QC H2Y 3A6",
                        "locality": "Montreal",
                        "postcode": "H2Y 3A6",
                        "region": "QC"
                  },
                  "name": "Caf\u00e9 Olimpico",
                  "popularity": 0.9666682437547313,
                  "price": 1,
                  "rating": 8.9
            },
            {
                  "distance": 880,
                  "location": {
                        "address": "273 Saint-Paul Rue E",
                        "country": "CA",
                        "cross_street": "at rue du March\u00e9-Bonsecours",
                        "formatted_address": "273 Saint-Paul Rue E (at rue du March\u00e9-Bonsecours), Montr\u00e9al QC H2Y 1H1",
                        "locality": "Montreal",
                        "postcode": "H2Y 1H1",
                        "region": "QC"
                  },
                  "name": "L'Usine de Spaghetti",
                  "popularity": 0.9515400264950795,
                  "price": 2,
                  "rating": 8.8
            },
            {
                  "distance": 853,
                  "location": {
                        "address": "3609 Saint-Denis Rue",
                        "address_extended": "Square St-Louis",
                        "country": "CA",
                        "cross_street": "Square St-Louis",
                        "formatted_address": "3609 Saint-Denis Rue (Square St-Louis), Montr\u00e9al QC H2X 3L6",
                        "locality": "Montreal",
                        "postcode": "H2X 3L6",
                        "region": "QC"
                  },
                  "name": "La Fabrique Bistrot",
                  "popularity": 0.9323547501892505,
                  "price": 4,
                  "rating": 8.6
            },
            {
                  "distance": 836,
                  "location": {
                        "address": "1250 Rue de Bleury",
                        "country": "CA",
                        "cross_street": "at Sainte-Catherine",
                        "formatted_address": "1250 Rue de Bleury (at Sainte-Catherine), Montr\u00e9al QC H3B 2W4",
                        "locality": "Montreal",
                        "postcode": "H3B 2W4",
                        "region": "QC"
                  },
                  "name": "Nyks Bistro Pub",
                  "popularity": 0.9770888531415595,
                  "price": 2,
                  "rating": 8.6
            },
            {
                  "distance": 260,
                  "location": {
                        "address": "301 Emery Rue",
                        "country": "CA",
                        "cross_street": "entre St-Denis & Sanguinet",
                        "formatted_address": "301 Emery Rue (entre St-Denis & Sanguinet), Montr\u00e9al QC H2X 1J2",
                        "locality": "Montreal",
                        "postcode": "H2X 1J2",
                        "region": "QC"
                  },
                  "name": "Caf\u00e9 Saint-Henri Quartier Latin",
                  "popularity": 0.9289718962906889,
                  "price": 1,
                  "rating": 8.6
            },
            {
                  "distance": 885,
                  "location": {
                        "address": "711 cote de la Place-d'Armes",
                        "country": "CA",
                        "cross_street": "St-Jacques",
                        "formatted_address": "711 cote de la Place-d'Armes (St-Jacques), Montr\u00e9al QC H2Y 2X6",
                        "locality": "Montreal",
                        "postcode": "H2Y 2X6",
                        "region": "QC"
                  },
                  "name": "Kyo Bar Japonais",
                  "popularity": 0.9498722558667676,
                  "price": 2,
                  "rating": 8.6
            },
            {
                  "distance": 501,
                  "location": {
                        "address": "2021 Saint-Denis Rue",
                        "country": "CA",
                        "cross_street": "rue Ontario",
                        "formatted_address": "2021 Saint-Denis Rue (rue Ontario), Montr\u00e9al QC H2X 3K8",
                        "locality": "Montreal",
                        "postcode": "H2X 3K8",
                        "region": "QC"
                  },
                  "name": "Le 4e Mur",
                  "popularity": 0.9381860333080999,
                  "price": 3,
                  "rating": 8.6
            },
            {
                  "distance": 1000,
                  "location": {
                        "address": "453 Saint-Sulpice Rue",
                        "country": "CA",
                        "cross_street": "Notre-Dame O.",
                        "formatted_address": "453 Saint-Sulpice Rue (Notre-Dame O.), Montr\u00e9al QC H2Y 2V8",
                        "locality": "Montreal",
                        "postcode": "H2Y 2V8",
                        "region": "QC"
                  },
                  "name": "Les Glaceurs",
                  "popularity": 0.9073145344436033,
                  "price": 3,
                  "rating": 8.5
            },
            {
                  "distance": 864,
                  "location": {
                        "address": "1310 Blvd de Maisonneuve Est",
                        "country": "CA",
                        "cross_street": "Visitation",
                        "formatted_address": "1310 Blvd de Maisonneuve Est (Visitation), Montr\u00e9al QC H2L 2A5",
                        "locality": "Montreal",
                        "postcode": "H2L 2A5",
                        "region": "QC"
                  },
                  "name": "Bistro le Passe Compose",
                  "popularity": 0.9547809424678274,
                  "price": 1,
                  "rating": 8.5
            },
            {
                  "distance": 641,
                  "location": {
                        "address": "1112 Blvd de Maisonneuve Est",
                        "country": "CA",
                        "cross_street": "btwn Amherst & Wolfe St.",
                        "formatted_address": "1112 Blvd de Maisonneuve Est (btwn Amherst & Wolfe St.), Montr\u00e9al QC H2L 1Z5",
                        "locality": "Montreal",
                        "postcode": "H2L 1Z5",
                        "region": "QC"
                  },
                  "name": "O'Thym",
                  "popularity": 0.9423613739591219,
                  "price": 3,
                  "rating": 8.5
            },
            {
                  "distance": 861,
                  "location": {
                        "address": "73 Prince Arthur Rue E",
                        "country": "CA",
                        "cross_street": "Coloniale",
                        "formatted_address": "73 Prince Arthur Rue E (Coloniale), Montr\u00e9al QC H2X 1B4",
                        "locality": "Montreal",
                        "postcode": "H2X 1B4",
                        "region": "QC"
                  },
                  "name": "Arepera",
                  "popularity": 0.925730980317941,
                  "price": 1,
                  "rating": 8.5
            },
            {
                  "distance": 411,
                  "location": {
                        "address": "1749 Saint-Denis Rue",
                        "country": "CA",
                        "cross_street": "coin Ontario",
                        "formatted_address": "1749 Saint-Denis Rue (coin Ontario), Montr\u00e9al QC H2X 3K4",
                        "locality": "Montreal",
                        "postcode": "H2X 3K4",
                        "region": "QC"
                  },
                  "name": "Le Saint Bock",
                  "popularity": 0.9721565102195306,
                  "price": 2,
                  "rating": 8.4
            },
            {
                  "distance": 301,
                  "location": {
                        "address": "1668 Saint-Denis Rue",
                        "country": "CA",
                        "cross_street": "coin de Maisonneuve",
                        "formatted_address": "1668 Saint-Denis Rue (coin de Maisonneuve), Montr\u00e9al QC H2X 3K6",
                        "locality": "Montreal",
                        "postcode": "H2X 3K6",
                        "region": "QC"
                  },
                  "name": "Pizzeria Dei Compari",
                  "popularity": 0.9388484102952309,
                  "price": 2,
                  "rating": 8.3
            },
            {
                  "distance": 582,
                  "location": {
                        "address": "1006 Saint-Laurent Blvd",
                        "country": "CA",
                        "cross_street": "",
                        "formatted_address": "1006 Saint-Laurent Blvd, Montr\u00e9al QC H2Z 1J3",
                        "locality": "Montreal",
                        "postcode": "H2Z 1J3",
                        "region": "QC"
                  },
                  "name": "Nouilles de Lan Zhou",
                  "popularity": 0.9843868281604845,
                  "price": 2,
                  "rating": 8.3
            },
            {
                  "distance": 991,
                  "location": {
                        "address": "3 Saint-Paul Rue E",
                        "country": "CA",
                        "formatted_address": "3 Saint-Paul Rue E, Montr\u00e9al QC H2Y 1E9",
                        "locality": "Montreal",
                        "postcode": "H2Y 1E9",
                        "region": "QC"
                  },
                  "name": "Creperie Chez Suzette",
                  "popularity": 0.9561530090840272,
                  "price": 2,
                  "rating": 8.3
            },
            {
                  "distance": 899,
                  "location": {
                        "address": "3600 Saint-Laurent Blvd",
                        "address_extended": "coin Prince-Arthur",
                        "country": "CA",
                        "cross_street": "coin Prince-Arthur",
                        "formatted_address": "3600 Saint-Laurent Blvd (coin Prince-Arthur), Montr\u00e9al QC H2X 2V4",
                        "locality": "Montreal",
                        "postcode": "H2X 2V4",
                        "region": "QC"
                  },
                  "name": "Juliette et Chocolat",
                  "popularity": 0.971304882664648,
                  "price": 2,
                  "rating": 8.2
            },
            {
                  "distance": 696,
                  "location": {
                        "address": "51 Sherbrooke Rue O",
                        "country": "CA",
                        "cross_street": "coin Clark",
                        "formatted_address": "51 Sherbrooke Rue O (coin Clark), Montr\u00e9al QC H2X 1X2",
                        "locality": "Montreal",
                        "postcode": "H2X 1X2",
                        "region": "QC"
                  },
                  "name": "Caf\u00e9 OSMO",
                  "popularity": 0.9720027441332324,
                  "price": 1,
                  "rating": 8.2
            },
            {
                  "distance": 966,
                  "location": {
                        "address": "39 Saint-Paul Rue E",
                        "country": "CA",
                        "cross_street": "St-Gabriel",
                        "formatted_address": "39 Saint-Paul Rue E (St-Gabriel), Montreal QC H2Y 1G2",
                        "locality": "Montreal",
                        "postcode": "H2Y 1G2",
                        "region": "QC"
                  },
                  "name": "Vieux-Port Steakhouse",
                  "popularity": 0.9651542392127176,
                  "price": 2,
                  "rating": 8.2
            },
            {
                  "distance": 842,
                  "location": {
                        "address": "245 Sherbrooke Rue O",
                        "country": "CA",
                        "cross_street": "coin Jeanne-Mance",
                        "formatted_address": "245 Sherbrooke Rue O (coin Jeanne-Mance), Montr\u00e9al QC H2X 1X7",
                        "locality": "Montreal",
                        "postcode": "H2X 1X7",
                        "region": "QC"
                  },
                  "name": "Benelux",
                  "popularity": 0.9719790878122634,
                  "price": 1,
                  "rating": 8.2
            },
            {
                  "distance": 865,
                  "location": {
                        "address": "426 Jacques-Cartier Pl",
                        "country": "CA",
                        "cross_street": "",
                        "formatted_address": "426 Jacques-Cartier Pl, Montr\u00e9al QC H2Y 3B3",
                        "locality": "Montreal",
                        "postcode": "H2Y 3B3",
                        "region": "QC"
                  },
                  "name": "Maggie Oakes",
                  "popularity": 0.9443603330809992,
                  "price": 4,
                  "rating": 8.2
            },
            {
                  "distance": 668,
                  "location": {
                        "address": "150 St Catherine Rue W",
                        "address_extended": "Room 201C",
                        "country": "CA",
                        "cross_street": "",
                        "formatted_address": "150 St Catherine Rue W, Montr\u00e9al QC H2X 3Y2",
                        "locality": "Montreal",
                        "postcode": "H2X 3Y2",
                        "region": "QC"
                  },
                  "name": "La Cage",
                  "popularity": 0.9884202308856926,
                  "price": 2,
                  "rating": 8.2,
                  "store_id": "LC_08"
            },
            {
                  "distance": 201,
                  "location": {
                        "address": "1567 Saint-Denis Rue",
                        "country": "CA",
                        "cross_street": "coin De Maisonneuve",
                        "formatted_address": "1567 Saint-Denis Rue (coin De Maisonneuve), Montr\u00e9al QC H2X 3K3",
                        "locality": "Montreal",
                        "postcode": "H2X 3K3",
                        "region": "QC"
                  },
                  "name": "Saint-Houblon",
                  "popularity": 0.9718608062074187,
                  "price": 3,
                  "rating": 8.2
            },
            {
                  "distance": 784,
                  "location": {
                        "address": "3515 Saint-Laurent Blvd",
                        "country": "CA",
                        "cross_street": "entre Sherbrooke & Prince-Arthur",
                        "formatted_address": "3515 Saint-Laurent Blvd (entre Sherbrooke & Prince-Arthur), Montr\u00e9al QC H2X 2T6",
                        "locality": "Montreal",
                        "postcode": "H2X 2T6",
                        "region": "QC"
                  },
                  "name": "McKibbin's Irish Pub",
                  "popularity": 0.9739189061317184,
                  "price": 2,
                  "rating": 8.2
            },
            {
                  "distance": 423,
                  "location": {
                        "address": "1579 Saint-Laurent Blvd",
                        "country": "CA",
                        "cross_street": "",
                        "formatted_address": "1579 Saint-Laurent Blvd, Montr\u00e9al QC H2X 2S9",
                        "locality": "Montreal",
                        "postcode": "H2X 2S9",
                        "region": "QC"
                  },
                  "name": "Bar Pamplemousse",
                  "popularity": 0.9600563020439061,
                  "rating": 8.1
            },
            {
                  "distance": 917,
                  "location": {
                        "address": "1080 Rue de Bleury",
                        "country": "CA",
                        "cross_street": "",
                        "formatted_address": "1080 Rue de Bleury, Montr\u00e9al QC H2Z 1N2",
                        "locality": "Montreal",
                        "postcode": "H2Z 1N2",
                        "region": "QC"
                  },
                  "name": "Chifa",
                  "popularity": 0.9603165215745647,
                  "price": 2,
                  "rating": 8.0
            },
            {
                  "distance": 528,
                  "location": {
                        "address": "2049 Saint-Denis Rue",
                        "country": "CA",
                        "cross_street": "entre Ontario & Sherbrooke",
                        "formatted_address": "2049 Saint-Denis Rue (entre Ontario & Sherbrooke), Montr\u00e9al QC H2X 3K8",
                        "locality": "Montreal",
                        "postcode": "H2X 3K8",
                        "region": "QC"
                  },
                  "name": "Brasserie Artisanale l'Am\u00e8re a Boire Inc",
                  "popularity": 0.9146479939439819,
                  "price": 2,
                  "rating": 7.9
            }
      ],
      "context": {
            "geo_bounds": {
                  "circle": {
                        "center": {
                              "latitude": 45.51293618,
                              "longitude": -73.5612452
                        },
                        "radius": 1000
                  }
            }
      }
}