{
      "results": [
            {
                  "distance": 811,
                  "location": {
                        "address": "1360 Rosemont Blvd",
                        "country": "CA",
                        "cross_street": "",
                        "formatted_address": "1360 Rosemont Blvd, Montr\u00e9al QC H2G 1V4",
                        "locality": "Montreal",
                        "postcode": "H2G 1V4",
                        "region": "QC"
                  },
                  "name": "Caf\u00e9 Dei Campi",
                  "popularity": 0.9428108440575321,
                  "price": 1,
                  "rating": 9.1
            },
            {
                  "distance": 741,
                  "location": {
                        "address": "1995 Masson Rue",
                        "country": "CA",
                        "cross_street": "coin Bordeaux",
                        "formatted_address": "1995 Masson Rue (coin Bordeaux), Montr\u00e9al QC H2H 1A5",
                        "locality": "Montreal",
                        "postcode": "H2H 1A5",
                        "region": "QC"
                  },
                  "name": "L'Entre-Pots",
                  "popularity": 0.955679882664648,
                  "price": 1,
                  "rating": 8.5
            },
            {
                  "distance": 519,
                  "location": {
                        "address": "2350 Beaubien Rue E",
                        "country": "CA",
                        "cross_street": "Des \u00c9cores",
                        "formatted_address": "2350 Beaubien Rue E (Des \u00c9cores), Montr\u00e9al QC H2G 1N2",
                        "locality": "Montreal",
                        "postcode": "H2G 1N2",
                        "region": "QC"
                  },
                  "name": "L'Affaire est Chocolat",
                  "popularity": 0.8962078917486752,
                  "price": 1,
                  "rating": 8.4
            },
            {
                  "distance": 188,
                  "location": {
                        "address": "2440 Rosemont Blvd",
                        "country": "CA",
                        "cross_street": "",
                        "formatted_address": "2440 Rosemont Blvd, Montr\u00e9al QC H2G 1V2",
                        "locality": "Montreal",
                        "postcode": "H2G 1V2",
                        "region": "QC"
                  },
                  "name": "Pub Rosemont",
                  "popularity": 0.9464539174867524,
                  "price": 3,
                  "rating": 8.2
            },
            {
                  "distance": 521,
                  "location": {
                        "address": "2352 Beaubien Rue E",
                        "country": "CA",
                        "cross_street": "Des \u00c9cores",
                        "formatted_address": "2352 Beaubien Rue E (Des \u00c9cores), Montr\u00e9al QC H2G 1N2",
                        "locality": "Montreal",
                        "postcode": "H2G 1N2",
                        "region": "QC"
                  },
                  "name": "Sushi Royal 5 Inc",
                  "popularity": 0.8272497161241483,
                  "price": 2,
                  "rating": 8.2
            },
            {
                  "distance": 595,
                  "location": {
                        "address": "1898 Beaubien Rue E",
                        "country": "CA",
                        "cross_street": "Chabot",
                        "formatted_address": "1898 Beaubien Rue E (Chabot), Montr\u00e9al QC H2G 1L9",
                        "locality": "Montreal",
                        "postcode": "H2G 1L9",
                        "region": "QC"
                  },
                  "name": "Sushi Itamea",
                  "popularity": 0.9421366389099167,
                  "price": 2,
                  "rating": 8.0
            },
            {
                  "distance": 525,
                  "location": {
                        "address": "2355 Beaubien Rue E",
                        "country": "CA",
                        "formatted_address": "2355 Beaubien Rue E, Montr\u00e9al QC H2G 1N3",
                        "locality": "Montreal",
                        "postcode": "H2G 1N3",
                        "region": "QC"
                  },
                  "name": "Froment et de S\u00e8ve",
                  "popularity": 0.9245008516275549,
                  "price": 1,
                  "rating": 7.8
            },
            {
                  "distance": 531,
                  "location": {
                        "address": "6505 des Ecores Rue",
                        "country": "CA",
                        "cross_street": "Beaubien Est",
                        "formatted_address": "6505 des Ecores Rue (Beaubien Est), Montr\u00e9al QC H2G 2J8",
                        "locality": "Montreal",
                        "postcode": "H2G 2J8",
                        "region": "QC"
                  },
                  "name": "Randolph Pub Ludique",
                  "popularity": 0.9249148372445117,
                  "price": 1,
                  "rating": 7.8
            },
            {
                  "distance": 502,
                  "location": {
                        "address": "2224 Beaubien Rue E",
                        "country": "CA",
                        "formatted_address": "2224 Beaubien Rue E, Montr\u00e9al QC H2G 1M7",
                        "locality": "Montreal",
                        "postcode": "H2G 1M7",
                        "region": "QC"
                  },
                  "name": "Marconi Pizzeria",
                  "popularity": 0.8903529523088569,
                  "price": 1,
                  "rating": 7.7
            },
            {
                  "distance": 921,
                  "location": {
                        "address": "2618 Masson Rue",
                        "country": "CA",
                        "cross_street": "",
                        "formatted_address": "2618 Masson Rue, Montr\u00e9al QC H1Y 3E5",
                        "locality": "Montreal",
                        "postcode": "H1Y 3E5",
                        "region": "QC"
                  },
                  "name": "La Cr\u00e9mi\u00e8re",
                  "popularity": 0.8805474072672218,
                  "price": 1,
                  "rating": 7.7
            },
            {
                  "distance": 509,
                  "location": {
                        "address": "2316 Beaubien Rue E",
                        "country": "CA",
                        "cross_street": "Louis-H\u00e9mon",
                        "formatted_address": "2316 Beaubien Rue E (Louis-H\u00e9mon), Montr\u00e9al QC H2G 1M9",
                        "locality": "Montreal",
                        "postcode": "H2G 1M9",
                        "region": "QC"
                  },
                  "name": "Bistro Chez Roger",
                  "popularity": 0.9417817940953823,
                  "price": 2,
                  "rating": 7.7
            },
            {
                  "distance": 820,
                  "location": {
                        "address": "5368 Papineau Ave",
                        "country": "CA",
                        "cross_street": "",
                        "formatted_address": "5368 Papineau Ave, Montr\u00e9al QC H2H 1W2",
                        "locality": "Montreal",
                        "postcode": "H2H 1W2",
                        "region": "QC"
                  },
                  "name": "Caf\u00e9 Orr",
                  "popularity": 0.9599853330809992,
                  "price": 1,
                  "rating": 7.6
            },
            {
                  "distance": 585,
                  "location": {
                        "address": "2500 Beaubien Rue E",
                        "country": "CA",
                        "cross_street": "coin d'Iberville",
                        "formatted_address": "2500 Beaubien Rue E (coin d'Iberville), Montr\u00e9al QC H1Y 1G2",
                        "locality": "Montreal",
                        "postcode": "H1Y 1G2",
                        "region": "QC"
                  },
                  "name": "Resto la Grand-M\u00e8re Poule",
                  "popularity": 0.9470926381529144,
                  "price": 1,
                  "rating": 7.6
            },
            {
                  "distance": 868,
                  "location": {
                        "address": "1404 Beaubien Rue E",
                        "country": "CA",
                        "cross_street": "",
                        "formatted_address": "1404 Beaubien Rue E, Montr\u00e9al QC H2G 1K9",
                        "locality": "Montreal",
                        "postcode": "H2G 1K9",
                        "region": "QC"
                  },
                  "name": "Caf\u00e9 Chiado28",
                  "popularity": 0.9532551097653293,
                  "price": 1,
                  "rating": 7.5
            },
            {
                  "distance": 512,
                  "location": {
                        "address": "2200 Beaubien Rue E",
                        "country": "CA",
                        "cross_street": "At Des Erables",
                        "formatted_address": "2200 Beaubien Rue E (At Des Erables), Montr\u00e9al QC H2G 1M7",
                        "locality": "Montreal",
                        "postcode": "H2G 1M7",
                        "region": "QC"
                  },
                  "name": "Nouveau Canada",
                  "popularity": 0.9369677327781983,
                  "price": 1,
                  "rating": 7.1
            },
            {
                  "distance": 576,
                  "location": {
                        "address": "1991 Beaubien Rue E",
                        "country": "CA",
                        "cross_street": "Bordeaux",
                        "formatted_address": "1991 Beaubien Rue E (Bordeaux), Montr\u00e9al QC H2G 1M2",
                        "locality": "Montreal",
                        "postcode": "H2G 1M2",
                        "region": "QC"
                  },
                  "name": "Caf\u00e9 l'\u00c9tincelle",
                  "popularity": 0.9640660484481454,
                  "price": 1,
                  "rating": 6.9
            },
            {
                  "distance": 549,
                  "location": {
                        "address": "2460 Dandurand Rue",
                        "country": "CA",
                        "formatted_address": "2460 Dandurand Rue, Montr\u00e9al QC H2G 2A3",
                        "locality": "Montreal",
                        "postcode": "H2G 2A3",
                        "region": "QC"
                  },
                  "name": "Tim Hortons",
                  "popularity": 0.9830857305071915,
                  "price": 1,
                  "rating": 6.5
            },
            {
                  "distance": 690,
                  "location": {
                        "address": "6448 Papineau Ave",
                        "country": "CA",
                        "cross_street": "coin Beaubien",
                        "formatted_address": "6448 Papineau Ave (coin Beaubien), Montr\u00e9al QC H2G 2W9",
                        "locality": "Montreal",
                        "postcode": "H2G 2W9",
                        "region": "QC"
                  },
                  "name": "Subway",
                  "popularity": 0.9240986941710825,
                  "price": 1,
                  "rating": 6.2,
                  "store_id": "27129"
            },
            {
                  "distance": 1344,
                  "location": {
                        "address": "5228 d'Iberville Rue",
                        "country": "CA",
                        "cross_street": "coin Masson",
                        "formatted_address": "5228 d'Iberville Rue (coin Masson), Montr\u00e9al QC H2G 2A8",
                        "locality": "Montreal",
                        "postcode": "H2G 2A8",
                        "region": "QC"
                  },
                  "name": "Bar Sel et Poivre",
                  "popularity": 0.9735758894776685,
                  "rating": 5.9
            },
            {
                  "distance": 957,
                  "location": {
                        "address": "1275 Rosemont Blvd",
                        "country": "CA",
                        "formatted_address": "1275 Rosemont Blvd, Montr\u00e9al QC H2S 3L9",
                        "locality": "Montreal",
                        "postcode": "H2S 3L9",
                        "region": "QC"
                  },
                  "name": "McDonald's",
                  "popularity": 0.9897449848599545,
                  "price": 1,
                  "rating": 5.4,
                  "store_id": "2964"
            },
            {
                  "distance": 820,
                  "location": {
                        "address": "2530 Masson Rue",
                        "country": "CA",
                        "cross_street": "coin Iberville",
                        "formatted_address": "2530 Masson Rue (coin Iberville), Montr\u00e9al QC H1Y 1V8",
                        "locality": "Montreal",
                        "postcode": "H1Y 1V8",
                        "region": "QC"
                  },
                  "name": "McDonald's",
                  "popularity": 0.9850965177895533,
                  "price": 1,
                  "rating": 5.1,
                  "store_id": "5336"
            },
            {
                  "distance": 124,
                  "location": {
                        "address": "5885 Papineau Ave",
                        "country": "CA",
                        "cross_street": "De Lorimier",
                        "formatted_address": "5885 Papineau Ave (De Lorimier), Montr\u00e9al QC H2G 2W5",
                        "locality": "Montreal",
                        "postcode": "H2G 2W5",
                        "region": "QC"
                  },
                  "name": "Grozepa Brasserie Urbaine",
                  "popularity": 0.969708080999243,
                  "price": 2
            },
            {
                  "distance": 507,
                  "location": {
                        "address": "2040 Beaubien Rue E",
                        "country": "CA",
                        "cross_street": "",
                        "formatted_address": "2040 Beaubien Rue E, Montr\u00e9al QC H2G 1M4",
                        "locality": "Montreal",
                        "postcode": "H2G 1M4",
                        "region": "QC"
                  },
                  "name": "Calaveras",
                  "popularity": 0.9169071725965178,
                  "price": 1
            },
            {
                  "distance": 613,
                  "location": {
                        "address": "2522 Beaubien Rue E",
                        "country": "CA",
                        "cross_street": "Rue d'Iberville",
                        "formatted_address": "2522 Beaubien Rue E (Rue d'Iberville), Montr\u00e9al QC H1Y 1G2",
                        "locality": "Montreal",
                        "postcode": "H1Y 1G2",
                        "region": "QC"
                  },
                  "name": "La Brass\u00e9e",
                  "popularity": 0.9355483535200606,
                  "price": 1
            },
            {
                  "distance": 626,
                  "location": {
                        "address": "5477 Chabot Rue",
                        "country": "CA",
                        "cross_street": "",
                        "formatted_address": "5477 Chabot Rue, Montr\u00e9al QC H2H 1Z1",
                        "locality": "Montreal",
                        "postcode": "H2H 1Z1",
                        "region": "QC"
                  },
                  "name": "Maison Chabot",
                  "popularity": 0.9506765707797123,
                  "price": 1
            },
            {
                  "distance": 657,
                  "location": {
                        "address": "5500 Fullum Rue",
                        "address_extended": "Suite 105",
                        "country": "CA",
                        "cross_street": "",
                        "formatted_address": "5500 Fullum Rue, Montr\u00e9al QC H2G 2H3",
                        "locality": "Montreal",
                        "postcode": "H2G 2H3",
                        "region": "QC"
                  },
                  "name": "Kittel Compagnie de Caf\u00e9",
                  "popularity": 0.044816900075700224,
                  "price": 1
            },
            {
                  "distance": 679,
                  "location": {
                        "address": "6442 Papineau Ave",
                        "country": "CA",
                        "cross_street": "Beaubien",
                        "formatted_address": "6442 Papineau Ave (Beaubien), Montr\u00e9al QC H2G 2W9",
                        "locality": "Montreal",
                        "postcode": "H2G 2W9",
                        "region": "QC"
                  },
                  "name": "Bar Paspebiac",
                  "popularity": 0.8786549015897047,
                  "price": 2
            },
            {
                  "distance": 765,
                  "location": {
                        "address": "5416 d'Iberville Rue",
                        "country": "CA",
                        "cross_street": "Masson",
                        "formatted_address": "5416 d'Iberville Rue (Masson), Montr\u00e9al QC",
                        "locality": "Montreal",
                        "region": "QC"
                  },
                  "name": "Kool Cafe Inc",
                  "popularity": 0.15313919379258137,
                  "price": 2
            },
            {
                  "distance": 851,
                  "location": {
                        "address": "2581 Masson Rue",
                        "country": "CA",
                        "cross_street": "1\u00e8re avenue",
                        "formatted_address": "2581 Masson Rue (1\u00e8re avenue), Montr\u00e9al QC H1Y 1V7",
                        "locality": "Montreal",
                        "postcode": "H1Y 1V7",
                        "region": "QC"
                  },
                  "name": "Bar Chez Tzina",
                  "popularity": 0.9494227857683573,
                  "price": 1
            },
            {
                  "distance": 877,
                  "location": {
                        "address": "1951 Beaubien Rue E",
                        "country": "CA",
                        "cross_street": "Chabot",
                        "formatted_address": "1951 Beaubien Rue E (Chabot), Montr\u00e9al QC H2G 1M2",
                        "locality": "Montreal",
                        "postcode": "H2G 1M2",
                        "region": "QC"
                  },
                  "name": "Du Pain et des Roses",
                  "popularity": 0.8573050719152158,
                  "price": 1
            },
            {
                  "distance": 897,
                  "location": {
                        "address": "2609 Masson Rue",
                        "country": "CA",
                        "cross_street": "",
                        "formatted_address": "2609 Masson Rue, Montreal QC H1Y 1W1",
                        "locality": "Montreal",
                        "postcode": "H1Y 1W1",
                        "region": "QC"
                  },
                  "name": "Broue Bar Gasp\u00e9",
                  "popularity": 0.06894634746404239,
                  "price": 2
            },
            {
                  "distance": 983,
                  "location": {
                        "address": "1335 Beaubien Rue E",
                        "country": "CA",
                        "cross_street": "",
                        "formatted_address": "1335 Beaubien Rue E, Montr\u00e9al QC H2G 1K7",
                        "locality": "Montreal",
                        "postcode": "H2G 1K7",
                        "region": "QC"
                  },
                  "name": "La Belle Tonki",
                  "popularity": 0.9382806585919757,
                  "price": 2
            },
            {
                  "distance": 1392,
                  "location": {
                        "address": "2862 Rosemont Blvd",
                        "country": "CA",
                        "cross_street": "5e Avenue",
                        "formatted_address": "2862 Rosemont Blvd (5e Avenue), Montr\u00e9al QC H1Y 1L7",
                        "locality": "Montreal",
                        "postcode": "H1Y 1L7",
                        "region": "QC"
                  },
                  "name": "O Fuzion",
                  "popularity": 0.09026069265707796,
                  "price": 2
            },
            {
                  "distance": 2392,
                  "location": {
                        "address": "5440 d'Iberville Rue",
                        "country": "CA",
                        "cross_street": "Masson",
                        "formatted_address": "5440 d'Iberville Rue (Masson), Montr\u00e9al QC H2G 2B1",
                        "locality": "Montreal",
                        "postcode": "H2G 2B1",
                        "region": "QC"
                  },
                  "name": "Les Productions Paga",
                  "popularity": 0.23406746782740348,
                  "price": 2
            },
            {
                  "distance": 124,
                  "location": {
                        "address": "2137 Rosemont Blvd",
                        "country": "CA",
                        "formatted_address": "2137 Rosemont Blvd, Montreal QC H2G 1T3",
                        "locality": "Montreal",
                        "postcode": "H2G 1T3",
                        "region": "QC"
                  },
                  "name": "Taverne les Torch\u00e9s Rosemont"
            }
      ],
      "context": {
            "geo_bounds": {
                  "circle": {
                        "center": {
                              "latitude": 45.5443385,
                              "longitude": -73.58794391
                        },
                        "radius": 1000
                  }
            }
      }
}