{
      "results": [
            {
                  "distance": 579,
                  "location": {
                        "address": "6128 Ave de Monkland",
                        "country": "CA",
                        "cross_street": "Beaconsfield",
                        "formatted_address": "6128 Ave de Monkland (Beaconsfield), Montr\u00e9al QC H4A 1H4",
                        "locality": "Montreal",
                        "postcode": "H4A 1H4",
                        "region": "QC"
                  },
                  "name": "Caf\u00e9 de' Mercanti",
                  "popularity": 0.9613573996971991,
                  "price": 1,
                  "rating": 9.1
            },
            {
                  "distance": 527,
                  "location": {
                        "address": "6703 Sherbrooke Rue O",
                        "country": "CA",
                        "cross_street": "Montclair St.",
                        "formatted_address": "6703 Sherbrooke Rue O (Montclair St.), Montr\u00e9al QC H4B 1P3",
                        "locality": "Montreal",
                        "postcode": "H4B 1P3",
                        "region": "QC"
                  },
                  "name": "Cafe 92 Degres",
                  "popularity": 0.9332300340651022,
                  "price": 1,
                  "rating": 8.7
            },
            {
                  "distance": 666,
                  "location": {
                        "address": "6710 Saint Jacques Rue O",
                        "country": "CA",
                        "formatted_address": "6710 Saint Jacques Rue O, Montr\u00e9al QC H4B 1V8",
                        "locality": "Montreal",
                        "postcode": "H4B 1V8",
                        "region": "QC"
                  },
                  "name": "Eggs Frutti",
                  "popularity": 0.9720618849356548,
                  "price": 1,
                  "rating": 8.2
            },
            {
                  "distance": 455,
                  "location": {
                        "address": "6135 Sherbrooke Rue O",
                        "country": "CA",
                        "cross_street": "Grand Boulevard",
                        "formatted_address": "6135 Sherbrooke Rue O (Grand Boulevard), Montr\u00e9al QC H4A 1Y4",
                        "locality": "Montreal",
                        "postcode": "H4A 1Y4",
                        "region": "QC"
                  },
                  "name": "Dawa",
                  "popularity": 0.9545325510976533,
                  "price": 2,
                  "rating": 8.1
            },
            {
                  "distance": 562,
                  "location": {
                        "address": "6151 Ave de Monkland",
                        "country": "CA",
                        "cross_street": "",
                        "formatted_address": "6151 Ave de Monkland, Montr\u00e9al QC H4B 1G3",
                        "locality": "Montreal",
                        "postcode": "H4B 1G3",
                        "region": "QC"
                  },
                  "name": "La Meunerie Urbaine",
                  "popularity": 0.9667155563966692,
                  "price": 1,
                  "rating": 7.8
            },
            {
                  "distance": 817,
                  "location": {
                        "address": "5860 Sherbrooke Rue W",
                        "country": "CA",
                        "cross_street": "btwn Regent & Clifton",
                        "formatted_address": "5860 Sherbrooke Rue W (btwn Regent & Clifton), Montr\u00e9al QC H4A 1X5",
                        "locality": "Montreal",
                        "postcode": "H4A 1X5",
                        "region": "QC"
                  },
                  "name": "Star of India",
                  "popularity": 0.8855507191521574,
                  "price": 2,
                  "rating": 7.6
            },
            {
                  "distance": 199,
                  "location": {
                        "address": "3373 Cavendish Blvd",
                        "country": "CA",
                        "cross_street": "",
                        "formatted_address": "3373 Cavendish Blvd, Montr\u00e9al QC H4B 2L7",
                        "locality": "Montreal",
                        "postcode": "H4B 2L7",
                        "region": "QC"
                  },
                  "name": "The Wheel Club",
                  "popularity": 0.9835943414080243,
                  "rating": 7.5
            },
            {
                  "distance": 538,
                  "location": {
                        "address": "6079 Sherbrooke Rue O",
                        "country": "CA",
                        "formatted_address": "6079 Sherbrooke Rue O, Montr\u00e9al QC H4A 1Y2",
                        "locality": "Montreal",
                        "postcode": "H4A 1Y2",
                        "region": "QC"
                  },
                  "name": "Ganges Restaurant",
                  "popularity": 0.866377271006813,
                  "price": 2,
                  "rating": 7.3
            },
            {
                  "distance": 990,
                  "location": {
                        "address": "5766 Ave de Monkland",
                        "country": "CA",
                        "cross_street": "",
                        "formatted_address": "5766 Ave de Monkland, Montr\u00e9al QC H4A 1E9",
                        "locality": "Montreal",
                        "postcode": "H4A 1E9",
                        "region": "QC"
                  },
                  "name": "Gia Ba",
                  "popularity": 0.8727763058289175,
                  "rating": 7.3
            },
            {
                  "distance": 583,
                  "location": {
                        "address": "6127 Ave de Monkland",
                        "country": "CA",
                        "cross_street": "",
                        "formatted_address": "6127 Ave de Monkland, Montr\u00e9al QC H4A 1H5",
                        "locality": "Montreal",
                        "postcode": "H4A 1H5",
                        "region": "QC"
                  },
                  "name": "Bistro Amerigo",
                  "popularity": 0.9265944360333082,
                  "rating": 7.3
            },
            {
                  "distance": 946,
                  "location": {
                        "address": "6290 Somerled Ave",
                        "country": "CA",
                        "cross_street": "",
                        "formatted_address": "6290 Somerled Ave, Montr\u00e9al QC H3X 2B6",
                        "locality": "Montreal",
                        "postcode": "H3X 2B6",
                        "region": "QC"
                  },
                  "name": "Mon Ami",
                  "popularity": 0.9605767411052233,
                  "price": 2,
                  "rating": 7.1
            },
            {
                  "distance": 976,
                  "location": {
                        "address": "6200 Somerled Ave",
                        "country": "CA",
                        "cross_street": "",
                        "formatted_address": "6200 Somerled Ave, Montr\u00e9al QC H3X 2B3",
                        "locality": "Montreal",
                        "postcode": "H3X 2B3",
                        "region": "QC"
                  },
                  "name": "Restaurant B & M",
                  "popularity": 0.9727479182437547,
                  "price": 3,
                  "rating": 7.0
            },
            {
                  "distance": 743,
                  "location": {
                        "address": "5916 Sherbrooke Rue O",
                        "country": "CA",
                        "cross_street": "",
                        "formatted_address": "5916 Sherbrooke Rue O, Montr\u00e9al QC H4A 1X7",
                        "locality": "Montreal",
                        "postcode": "H4A 1X7",
                        "region": "QC"
                  },
                  "name": "Honey Martin",
                  "popularity": 0.9609670704012112,
                  "price": 1,
                  "rating": 6.8
            },
            {
                  "distance": 945,
                  "location": {
                        "address": "6295 Somerled Ave",
                        "country": "CA",
                        "cross_street": "",
                        "formatted_address": "6295 Somerled Ave, Montr\u00e9al QC H3X 2B7",
                        "locality": "Montreal",
                        "postcode": "H3X 2B7",
                        "region": "QC"
                  },
                  "name": "Subway",
                  "popularity": 0.9035531794095383,
                  "price": 1,
                  "rating": 6.3,
                  "store_id": "44889"
            },
            {
                  "distance": 380,
                  "location": {
                        "address": "6495 St Jacques Rue",
                        "country": "CA",
                        "cross_street": "Cavendish",
                        "formatted_address": "6495 St Jacques Rue (Cavendish), Montr\u00e9al QC H4B 1V1",
                        "locality": "Montreal",
                        "postcode": "H4B 1V1",
                        "region": "QC"
                  },
                  "name": "Tim Hortons",
                  "popularity": 0.9952923921271764,
                  "price": 1,
                  "rating": 6.3
            },
            {
                  "distance": 10,
                  "location": {
                        "address": "6390 Sherbrooke Rue O",
                        "country": "CA",
                        "cross_street": "",
                        "formatted_address": "6390 Sherbrooke Rue O, Montr\u00e9al QC H4B 1M9",
                        "locality": "Montreal",
                        "postcode": "H4B 1M9",
                        "region": "QC"
                  },
                  "name": "Pizza Pizza",
                  "popularity": 0.9750189250567751,
                  "price": 1,
                  "rating": 6.3,
                  "store_id": "302"
            },
            {
                  "distance": 842,
                  "location": {
                        "address": "5850 Sherbrooke Rue O",
                        "country": "CA",
                        "cross_street": "Regent",
                        "formatted_address": "5850 Sherbrooke Rue O (Regent), Montr\u00e9al QC H4A 1X5",
                        "locality": "Montreal",
                        "postcode": "H4A 1X5",
                        "region": "QC"
                  },
                  "name": "La Louisiane",
                  "popularity": 0.8622137585162756,
                  "price": 2,
                  "rating": 6.0
            },
            {
                  "distance": 1005,
                  "location": {
                        "address": "5752 Ave de Monkland",
                        "country": "CA",
                        "cross_street": "coin Wilson",
                        "formatted_address": "5752 Ave de Monkland (coin Wilson), Montr\u00e9al QC H4A 1E9",
                        "locality": "Montreal",
                        "postcode": "H4A 1E9",
                        "region": "QC"
                  },
                  "name": "Typhoon Lounge",
                  "popularity": 0.9507830242240727,
                  "price": 2,
                  "rating": 6.0
            },
            {
                  "distance": 850,
                  "location": {
                        "address": "6180 Saint-Jacques Rue",
                        "country": "CA",
                        "formatted_address": "6180 Saint-Jacques Rue, Montr\u00e9al QC H4B 1T6",
                        "locality": "Montreal",
                        "postcode": "H4B 1T6",
                        "region": "QC"
                  },
                  "name": "Restaurant Shabu Shabu",
                  "popularity": 0.9392623959121877,
                  "price": 2,
                  "rating": 5.9
            },
            {
                  "distance": 68,
                  "location": {
                        "address": "6365 Sherbrooke Rue O",
                        "country": "CA",
                        "cross_street": "",
                        "formatted_address": "6365 Sherbrooke Rue O, Montreal QC H4B 1N1",
                        "locality": "Montreal",
                        "postcode": "H4B 1N1",
                        "region": "QC"
                  },
                  "name": "Amir",
                  "popularity": 0.929196631339894,
                  "price": 2
            },
            {
                  "distance": 207,
                  "location": {
                        "address": "3300 Cavendish Blvd",
                        "country": "CA",
                        "formatted_address": "3300 Cavendish Blvd, Montr\u00e9al QC H4B 2M8",
                        "locality": "Montreal",
                        "postcode": "H4B 2M8",
                        "region": "QC"
                  },
                  "name": "Seoul B B Q",
                  "popularity": 0.8914529712339136,
                  "price": 2
            },
            {
                  "distance": 593,
                  "location": {
                        "address": "6112 Ave de Monkland",
                        "country": "CA",
                        "cross_street": "",
                        "formatted_address": "6112 Ave de Monkland, Montr\u00e9al QC H4A 1H4",
                        "locality": "Montreal",
                        "postcode": "H4A 1H4",
                        "region": "QC"
                  },
                  "name": "Gyro Boutique",
                  "popularity": 0.099179125662377,
                  "price": 2
            },
            {
                  "distance": 677,
                  "location": {
                        "address": "6710 Saint-Jacques Rue",
                        "country": "CA",
                        "cross_street": "",
                        "formatted_address": "6710 Saint-Jacques Rue, Montr\u00e9al QC H4B 1V8",
                        "locality": "Montreal",
                        "postcode": "H4B 1V8",
                        "region": "QC"
                  },
                  "name": "Kosa Restaurant",
                  "popularity": 0.946099072672218,
                  "price": 2
            },
            {
                  "distance": 709,
                  "location": {
                        "address": "5942 Sherbrooke Rue O",
                        "address_extended": "Belgrave",
                        "country": "CA",
                        "cross_street": "Belgrave",
                        "formatted_address": "5942 Sherbrooke Rue O (Belgrave), Montr\u00e9al QC H4A 1X7",
                        "locality": "Montreal",
                        "postcode": "H4A 1X7",
                        "region": "QC"
                  },
                  "name": "L'Gros Luxe NDG",
                  "popularity": 0.9426925624526874,
                  "price": 2
            },
            {
                  "distance": 715,
                  "location": {
                        "address": "5899 Sherbrooke Rue O",
                        "country": "CA",
                        "cross_street": "",
                        "formatted_address": "5899 Sherbrooke Rue O, Montr\u00e9al QC H4A 1X6",
                        "locality": "Montreal",
                        "postcode": "H4A 1X6",
                        "region": "QC"
                  },
                  "name": "Crusty's",
                  "popularity": 0.8394090651021953,
                  "price": 1
            },
            {
                  "distance": 732,
                  "location": {
                        "address": "5914 Sherbrooke Rue O",
                        "country": "CA",
                        "cross_street": "rue Clifton",
                        "formatted_address": "5914 Sherbrooke Rue O (rue Clifton), Montreal QC H4A 1X7",
                        "locality": "Montreal",
                        "postcode": "H4A 1X7",
                        "region": "QC"
                  },
                  "name": "Jean's Trinidad Foods",
                  "popularity": 0.7059164458743377,
                  "price": 2
            },
            {
                  "distance": 740,
                  "location": {
                        "address": "6752 St Jacques O",
                        "country": "CA",
                        "cross_street": "",
                        "formatted_address": "6752 St Jacques O, Montr\u00e9al QC",
                        "locality": "Montreal",
                        "region": "QC"
                  },
                  "name": "La Belle Province",
                  "popularity": 0.8788441521574565,
                  "price": 1
            },
            {
                  "distance": 742,
                  "location": {
                        "address": "5893 Sherbrooke Rue O",
                        "country": "CA",
                        "cross_street": "",
                        "formatted_address": "5893 Sherbrooke Rue O, Montr\u00e9al QC H4A 1X6",
                        "locality": "Montreal",
                        "postcode": "H4A 1X6",
                        "region": "QC"
                  },
                  "name": "East Africa",
                  "popularity": 0.617997728993187,
                  "price": 2
            },
            {
                  "distance": 884,
                  "location": {
                        "address": "6926 Sherbrooke Rue O",
                        "address_extended": "Suite 1",
                        "country": "CA",
                        "cross_street": "",
                        "formatted_address": "6926 Sherbrooke Rue O, Montr\u00e9al QC H4B 1P9",
                        "locality": "Montreal",
                        "postcode": "H4B 1P9",
                        "region": "QC"
                  },
                  "name": "MIA Caf\u00e9 Club",
                  "popularity": 0.8483156699470098,
                  "price": 1
            },
            {
                  "distance": 892,
                  "location": {
                        "address": "5828 Sherbrooke St W",
                        "country": "CA",
                        "cross_street": "",
                        "formatted_address": "5828 Sherbrooke St W, Montr\u00e9al QC H4A 1X3",
                        "locality": "Montreal",
                        "postcode": "H4A 1X3",
                        "region": "QC"
                  },
                  "name": "Babylon",
                  "popularity": 0.9101296366389099,
                  "price": 1
            },
            {
                  "distance": 905,
                  "location": {
                        "address": "5800 Sherbrooke Rue O",
                        "country": "CA",
                        "cross_street": "",
                        "formatted_address": "5800 Sherbrooke Rue O, Montr\u00e9al QC H4A 1X3",
                        "locality": "Montreal",
                        "postcode": "H4A 1X3",
                        "region": "QC"
                  },
                  "name": "Bombay Mahal",
                  "popularity": 0.8857399697199092,
                  "price": 2
            },
            {
                  "distance": 919,
                  "location": {
                        "address": "5791 Sherbrooke Rue O",
                        "country": "CA",
                        "cross_street": "Melrose",
                        "formatted_address": "5791 Sherbrooke Rue O (Melrose), Montr\u00e9al QC H4A 1X2",
                        "locality": "Montreal",
                        "postcode": "H4A 1X2",
                        "region": "QC"
                  },
                  "name": "Cafe Toranj",
                  "popularity": 0.9556325700227101,
                  "price": 1
            },
            {
                  "distance": 946,
                  "location": {
                        "address": "6280 Somerled Ave",
                        "country": "CA",
                        "cross_street": "",
                        "formatted_address": "6280 Somerled Ave, Montr\u00e9al QC H3X 2B6",
                        "locality": "Montreal",
                        "postcode": "H3X 2B6",
                        "region": "QC"
                  },
                  "name": "Bar Sora",
                  "popularity": 0.8962552043906131,
                  "price": 2
            },
            {
                  "distance": 948,
                  "location": {
                        "address": "6969 Sherbrooke Rue O",
                        "country": "CA",
                        "cross_street": "",
                        "formatted_address": "6969 Sherbrooke Rue O, Montr\u00e9al QC H4B 1R1",
                        "locality": "Montreal",
                        "postcode": "H4B 1R1",
                        "region": "QC"
                  },
                  "name": "Dagwoods Sandwiches",
                  "popularity": 0.9354892127176382,
                  "price": 1
            },
            {
                  "distance": 960,
                  "location": {
                        "address": "6216 Somerled Ave",
                        "country": "CA",
                        "cross_street": "Grand Boulevard",
                        "formatted_address": "6216 Somerled Ave (Grand Boulevard), Montr\u00e9al QC H3X 2B3",
                        "locality": "Montreal",
                        "postcode": "H3X 2B3",
                        "region": "QC"
                  },
                  "name": "La Maison des Cinqs",
                  "popularity": 0.3765494890234671,
                  "price": 1
            }
      ],
      "context": {
            "geo_bounds": {
                  "circle": {
                        "center": {
                              "latitude": 45.464877,
                              "longitude": -73.62659723
                        },
                        "radius": 1000
                  }
            }
      }
}