{
      "results": [
            {
                  "distance": 603,
                  "location": {
                        "address": "6817 Newman Blvd",
                        "country": "CA",
                        "cross_street": "",
                        "formatted_address": "6817 Newman Blvd, Lasalle QC H8N 3E4",
                        "locality": "Lasalle",
                        "postcode": "H8N 3E4",
                        "region": "QC"
                  },
                  "name": "All\u00f4! Mon Coco",
                  "popularity": 0.9909278009084027,
                  "price": 1,
                  "rating": 8.0
            },
            {
                  "distance": 929,
                  "location": {
                        "address": "6588 Monk Blvd",
                        "country": "CA",
                        "cross_street": "",
                        "formatted_address": "6588 Monk Blvd, Montr\u00e9al QC H4E 3J1",
                        "locality": "Montreal",
                        "postcode": "H4E 3J1",
                        "region": "QC"
                  },
                  "name": "Restaurant Pizza Nino",
                  "popularity": 0.9347795230885693,
                  "price": 4,
                  "rating": 7.9
            },
            {
                  "distance": 870,
                  "location": {
                        "address": "2376 Allard Rue",
                        "country": "CA",
                        "cross_street": "",
                        "formatted_address": "2376 Allard Rue, Montr\u00e9al QC H4E 2K9",
                        "locality": "Montreal",
                        "postcode": "H4E 2K9",
                        "region": "QC"
                  },
                  "name": "Caf\u00e9 Central",
                  "popularity": 0.9587906888720666,
                  "price": 1,
                  "rating": 7.8
            },
            {
                  "distance": 487,
                  "location": {
                        "address": "2851 Allard Rue",
                        "country": "CA",
                        "cross_street": "",
                        "formatted_address": "2851 Allard Rue, Montr\u00e9al QC H4E 2M1",
                        "locality": "Montreal",
                        "postcode": "H4E 2M1",
                        "region": "QC"
                  },
                  "name": "Dilallo Burger Original 1929",
                  "popularity": 0.9933289174867524,
                  "price": 1,
                  "rating": 7.7
            },
            {
                  "distance": 1020,
                  "location": {
                        "address": "7077 Newman Blvd",
                        "country": "CA",
                        "cross_street": "",
                        "formatted_address": "7077 Newman Blvd, Lasalle QC H8N 1X1",
                        "locality": "Lasalle",
                        "postcode": "H8N 1X1",
                        "region": "QC"
                  },
                  "name": "Thai Express",
                  "popularity": 0.9880299015897047,
                  "price": 2,
                  "rating": 6.4
            },
            {
                  "distance": 684,
                  "location": {
                        "address": "6857 Newman Blvd",
                        "country": "CA",
                        "formatted_address": "6857 Newman Blvd, Lasalle QC H8N 3E4",
                        "locality": "Lasalle",
                        "postcode": "H8N 3E4",
                        "region": "QC"
                  },
                  "name": "Boston Pizza",
                  "popularity": 0.9398774602573807,
                  "price": 1,
                  "rating": 6.0,
                  "store_id": "BP_251"
            },
            {
                  "distance": 873,
                  "location": {
                        "address": "6797 Newman Blvd",
                        "country": "CA",
                        "cross_street": "In Walmart",
                        "formatted_address": "6797 Newman Blvd (In Walmart), Lasalle QC H8N 3E4",
                        "locality": "Lasalle",
                        "postcode": "H8N 3E4",
                        "region": "QC"
                  },
                  "name": "McDonald's",
                  "popularity": 0.9632380772142316,
                  "price": 1,
                  "rating": 5.9
            },
            {
                  "distance": 785,
                  "location": {
                        "address": "7077 Newman Blvd",
                        "country": "CA",
                        "cross_street": "",
                        "formatted_address": "7077 Newman Blvd, Lasalle QC H8N 1X1",
                        "locality": "Lasalle",
                        "postcode": "H8N 1X1",
                        "region": "QC"
                  },
                  "name": "Cage Aux Sports",
                  "popularity": 0.9391086298258895,
                  "price": 2,
                  "rating": 5.7
            },
            {
                  "distance": 778,
                  "location": {
                        "address": "2437 Allard Rue",
                        "country": "CA",
                        "cross_street": "Beaulieu",
                        "formatted_address": "2437 Allard Rue (Beaulieu), Montr\u00e9al QC H4E 2L3",
                        "locality": "Montreal",
                        "postcode": "H4E 2L3",
                        "region": "QC"
                  },
                  "name": "Gourmet Aldo",
                  "popularity": 0.8908024224072673,
                  "price": 1
            },
            {
                  "distance": 887,
                  "location": {
                        "address": "6688 Monk Blvd",
                        "country": "CA",
                        "cross_street": "Boul allard",
                        "formatted_address": "6688 Monk Blvd (Boul allard), Montr\u00e9al QC H4E 3J1",
                        "locality": "Montreal",
                        "postcode": "H4E 3J1",
                        "region": "QC"
                  },
                  "name": "Sports Rock Cafe",
                  "popularity": 0.9659230696442089
            },
            {
                  "distance": 973,
                  "location": {
                        "address": "7077 Newman Blvd",
                        "country": "CA",
                        "cross_street": "",
                        "formatted_address": "7077 Newman Blvd, Lasalle QC H8N 1X1",
                        "locality": "Lasalle",
                        "postcode": "H8N 1X1",
                        "region": "QC"
                  },
                  "name": "Cultures",
                  "popularity": 0.0763980885692657,
                  "price": 1
            },
            {
                  "distance": 975,
                  "location": {
                        "address": "6540 Monk Blvd",
                        "country": "CA",
                        "cross_street": "",
                        "formatted_address": "6540 Monk Blvd, Montr\u00e9al QC H4E 3J1",
                        "locality": "Montreal",
                        "postcode": "H4E 3J1",
                        "region": "QC"
                  },
                  "name": "Cafe Collab",
                  "popularity": 0.839598315669947,
                  "price": 1
            },
            {
                  "distance": 980,
                  "location": {
                        "address": "6556 Monk Blvd",
                        "country": "CA",
                        "cross_street": "Springland",
                        "formatted_address": "6556 Monk Blvd (Springland), Montr\u00e9al QC H4E 3J1",
                        "locality": "Montreal",
                        "postcode": "H4E 3J1",
                        "region": "QC"
                  },
                  "name": "Ville-\u00c9mard Bagels",
                  "popularity": 0.8834689629068887,
                  "price": 1
            },
            {
                  "distance": 1002,
                  "location": {
                        "address": "7077 Newman Blvd",
                        "country": "CA",
                        "cross_street": "",
                        "formatted_address": "7077 Newman Blvd, Montr\u00e9al QC H8N 1X1",
                        "locality": "Montreal",
                        "postcode": "H8N 1X1",
                        "region": "QC"
                  },
                  "name": "Amir",
                  "popularity": 0.892245457986374,
                  "price": 2
            },
            {
                  "distance": 1004,
                  "location": {
                        "address": "7077 Newman Blvd",
                        "country": "CA",
                        "cross_street": "",
                        "formatted_address": "7077 Newman Blvd, Lasalle QC H8N 1X1",
                        "locality": "Lasalle",
                        "postcode": "H8N 1X1",
                        "region": "QC"
                  },
                  "name": "Poulet Rouge",
                  "popularity": 0.9702521763815292,
                  "price": 2
            },
            {
                  "distance": 401,
                  "location": {
                        "address": "7048 Allard Rue",
                        "country": "CA",
                        "formatted_address": "7048 Allard Rue, Lasalle QC H8N 0E1",
                        "locality": "Lasalle",
                        "postcode": "H8N 0E1",
                        "region": "QC"
                  },
                  "name": "Palais Elegant Asiatique"
            },
            {
                  "distance": 657,
                  "location": {
                        "address": "7077 Newman Blvd",
                        "country": "CA",
                        "formatted_address": "7077 Newman Blvd, Lasalle QC H8N 1X1",
                        "locality": "Lasalle",
                        "postcode": "H8N 1X1",
                        "region": "QC"
                  },
                  "name": "Yogen Fr\u00fcz"
            },
            {
                  "distance": 661,
                  "location": {
                        "address": "2600 Allard Rue",
                        "country": "CA",
                        "formatted_address": "2600 Allard Rue, Montreal QC H4E 2L6",
                        "locality": "Montreal",
                        "postcode": "H4E 2L6",
                        "region": "QC"
                  },
                  "name": "Au Rendez Vous Snack Bar"
            },
            {
                  "distance": 668,
                  "location": {
                        "address": "7077 Newman Blvd",
                        "country": "CA",
                        "formatted_address": "7077 Newman Blvd, Lasalle QC H8N 1X1",
                        "locality": "Lasalle",
                        "postcode": "H8N 1X1",
                        "region": "QC"
                  },
                  "name": "Yogen Fruz Frozen Yogurt"
            },
            {
                  "distance": 818,
                  "location": {
                        "address": "7077 Newman Blvd",
                        "country": "CA",
                        "formatted_address": "7077 Newman Blvd, Lasalle QC H8N 1X1",
                        "locality": "Lasalle",
                        "postcode": "H8N 1X1",
                        "region": "QC"
                  },
                  "name": "Made in Japan"
            },
            {
                  "distance": 818,
                  "location": {
                        "address": "7077 Newman Blvd",
                        "country": "CA",
                        "formatted_address": "7077 Newman Blvd, Lasalle QC H8N 1X1",
                        "locality": "Lasalle",
                        "postcode": "H8N 1X1",
                        "region": "QC"
                  },
                  "name": "Cafe Depot Angrignon"
            },
            {
                  "distance": 819,
                  "location": {
                        "address": "7077 Newman Blvd",
                        "country": "CA",
                        "formatted_address": "7077 Newman Blvd, Lasalle QC H8N 1X1",
                        "locality": "Lasalle",
                        "postcode": "H8N 1X1",
                        "region": "QC"
                  },
                  "name": "Franx Supreme Angrignon"
            },
            {
                  "distance": 819,
                  "location": {
                        "address": "7077 Newman Blvd",
                        "country": "CA",
                        "formatted_address": "7077 Newman Blvd, Lasalle QC H8N 1X1",
                        "locality": "Lasalle",
                        "postcode": "H8N 1X1",
                        "region": "QC"
                  },
                  "name": "Mangione Pizza"
            },
            {
                  "distance": 819,
                  "location": {
                        "address": "7077 Newman Blvd",
                        "country": "CA",
                        "formatted_address": "7077 Newman Blvd, Lasalle QC H8N 1X1",
                        "locality": "Lasalle",
                        "postcode": "H8N 1X1",
                        "region": "QC"
                  },
                  "name": "Sulposto"
            },
            {
                  "distance": 819,
                  "location": {
                        "address": "7077 Newman Blvd",
                        "address_extended": "# 57",
                        "country": "CA",
                        "formatted_address": "7077 Newman Blvd, Lasalle QC H8N 1X1",
                        "locality": "Lasalle",
                        "postcode": "H8N 1X1",
                        "region": "QC"
                  },
                  "name": "Cafe Depot"
            },
            {
                  "distance": 819,
                  "location": {
                        "address": "7077 Newman Blvd",
                        "country": "CA",
                        "formatted_address": "7077 Newman Blvd, Lasalle QC H8N 1X1",
                        "locality": "Lasalle",
                        "postcode": "H8N 1X1",
                        "region": "QC"
                  },
                  "name": "Taco Supreme"
            },
            {
                  "distance": 844,
                  "location": {
                        "address": "6723 Monk Blvd",
                        "country": "CA",
                        "formatted_address": "6723 Monk Blvd, Montreal QC H4E 3J2",
                        "locality": "Montreal",
                        "postcode": "H4E 3J2",
                        "region": "QC"
                  },
                  "name": "Yasolo Fine Epicerie Exotique"
            },
            {
                  "distance": 844,
                  "location": {
                        "address": "6717 Monk Blvd",
                        "country": "CA",
                        "formatted_address": "6717 Monk Blvd, Montreal QC H4E 3J2",
                        "locality": "Montreal",
                        "postcode": "H4E 3J2",
                        "region": "QC"
                  },
                  "name": "Kurde Pizza Restaurant"
            },
            {
                  "distance": 851,
                  "location": {
                        "address": "6723 Monk Blvd",
                        "country": "CA",
                        "formatted_address": "6723 Monk Blvd, Montreal QC H4E 3J2",
                        "locality": "Montreal",
                        "postcode": "H4E 3J2",
                        "region": "QC"
                  },
                  "name": "Maison Tsui Yuen"
            },
            {
                  "distance": 852,
                  "location": {
                        "address": "6717 Monk Blvd",
                        "country": "CA",
                        "formatted_address": "6717 Monk Blvd, Montreal QC H4E 3J2",
                        "locality": "Montreal",
                        "postcode": "H4E 3J2",
                        "region": "QC"
                  },
                  "name": "Restaurant Sizzles"
            },
            {
                  "distance": 949,
                  "location": {
                        "address": "6574 Monk Blvd",
                        "country": "CA",
                        "formatted_address": "6574 Monk Blvd, Montreal QC H4E 3J1",
                        "locality": "Montreal",
                        "postcode": "H4E 3J1",
                        "region": "QC"
                  },
                  "name": "Caff\u00e8 Napoletana"
            },
            {
                  "distance": 981,
                  "location": {
                        "address": "7077 Newman Blvd",
                        "country": "CA",
                        "formatted_address": "7077 Newman Blvd, Lasalle QC H8N 1X1",
                        "locality": "Lasalle",
                        "postcode": "H8N 1X1",
                        "region": "QC"
                  },
                  "name": "Tim Hortons"
            },
            {
                  "distance": 982,
                  "location": {
                        "address": "6445 Monk Blvd",
                        "country": "CA",
                        "formatted_address": "6445 Monk Blvd, Montreal QC H4E 3H8",
                        "locality": "Montreal",
                        "postcode": "H4E 3H8",
                        "region": "QC"
                  },
                  "name": "Restaurant Utopia"
            },
            {
                  "distance": 992,
                  "location": {
                        "address": "6445 Monk Blvd",
                        "country": "CA",
                        "formatted_address": "6445 Monk Blvd, Montreal QC H4E 3H8",
                        "locality": "Montreal",
                        "postcode": "H4E 3H8",
                        "region": "QC"
                  },
                  "name": "Royal R\u00f4tisserie Moderne"
            },
            {
                  "distance": 994,
                  "location": {
                        "address": "7001 Blvd de la V\u00e9rendrye",
                        "country": "CA",
                        "formatted_address": "7001 Blvd de la V\u00e9rendrye, Montreal QC H4E 3R9",
                        "locality": "Montreal",
                        "postcode": "H4E 3R9",
                        "region": "QC"
                  },
                  "name": "Restaurant Pizzeria"
            }
      ],
      "context": {
            "geo_bounds": {
                  "circle": {
                        "center": {
                              "latitude": 45.44705915,
                              "longitude": -73.60229507
                        },
                        "radius": 1000
                  }
            }
      }
}