{
      "results": [
            {
                  "distance": 240,
                  "location": {
                        "address": "5456 Sherbrooke Rue O",
                        "country": "CA",
                        "cross_street": "at Addington",
                        "formatted_address": "5456 Sherbrooke Rue O (at Addington), Montr\u00e9al QC H4A 1V9",
                        "locality": "Montreal",
                        "postcode": "H4A 1V9",
                        "region": "QC"
                  },
                  "name": "Chalet Bar B-Q",
                  "popularity": 0.9907385503406511,
                  "price": 2,
                  "rating": 8.8
            },
            {
                  "distance": 827,
                  "location": {
                        "address": "5033 Sherbrooke Rue O",
                        "country": "CA",
                        "cross_street": "Grey Street",
                        "formatted_address": "5033 Sherbrooke Rue O (Grey Street), Montr\u00e9al QC H4A 1S8",
                        "locality": "Montreal",
                        "postcode": "H4A 1S8",
                        "region": "QC"
                  },
                  "name": "Mandy's",
                  "popularity": 0.9639477668433005,
                  "price": 1,
                  "rating": 8.7
            },
            {
                  "distance": 216,
                  "location": {
                        "address": "5732 Sherbrooke Rue O",
                        "address_extended": "Wilson",
                        "country": "CA",
                        "cross_street": "Wilson",
                        "formatted_address": "5732 Sherbrooke Rue O (Wilson), Montr\u00e9al QC H4A 1W8",
                        "locality": "Montreal",
                        "postcode": "H4A 1W8",
                        "region": "QC"
                  },
                  "name": "Notre Boeuf de Gr\u00e2ce",
                  "popularity": 0.9811459121877366,
                  "price": 1,
                  "rating": 8.7
            },
            {
                  "distance": 429,
                  "location": {
                        "address": "5338 Sherbrooke Rue O",
                        "country": "CA",
                        "cross_street": "Decarie",
                        "formatted_address": "5338 Sherbrooke Rue O (Decarie), Montr\u00e9al QC H4A 1V5",
                        "locality": "Montreal",
                        "postcode": "H4A 1V5",
                        "region": "QC"
                  },
                  "name": "Boulangerie Chez Fred",
                  "popularity": 0.9809684897804694,
                  "price": 1,
                  "rating": 8.5
            },
            {
                  "distance": 631,
                  "location": {
                        "address": "5175A Sherbrooke Rue O",
                        "country": "CA",
                        "formatted_address": "5175A Sherbrooke Rue O, Montr\u00e9al QC H4A 1T5",
                        "locality": "Montreal",
                        "postcode": "H4A 1T5",
                        "region": "QC"
                  },
                  "name": "Nextdoor Pub & Grill",
                  "popularity": 0.9476840461771385,
                  "price": 1,
                  "rating": 8.4
            },
            {
                  "distance": 792,
                  "location": {
                        "address": "6135 Sherbrooke Rue O",
                        "country": "CA",
                        "cross_street": "Grand Boulevard",
                        "formatted_address": "6135 Sherbrooke Rue O (Grand Boulevard), Montr\u00e9al QC H4A 1Y4",
                        "locality": "Montreal",
                        "postcode": "H4A 1Y4",
                        "region": "QC"
                  },
                  "name": "Dawa",
                  "popularity": 0.9545325510976533,
                  "price": 2,
                  "rating": 8.1
            },
            {
                  "distance": 824,
                  "location": {
                        "address": "5500 Ave de Monkland",
                        "country": "CA",
                        "formatted_address": "5500 Ave de Monkland, Montr\u00e9al QC H4A 1C7",
                        "locality": "Montreal",
                        "postcode": "H4A 1C7",
                        "region": "QC"
                  },
                  "name": "Boulangerie Premi\u00e8re Moisson",
                  "popularity": 0.9813351627554883,
                  "price": 1,
                  "rating": 8.1
            },
            {
                  "distance": 553,
                  "location": {
                        "address": "5227 Sherbrooke Rue O",
                        "country": "CA",
                        "cross_street": "Northcliffe",
                        "formatted_address": "5227 Sherbrooke Rue O (Northcliffe), Montr\u00e9al QC H4A 1T7",
                        "locality": "Montreal",
                        "postcode": "H4A 1T7",
                        "region": "QC"
                  },
                  "name": "Soba et Sushi Bar",
                  "popularity": 0.9569691521574565,
                  "price": 2,
                  "rating": 8.1
            },
            {
                  "distance": 824,
                  "location": {
                        "address": "5555 Ave de Monkland",
                        "country": "CA",
                        "cross_street": "",
                        "formatted_address": "5555 Ave de Monkland, Montr\u00e9al QC H4A 1E1",
                        "locality": "Montreal",
                        "postcode": "H4A 1E1",
                        "region": "QC"
                  },
                  "name": "Monkland Taverne",
                  "popularity": 0.8456425056775171,
                  "price": 3,
                  "rating": 7.8
            },
            {
                  "distance": 638,
                  "location": {
                        "address": "4011 Decarie Blvd",
                        "country": "CA",
                        "cross_street": "Notre-Dame-de-Gr\u00e2ce",
                        "formatted_address": "4011 Decarie Blvd (Notre-Dame-de-Gr\u00e2ce), Montr\u00e9al QC H4A 3J8",
                        "locality": "Montreal",
                        "postcode": "H4A 3J8",
                        "region": "QC"
                  },
                  "name": "Orange Caf\u00e9",
                  "popularity": 0.9772544473883422,
                  "price": 1,
                  "rating": 7.7
            },
            {
                  "distance": 711,
                  "location": {
                        "address": "5221 Blvd de Maisonneuve Ouest",
                        "country": "CA",
                        "cross_street": "Northcliffe",
                        "formatted_address": "5221 Blvd de Maisonneuve Ouest (Northcliffe), Montr\u00e9al QC H4A 0A4",
                        "locality": "Montreal",
                        "postcode": "H4A 0A4",
                        "region": "QC"
                  },
                  "name": "Pick Thai",
                  "popularity": 0.9863266464799394,
                  "price": 2,
                  "rating": 7.6
            },
            {
                  "distance": 430,
                  "location": {
                        "address": "5860 Sherbrooke Rue W",
                        "country": "CA",
                        "cross_street": "btwn Regent & Clifton",
                        "formatted_address": "5860 Sherbrooke Rue W (btwn Regent & Clifton), Montr\u00e9al QC H4A 1X5",
                        "locality": "Montreal",
                        "postcode": "H4A 1X5",
                        "region": "QC"
                  },
                  "name": "Star of India",
                  "popularity": 0.8855507191521574,
                  "price": 2,
                  "rating": 7.6
            },
            {
                  "distance": 818,
                  "location": {
                        "address": "5557 Ave de Monkland",
                        "country": "CA",
                        "formatted_address": "5557 Ave de Monkland, Montr\u00e9al QC H4A 1E1",
                        "locality": "Montreal",
                        "postcode": "H4A 1E1",
                        "region": "QC"
                  },
                  "name": "Rockaberry Franchising",
                  "popularity": 0.9117619227857684,
                  "price": 1,
                  "rating": 7.4
            },
            {
                  "distance": 924,
                  "location": {
                        "address": "4943 Sherbrooke St W",
                        "country": "CA",
                        "formatted_address": "4943 Sherbrooke St W, Montr\u00e9al QC H2Z 1H2",
                        "locality": "Montreal",
                        "postcode": "H2Z 1H2",
                        "region": "QC"
                  },
                  "name": "Starbucks",
                  "popularity": 0.972101673899566,
                  "price": 1,
                  "rating": 7.4,
                  "store_id": "831"
            },
            {
                  "distance": 828,
                  "location": {
                        "address": "5563 Ave de Monkland",
                        "country": "CA",
                        "cross_street": "Old Orchard",
                        "formatted_address": "5563 Ave de Monkland (Old Orchard), Montr\u00e9al QC H4A 1E1",
                        "locality": "Montreal",
                        "postcode": "H4A 1E1",
                        "region": "QC"
                  },
                  "name": "Ye Olde Orchard Pub & Grill",
                  "popularity": 0.9567917297501892,
                  "price": 2,
                  "rating": 7.4
            },
            {
                  "distance": 847,
                  "location": {
                        "address": "5766 Ave de Monkland",
                        "country": "CA",
                        "cross_street": "",
                        "formatted_address": "5766 Ave de Monkland, Montr\u00e9al QC H4A 1E9",
                        "locality": "Montreal",
                        "postcode": "H4A 1E9",
                        "region": "QC"
                  },
                  "name": "Gia Ba",
                  "popularity": 0.8727763058289175,
                  "rating": 7.3
            },
            {
                  "distance": 504,
                  "location": {
                        "address": "5916 Sherbrooke Rue O",
                        "country": "CA",
                        "cross_street": "",
                        "formatted_address": "5916 Sherbrooke Rue O, Montr\u00e9al QC H4A 1X7",
                        "locality": "Montreal",
                        "postcode": "H4A 1X7",
                        "region": "QC"
                  },
                  "name": "Honey Martin",
                  "popularity": 0.9609670704012112,
                  "price": 1,
                  "rating": 6.8
            },
            {
                  "distance": 523,
                  "location": {
                        "address": "5259 Sherbrooke Rue O",
                        "country": "CA",
                        "cross_street": "",
                        "formatted_address": "5259 Sherbrooke Rue O, Montr\u00e9al QC H4A 1V1",
                        "locality": "Montreal",
                        "postcode": "H4A 1V1",
                        "region": "QC"
                  },
                  "name": "Thai Express",
                  "popularity": 0.9259675435276306,
                  "price": 2,
                  "rating": 6.6,
                  "store_id": "1939"
            },
            {
                  "distance": 795,
                  "location": {
                        "address": "5550 Monkland Ave",
                        "country": "CA",
                        "formatted_address": "5550 Monkland Ave, Montr\u00e9al QC H4A 1C9",
                        "locality": "Montreal",
                        "postcode": "H4A 1C9",
                        "region": "QC"
                  },
                  "name": "Second Cup Coffee Co",
                  "popularity": 0.9391322861468584,
                  "price": 1,
                  "rating": 6.3
            },
            {
                  "distance": 921,
                  "location": {
                        "address": "4241 Decarie Blvd",
                        "country": "CA",
                        "cross_street": "Monkland",
                        "formatted_address": "4241 Decarie Blvd (Monkland), Montr\u00e9al QC H4A 3K4",
                        "locality": "Montreal",
                        "postcode": "H4A 3K4",
                        "region": "QC"
                  },
                  "name": "Quartier-Perse",
                  "popularity": 0.9122232210446631,
                  "rating": 6.2
            },
            {
                  "distance": 842,
                  "location": {
                        "address": "5752 Ave de Monkland",
                        "country": "CA",
                        "cross_street": "coin Wilson",
                        "formatted_address": "5752 Ave de Monkland (coin Wilson), Montr\u00e9al QC H4A 1E9",
                        "locality": "Montreal",
                        "postcode": "H4A 1E9",
                        "region": "QC"
                  },
                  "name": "Typhoon Lounge",
                  "popularity": 0.9507830242240727,
                  "price": 2,
                  "rating": 6.0
            },
            {
                  "distance": 864,
                  "location": {
                        "address": "6180 Saint-Jacques Rue",
                        "country": "CA",
                        "formatted_address": "6180 Saint-Jacques Rue, Montr\u00e9al QC H4B 1T6",
                        "locality": "Montreal",
                        "postcode": "H4B 1T6",
                        "region": "QC"
                  },
                  "name": "Restaurant Shabu Shabu",
                  "popularity": 0.9392623959121877,
                  "price": 2,
                  "rating": 5.9
            },
            {
                  "distance": 481,
                  "location": {
                        "address": "2160 Decarie Blvd",
                        "country": "CA",
                        "cross_street": "Corner Sherbrooke W",
                        "formatted_address": "2160 Decarie Blvd (Corner Sherbrooke W), Montr\u00e9al QC H4A 3J3",
                        "locality": "Montreal",
                        "postcode": "H4A 3J3",
                        "region": "QC"
                  },
                  "name": "Tim Hortons",
                  "popularity": 0.9646574564723694,
                  "price": 1,
                  "rating": 5.9
            },
            {
                  "distance": 855,
                  "location": {
                        "address": "5737 Ave de Monkland",
                        "country": "CA",
                        "cross_street": "Avenue Wilson",
                        "formatted_address": "5737 Ave de Monkland (Avenue Wilson), Montr\u00e9al QC H4A 1E7",
                        "locality": "Montreal",
                        "postcode": "H4A 1E7",
                        "region": "QC"
                  },
                  "name": "Le Petit Tokebi",
                  "popularity": 0.9233416919000756,
                  "price": 2,
                  "rating": 5.8
            },
            {
                  "distance": 870,
                  "location": {
                        "address": "5011 Sherbrooke Rue O",
                        "country": "CA",
                        "formatted_address": "5011 Sherbrooke Rue O, Westmount QC H3Z 1H5",
                        "locality": "Westmount",
                        "postcode": "H3Z 1H5",
                        "region": "QC"
                  },
                  "name": "McDonald's",
                  "popularity": 0.9869807811531308,
                  "price": 1,
                  "rating": 5.0,
                  "store_id": "40002"
            },
            {
                  "distance": 44,
                  "location": {
                        "address": "5461 Sherbrooke Rue O",
                        "country": "CA",
                        "cross_street": "",
                        "formatted_address": "5461 Sherbrooke Rue O, Montr\u00e9al QC H4A 1W1",
                        "locality": "Montreal",
                        "postcode": "H4A 1W1",
                        "region": "QC"
                  },
                  "name": "Restaurant Bok",
                  "popularity": 0.9105672785768357,
                  "price": 2
            },
            {
                  "distance": 280,
                  "location": {
                        "address": "5779 Sherbrooke Rue O",
                        "country": "CA",
                        "cross_street": "",
                        "formatted_address": "5779 Sherbrooke Rue O, Montr\u00e9al QC H4A 1X2",
                        "locality": "Montreal",
                        "postcode": "H4A 1X2",
                        "region": "QC"
                  },
                  "name": "Pizzeria Melrose",
                  "popularity": 0.9676499810749433,
                  "price": 1
            },
            {
                  "distance": 329,
                  "location": {
                        "address": "5791 Sherbrooke Rue O",
                        "country": "CA",
                        "cross_street": "Melrose",
                        "formatted_address": "5791 Sherbrooke Rue O (Melrose), Montr\u00e9al QC H4A 1X2",
                        "locality": "Montreal",
                        "postcode": "H4A 1X2",
                        "region": "QC"
                  },
                  "name": "Cafe Toranj",
                  "popularity": 0.9556325700227101,
                  "price": 1
            },
            {
                  "distance": 344,
                  "location": {
                        "address": "5800 Sherbrooke Rue O",
                        "country": "CA",
                        "cross_street": "",
                        "formatted_address": "5800 Sherbrooke Rue O, Montr\u00e9al QC H4A 1X3",
                        "locality": "Montreal",
                        "postcode": "H4A 1X3",
                        "region": "QC"
                  },
                  "name": "Bombay Mahal",
                  "popularity": 0.8857399697199092,
                  "price": 2
            },
            {
                  "distance": 357,
                  "location": {
                        "address": "5828 Sherbrooke St W",
                        "country": "CA",
                        "cross_street": "",
                        "formatted_address": "5828 Sherbrooke St W, Montr\u00e9al QC H4A 1X3",
                        "locality": "Montreal",
                        "postcode": "H4A 1X3",
                        "region": "QC"
                  },
                  "name": "Babylon",
                  "popularity": 0.9101296366389099,
                  "price": 1
            },
            {
                  "distance": 477,
                  "location": {
                        "address": "5545 Upper-Lachine Ch",
                        "country": "CA",
                        "cross_street": "",
                        "formatted_address": "5545 Upper-Lachine Ch, Montr\u00e9al QC H4A 2A5",
                        "locality": "Montreal",
                        "postcode": "H4A 2A5",
                        "region": "QC"
                  },
                  "name": "Trattoria Mario",
                  "popularity": 0.9470689818319455,
                  "price": 2
            },
            {
                  "distance": 515,
                  "location": {
                        "address": "5914 Sherbrooke Rue O",
                        "country": "CA",
                        "cross_street": "rue Clifton",
                        "formatted_address": "5914 Sherbrooke Rue O (rue Clifton), Montreal QC H4A 1X7",
                        "locality": "Montreal",
                        "postcode": "H4A 1X7",
                        "region": "QC"
                  },
                  "name": "Jean's Trinidad Foods",
                  "popularity": 0.7059164458743377,
                  "price": 2
            },
            {
                  "distance": 532,
                  "location": {
                        "address": "5899 Sherbrooke Rue O",
                        "country": "CA",
                        "cross_street": "",
                        "formatted_address": "5899 Sherbrooke Rue O, Montr\u00e9al QC H4A 1X6",
                        "locality": "Montreal",
                        "postcode": "H4A 1X6",
                        "region": "QC"
                  },
                  "name": "Crusty's",
                  "popularity": 0.8394090651021953,
                  "price": 1
            },
            {
                  "distance": 540,
                  "location": {
                        "address": "5942 Sherbrooke Rue O",
                        "address_extended": "Belgrave",
                        "country": "CA",
                        "cross_street": "Belgrave",
                        "formatted_address": "5942 Sherbrooke Rue O (Belgrave), Montr\u00e9al QC H4A 1X7",
                        "locality": "Montreal",
                        "postcode": "H4A 1X7",
                        "region": "QC"
                  },
                  "name": "L'Gros Luxe NDG",
                  "popularity": 0.9426925624526874,
                  "price": 2
            },
            {
                  "distance": 571,
                  "location": {
                        "address": "5223 Sherbrooke Rue O",
                        "country": "CA",
                        "cross_street": "",
                        "formatted_address": "5223 Sherbrooke Rue O, Montr\u00e9al QC H4A 1T7",
                        "locality": "Montreal",
                        "postcode": "H4A 1T7",
                        "region": "QC"
                  },
                  "name": "Labothery",
                  "popularity": 0.8519114307342922
            }
      ],
      "context": {
            "geo_bounds": {
                  "circle": {
                        "center": {
                              "latitude": 45.471743,
                              "longitude": -73.613924
                        },
                        "radius": 1000
                  }
            }
      }
}