{
      "results": [
            {
                  "distance": 655,
                  "location": {
                        "address": "275 Hickson Rue",
                        "country": "CA",
                        "cross_street": "coin Wellington",
                        "formatted_address": "275 Hickson Rue (coin Wellington), Verdun QC H4G 2J7",
                        "locality": "Verdun",
                        "postcode": "H4G 2J7",
                        "region": "QC"
                  },
                  "name": "Garage Cafe",
                  "popularity": 0.9310773088569265,
                  "price": 2,
                  "rating": 9.0
            },
            {
                  "distance": 589,
                  "location": {
                        "address": "3852 Wellington Rue",
                        "country": "CA",
                        "cross_street": "",
                        "formatted_address": "3852 Wellington Rue, Verdun QC H4G 1V2",
                        "locality": "Verdun",
                        "postcode": "H4G 1V2",
                        "region": "QC"
                  },
                  "name": "Station W",
                  "popularity": 0.9501916161998486,
                  "price": 1,
                  "rating": 8.8
            },
            {
                  "distance": 813,
                  "location": {
                        "address": "4026 Wellington Rue",
                        "country": "CA",
                        "cross_street": "entre De L'\u00c9glise & Hickson",
                        "formatted_address": "4026 Wellington Rue (entre De L'\u00c9glise & Hickson), Verdun QC H4G 1V3",
                        "locality": "Verdun",
                        "postcode": "H4G 1V3",
                        "region": "QC"
                  },
                  "name": "Benelux",
                  "popularity": 0.9749834405753217,
                  "price": 2,
                  "rating": 8.7
            },
            {
                  "distance": 534,
                  "location": {
                        "address": "760 Charlevoix Rue",
                        "country": "CA",
                        "cross_street": "at Rue de Coleraine",
                        "formatted_address": "760 Charlevoix Rue (at Rue de Coleraine), Montr\u00e9al QC H3K 2Y2",
                        "locality": "Montreal",
                        "postcode": "H3K 2Y2",
                        "region": "QC"
                  },
                  "name": "Paul Patates Frites",
                  "popularity": 0.9733866389099167,
                  "price": 1,
                  "rating": 8.3
            },
            {
                  "distance": 436,
                  "location": {
                        "address": "3681 Wellington Rue",
                        "country": "CA",
                        "cross_street": "",
                        "formatted_address": "3681 Wellington Rue, Montr\u00e9al QC H4G 1V1",
                        "locality": "Montreal",
                        "postcode": "H4G 1V1",
                        "region": "QC"
                  },
                  "name": "Rita",
                  "popularity": 0.9461936979560939,
                  "price": 2,
                  "rating": 8.2
            },
            {
                  "distance": 578,
                  "location": {
                        "address": "3819 Wellington Rue",
                        "country": "CA",
                        "cross_street": "",
                        "formatted_address": "3819 Wellington Rue, Verdun QC H4G 1V1",
                        "locality": "Verdun",
                        "postcode": "H4G 1V1",
                        "region": "QC"
                  },
                  "name": "Bar Social Verdun",
                  "popularity": 0.9276353141559425,
                  "price": 2,
                  "rating": 8.0
            },
            {
                  "distance": 620,
                  "location": {
                        "address": "3876 Wellington Rue",
                        "country": "CA",
                        "cross_street": "coin Hickson",
                        "formatted_address": "3876 Wellington Rue (coin Hickson), Verdun QC H4G 1V2",
                        "locality": "Verdun",
                        "postcode": "H4G 1V2",
                        "region": "QC"
                  },
                  "name": "Nouveau Delhi Express",
                  "popularity": 0.9155232778198334,
                  "price": 2,
                  "rating": 8.0
            },
            {
                  "distance": 805,
                  "location": {
                        "address": "4019 Wellington Rue",
                        "country": "CA",
                        "cross_street": "De L'\u00c9glise",
                        "formatted_address": "4019 Wellington Rue (De L'\u00c9glise), Verdun QC H4G 1V6",
                        "locality": "Verdun",
                        "postcode": "H4G 1V6",
                        "region": "QC"
                  },
                  "name": "Bar Palco",
                  "popularity": 0.9636993754731265,
                  "price": 2,
                  "rating": 7.7
            },
            {
                  "distance": 982,
                  "location": {
                        "address": "2483 rue du Ctr",
                        "country": "CA",
                        "cross_street": "",
                        "formatted_address": "2483 rue du Ctr, Montr\u00e9al QC H3K 1J9",
                        "locality": "Montreal",
                        "postcode": "H3K 1J9",
                        "region": "QC"
                  },
                  "name": "Clarke Caf\u00e9",
                  "popularity": 0.9593111279333838,
                  "price": 1,
                  "rating": 7.6
            },
            {
                  "distance": 603,
                  "location": {
                        "address": "3819 Wellington Rue",
                        "address_extended": "Suite 102",
                        "country": "CA",
                        "cross_street": "",
                        "formatted_address": "3819 Wellington Rue, Montr\u00e9al QC H4G 1V1",
                        "locality": "Montreal",
                        "postcode": "H4G 1V1",
                        "region": "QC"
                  },
                  "name": "Chez Robin Bistro Local",
                  "popularity": 0.8777204769114307,
                  "price": 1,
                  "rating": 7.6
            },
            {
                  "distance": 615,
                  "location": {
                        "address": "3872 Wellington Rue",
                        "country": "CA",
                        "cross_street": "Hickson",
                        "formatted_address": "3872 Wellington Rue (Hickson), Verdun QC H4G 1V2",
                        "locality": "Verdun",
                        "postcode": "H4G 1V2",
                        "region": "QC"
                  },
                  "name": "Aka-Fuji",
                  "popularity": 0.8395036903860712,
                  "price": 2,
                  "rating": 7.6
            },
            {
                  "distance": 923,
                  "location": {
                        "address": "2556 rue du Ctr",
                        "country": "CA",
                        "cross_street": "Rue Charlevoix",
                        "formatted_address": "2556 rue du Ctr (Rue Charlevoix), Montr\u00e9al QC H3K 1J8",
                        "locality": "Montreal",
                        "postcode": "H3K 1J8",
                        "region": "QC"
                  },
                  "name": "Restaurant Cari Mela",
                  "popularity": 0.8533899507948524,
                  "price": 2,
                  "rating": 7.5
            },
            {
                  "distance": 774,
                  "location": {
                        "address": "3990 Wellington Rue",
                        "country": "CA",
                        "cross_street": "entre De l'\u00c9glise & Hickson",
                        "formatted_address": "3990 Wellington Rue (entre De l'\u00c9glise & Hickson), Verdun QC H4G 1V3",
                        "locality": "Verdun",
                        "postcode": "H4G 1V3",
                        "region": "QC"
                  },
                  "name": "Boulangerie P\u00e2tisserie Wellington",
                  "popularity": 0.9482872823618471,
                  "price": 1,
                  "rating": 7.4
            },
            {
                  "distance": 425,
                  "location": {
                        "address": "3625 Wellington Rue",
                        "country": "CA",
                        "cross_street": "",
                        "formatted_address": "3625 Wellington Rue, Montr\u00e9al QC H4G 1T9",
                        "locality": "Montreal",
                        "postcode": "H4G 1T9",
                        "region": "QC"
                  },
                  "name": "Les Street Monkeys",
                  "popularity": 0.9585659538228615,
                  "rating": 6.4
            },
            {
                  "distance": 740,
                  "location": {
                        "address": "3969 Wellington St",
                        "country": "CA",
                        "cross_street": "",
                        "formatted_address": "3969 Wellington St, Verdun QC H4G 1V6",
                        "locality": "Verdun",
                        "postcode": "H4G 1V6",
                        "region": "QC"
                  },
                  "name": "Pizza Hut",
                  "popularity": 0.89028198334595,
                  "price": 1,
                  "rating": 6.4,
                  "store_id": "R43401"
            },
            {
                  "distance": 919,
                  "location": {
                        "address": "2563 rue du Ctr",
                        "country": "CA",
                        "cross_street": "",
                        "formatted_address": "2563 rue du Ctr, Montr\u00e9al QC H3K 1J9",
                        "locality": "Montreal",
                        "postcode": "H3K 1J9",
                        "region": "QC"
                  },
                  "name": "Pizza Charlevoix",
                  "popularity": 0.950227100681302,
                  "price": 1,
                  "rating": 6.4
            },
            {
                  "distance": 387,
                  "location": {
                        "address": "3665 Wellington Rue",
                        "country": "CA",
                        "cross_street": "",
                        "formatted_address": "3665 Wellington Rue, Montr\u00e9al QC H4G 1T9",
                        "locality": "Montreal",
                        "postcode": "H4G 1T9",
                        "region": "QC"
                  },
                  "name": "Poutine Lafleur",
                  "popularity": 0.8990703065859198,
                  "rating": 6.2
            },
            {
                  "distance": 891,
                  "location": {
                        "address": "11 rue de l'\u00c9glise",
                        "country": "CA",
                        "cross_street": "",
                        "formatted_address": "11 rue de l'\u00c9glise, Verdun QC H4G 2L8",
                        "locality": "Verdun",
                        "postcode": "H4G 2L8",
                        "region": "QC"
                  },
                  "name": "Zappy Pizza",
                  "popularity": 0.9304385881907645,
                  "price": 1,
                  "rating": 6.1
            },
            {
                  "distance": 942,
                  "location": {
                        "address": "4120 Lasalle Blvd",
                        "country": "CA",
                        "cross_street": "",
                        "formatted_address": "4120 Lasalle Blvd, Verdun QC H4G 2A5",
                        "locality": "Verdun",
                        "postcode": "H4G 2A5",
                        "region": "QC"
                  },
                  "name": "St-Hubert Express",
                  "popularity": 0.9810985995457986,
                  "price": 2,
                  "rating": 6.1,
                  "store_id": "100179"
            },
            {
                  "distance": 924,
                  "location": {
                        "address": "30 Rue de l'eglise",
                        "country": "CA",
                        "cross_street": "Boulevard Lasalle",
                        "formatted_address": "30 Rue de l'eglise (Boulevard Lasalle), Verdun QC H4G 2L9",
                        "locality": "Verdun",
                        "postcode": "H4G 2L9",
                        "region": "QC"
                  },
                  "name": "Tim Hortons",
                  "popularity": 0.9914364118092355,
                  "price": 1,
                  "rating": 5.5
            },
            {
                  "distance": 333,
                  "location": {
                        "address": "3323 Evelyn",
                        "country": "CA",
                        "cross_street": "",
                        "formatted_address": "3323 Evelyn, Montr\u00e9al QC H4G 1N9",
                        "locality": "Montreal",
                        "postcode": "H4G 1N9",
                        "region": "QC"
                  },
                  "name": "Saint Jjh & Caf\u00e9",
                  "popularity": 0.9803652535957608,
                  "price": 1
            },
            {
                  "distance": 348,
                  "location": {
                        "address": "3136 Lasalle Blvd",
                        "country": "CA",
                        "cross_street": "",
                        "formatted_address": "3136 Lasalle Blvd, Montr\u00e9al QC",
                        "locality": "Montreal",
                        "region": "QC"
                  },
                  "name": "The Lincoln Apartment Bakery",
                  "popularity": 0.25557106358819076
            },
            {
                  "distance": 392,
                  "location": {
                        "address": "2687 Wellington Rue",
                        "country": "CA",
                        "cross_street": "",
                        "formatted_address": "2687 Wellington Rue, Montreal QC H3K 1X8",
                        "locality": "Montreal",
                        "postcode": "H3K 1X8",
                        "region": "QC"
                  },
                  "name": "Pub St Charles",
                  "popularity": 0.9495055828917487,
                  "price": 2
            },
            {
                  "distance": 428,
                  "location": {
                        "address": "3683 Wellington Rue",
                        "country": "CA",
                        "cross_street": "",
                        "formatted_address": "3683 Wellington Rue, Montr\u00e9al QC H4G 1V1",
                        "locality": "Montreal",
                        "postcode": "H4G 1V1",
                        "region": "QC"
                  },
                  "name": "Archway Bar Sant\u00e9",
                  "popularity": 0.9512443224829674,
                  "price": 2
            },
            {
                  "distance": 485,
                  "location": {
                        "address": "3741 Wellington Rue",
                        "country": "CA",
                        "cross_street": "",
                        "formatted_address": "3741 Wellington Rue, Verdun QC H4G 1V1",
                        "locality": "Verdun",
                        "postcode": "H4G 1V1",
                        "region": "QC"
                  },
                  "name": "La Maison Egg Roll",
                  "popularity": 0.7864898750946253
            },
            {
                  "distance": 496,
                  "location": {
                        "address": "3762 Wellington",
                        "country": "CA",
                        "cross_street": "",
                        "formatted_address": "3762 Wellington, Montr\u00e9al QC",
                        "locality": "Montreal",
                        "region": "QC"
                  },
                  "name": "Notre-Boeuf-De-Grace",
                  "popularity": 0.9025241294473884
            },
            {
                  "distance": 568,
                  "location": {
                        "address": "801 Charlevoix Rue",
                        "country": "CA",
                        "cross_street": "",
                        "formatted_address": "801 Charlevoix Rue, Montr\u00e9al QC H3K 2Y5",
                        "locality": "Montreal",
                        "postcode": "H3K 2Y5",
                        "region": "QC"
                  },
                  "name": "Connie Pizza",
                  "popularity": 0.8321702308856926,
                  "price": 1
            },
            {
                  "distance": 617,
                  "location": {
                        "address": "3870 Wellington Rue",
                        "country": "CA",
                        "cross_street": "",
                        "formatted_address": "3870 Wellington Rue, Verdun QC H4G 1V2",
                        "locality": "Verdun",
                        "postcode": "H4G 1V2",
                        "region": "QC"
                  },
                  "name": "Alice & Theo",
                  "popularity": 0.9226556585919757,
                  "price": 1
            },
            {
                  "distance": 656,
                  "location": {
                        "address": "3900 Ethel Rue",
                        "country": "CA",
                        "cross_street": "Rue Hickson",
                        "formatted_address": "3900 Ethel Rue (Rue Hickson), Montr\u00e9al QC H4G 1S4",
                        "locality": "Montreal",
                        "postcode": "H4G 1S4",
                        "region": "QC"
                  },
                  "name": "Restaurant Beba",
                  "popularity": 0.9459216502649508,
                  "price": 2
            },
            {
                  "distance": 692,
                  "location": {
                        "address": "3922 Wellington Rue",
                        "country": "CA",
                        "cross_street": "Hickson",
                        "formatted_address": "3922 Wellington Rue (Hickson), Verdun QC H4G 1V3",
                        "locality": "Verdun",
                        "postcode": "H4G 1V3",
                        "region": "QC"
                  },
                  "name": "Le Pok\u00e9 Station",
                  "popularity": 0.2845618849356548
            },
            {
                  "distance": 731,
                  "location": {
                        "address": "3966 Wellington Rue",
                        "country": "CA",
                        "cross_street": "",
                        "formatted_address": "3966 Wellington Rue, Verdun QC H4G 1V3",
                        "locality": "Verdun",
                        "postcode": "H4G 1V3",
                        "region": "QC"
                  },
                  "name": "Souvlaki Bar",
                  "popularity": 0.9533852195306586,
                  "price": 2
            },
            {
                  "distance": 771,
                  "location": {
                        "address": "4090 Wellington Rue",
                        "country": "CA",
                        "cross_street": "De L'\u00c9glise",
                        "formatted_address": "4090 Wellington Rue (De L'\u00c9glise), Verdun QC H4G 1V3",
                        "locality": "Verdun",
                        "postcode": "H4G 1V3",
                        "region": "QC"
                  },
                  "name": "Baguette Cali",
                  "popularity": 0.47829532551097653,
                  "price": 2
            },
            {
                  "distance": 824,
                  "location": {
                        "address": "4030 Wellington Rue",
                        "country": "CA",
                        "cross_street": "De L'\u00e9glise",
                        "formatted_address": "4030 Wellington Rue (De L'\u00e9glise), Verdun QC H4G 1V3",
                        "locality": "Verdun",
                        "postcode": "H4G 1V3",
                        "region": "QC"
                  },
                  "name": "Kwizinn Verdun",
                  "popularity": 0.9302493376230129,
                  "price": 2
            },
            {
                  "distance": 912,
                  "location": {
                        "address": "2567 Centre St",
                        "country": "CA",
                        "cross_street": "",
                        "formatted_address": "2567 Centre St, Montr\u00e9al QC H3K 1J9",
                        "locality": "Montreal",
                        "postcode": "H3K 1J9",
                        "region": "QC"
                  },
                  "name": "LaChicR\u00e9gal",
                  "popularity": 0.8318272142316427,
                  "price": 2
            },
            {
                  "distance": 917,
                  "location": {
                        "address": "2601 Rue Ctr",
                        "country": "CA",
                        "cross_street": "",
                        "formatted_address": "2601 Rue Ctr, Montr\u00e9al QC H3K 1K2",
                        "locality": "Montreal",
                        "postcode": "H3K 1K2",
                        "region": "QC"
                  },
                  "name": "Sep Lai",
                  "popularity": 0.945484008327025,
                  "price": 2
            }
      ],
      "context": {
            "geo_bounds": {
                  "circle": {
                        "center": {
                              "latitude": 45.47069643,
                              "longitude": -73.56542241
                        },
                        "radius": 1000
                  }
            }
      }
}