{
      "results": [
            {
                  "distance": 951,
                  "location": {
                        "address": "3296 Jean-Talon Rue E",
                        "country": "CA",
                        "cross_street": "Boul.St-Michel",
                        "formatted_address": "3296 Jean-Talon Rue E (Boul.St-Michel), Montr\u00e9al QC H2A 1W3",
                        "locality": "Montreal",
                        "postcode": "H2A 1W3",
                        "region": "QC"
                  },
                  "name": "Bar Zoe Karaoke et Cocktails",
                  "popularity": 0.974522142316427,
                  "price": 2,
                  "rating": 7.6
            },
            {
                  "distance": 590,
                  "location": {
                        "address": "4310 Belanger Rue",
                        "country": "CA",
                        "cross_street": "",
                        "formatted_address": "4310 Belanger Rue, Montr\u00e9al QC H1T 1A7",
                        "locality": "Montreal",
                        "postcode": "H1T 1A7",
                        "region": "QC"
                  },
                  "name": "Restobar Chez Toutou",
                  "popularity": 0.9815717259651779,
                  "price": 2,
                  "rating": 7.5
            },
            {
                  "distance": 421,
                  "location": {
                        "address": "4023 Beaubien Rue E",
                        "country": "CA",
                        "formatted_address": "4023 Beaubien Rue E, Montr\u00e9al QC H1X 1H7",
                        "locality": "Montreal",
                        "postcode": "H1X 1H7",
                        "region": "QC"
                  },
                  "name": "Beaubien Deli",
                  "popularity": 0.9816072104466314,
                  "price": 2,
                  "rating": 7.2
            },
            {
                  "distance": 961,
                  "location": {
                        "address": "3131 Belanger Rue",
                        "country": "CA",
                        "cross_street": "9\u00e8me avenue",
                        "formatted_address": "3131 Belanger Rue (9\u00e8me avenue), Montr\u00e9al QC H1Y 1B4",
                        "locality": "Montreal",
                        "postcode": "H1Y 1B4",
                        "region": "QC"
                  },
                  "name": "Caf\u00e9 le Carrefour",
                  "popularity": 0.9582229371688115,
                  "price": 1,
                  "rating": 6.7
            },
            {
                  "distance": 545,
                  "location": {
                        "address": "3397 Saint-Zotique Rue E",
                        "country": "CA",
                        "cross_street": "",
                        "formatted_address": "3397 Saint-Zotique Rue E, Montr\u00e9al QC H1X 1C7",
                        "locality": "Montreal",
                        "postcode": "H1X 1C7",
                        "region": "QC"
                  },
                  "name": "Au Coq",
                  "popularity": 0.962043433005299,
                  "price": 1,
                  "rating": 6.7
            },
            {
                  "distance": 597,
                  "location": {
                        "address": "4100 Jean-Talon St E",
                        "address_extended": "Le Boulevard Shopping Centre",
                        "country": "CA",
                        "cross_street": "",
                        "formatted_address": "4100 Jean-Talon St E, Montreal QC H1S 2V4",
                        "locality": "Montreal",
                        "postcode": "H1S 2V4",
                        "region": "QC"
                  },
                  "name": "Subway",
                  "popularity": 0.9066048448145344,
                  "price": 1,
                  "rating": 6.4,
                  "store_id": "26167"
            },
            {
                  "distance": 644,
                  "location": {
                        "address": "3410 Belanger Rue",
                        "country": "CA",
                        "cross_street": "13th Avenue",
                        "formatted_address": "3410 Belanger Rue (13th Avenue), Montr\u00e9al QC H1X 1A6",
                        "locality": "Montreal",
                        "postcode": "H1X 1A6",
                        "region": "QC"
                  },
                  "name": "Merson's Patisserie",
                  "popularity": 0.8872776305828918,
                  "price": 2,
                  "rating": 5.9
            },
            {
                  "distance": 901,
                  "location": {
                        "address": "4275 Jean-Talon Rue E",
                        "country": "CA",
                        "formatted_address": "4275 Jean-Talon Rue E, Montr\u00e9al QC H1S 1J9",
                        "locality": "Montreal",
                        "postcode": "H1S 1J9",
                        "region": "QC"
                  },
                  "name": "Fu Lam",
                  "popularity": 0.9726769492808478,
                  "rating": 5.7
            },
            {
                  "distance": 987,
                  "location": {
                        "address": "3255 Rosemont Blvd",
                        "country": "CA",
                        "formatted_address": "3255 Rosemont Blvd, Montr\u00e9al QC H1X 1K1",
                        "locality": "Montreal",
                        "postcode": "H1X 1K1",
                        "region": "QC"
                  },
                  "name": "Restaurant le Petit Quebec",
                  "popularity": 0.9626703255109765,
                  "price": 1,
                  "rating": 5.2
            },
            {
                  "distance": 457,
                  "location": {
                        "address": "7001 Pie-Ix Blvd",
                        "country": "CA",
                        "cross_street": "",
                        "formatted_address": "7001 Pie-Ix Blvd, Montr\u00e9al QC H2A 2G3",
                        "locality": "Montreal",
                        "postcode": "H2A 2G3",
                        "region": "QC"
                  },
                  "name": "All\u00f4! Mon Coco",
                  "popularity": 0.992335352006056,
                  "price": 2
            },
            {
                  "distance": 592,
                  "location": {
                        "address": "4326 Belanger Rue",
                        "country": "CA",
                        "cross_street": "26e Avenue",
                        "formatted_address": "4326 Belanger Rue (26e Avenue), Montr\u00e9al QC H1T 1A7",
                        "locality": "Montreal",
                        "postcode": "H1T 1A7",
                        "region": "QC"
                  },
                  "name": "Sushi Bako",
                  "popularity": 0.10050387963663891,
                  "price": 2
            },
            {
                  "distance": 650,
                  "location": {
                        "address": "3240 Beaubien Rue E",
                        "country": "CA",
                        "cross_street": "",
                        "formatted_address": "3240 Beaubien Rue E, Montr\u00e9al QC H1Y 1H7",
                        "locality": "Montreal",
                        "postcode": "H1Y 1H7",
                        "region": "QC"
                  },
                  "name": "Caf\u00e9 Hologramme",
                  "popularity": 0.2952663701741105,
                  "price": 1
            },
            {
                  "distance": 662,
                  "location": {
                        "address": "3350 Beaubien Rue E",
                        "country": "CA",
                        "cross_street": "",
                        "formatted_address": "3350 Beaubien Rue E, Montr\u00e9al QC H1X 1G6",
                        "locality": "Montreal",
                        "postcode": "H1X 1G6",
                        "region": "QC"
                  },
                  "name": "Zytynsky's",
                  "popularity": 0.9171555639666918,
                  "price": 2
            },
            {
                  "distance": 665,
                  "location": {
                        "address": "4136 Jean- Talon Rue E",
                        "country": "CA",
                        "cross_street": "",
                        "formatted_address": "4136 Jean- Talon Rue E, Montr\u00e9al QC H1S 2V4",
                        "locality": "Montreal",
                        "postcode": "H1S 2V4",
                        "region": "QC"
                  },
                  "name": "Basha",
                  "popularity": 0.38836582134746406,
                  "price": 2
            },
            {
                  "distance": 669,
                  "location": {
                        "address": "3924 Jean-Talon Rue E",
                        "country": "CA",
                        "cross_street": "",
                        "formatted_address": "3924 Jean-Talon Rue E, Montr\u00e9al QC H2A 1Y8",
                        "locality": "Montreal",
                        "postcode": "H2A 1Y8",
                        "region": "QC"
                  },
                  "name": "Caf\u00e9 Sable d'Or",
                  "popularity": 0.9942633421650265,
                  "price": 1
            },
            {
                  "distance": 716,
                  "location": {
                        "address": "3251 Beaubien Rue E",
                        "country": "CA",
                        "cross_street": "",
                        "formatted_address": "3251 Beaubien Rue E, Montr\u00e9al QC H1X 1G4",
                        "locality": "Montreal",
                        "postcode": "H1X 1G4",
                        "region": "QC"
                  },
                  "name": "A&W Restaurant",
                  "popularity": 0.9718253217259651,
                  "price": 1,
                  "store_id": "5590"
            },
            {
                  "distance": 731,
                  "location": {
                        "address": "3391 Belair Rue",
                        "country": "CA",
                        "cross_street": "13e avenue",
                        "formatted_address": "3391 Belair Rue (13e avenue), Montr\u00e9al QC H2A 2A6",
                        "locality": "Montreal",
                        "postcode": "H2A 2A6",
                        "region": "QC"
                  },
                  "name": "Montr\u00e9al Caf\u00e9 Restaurent Carthage",
                  "popularity": 0.8973788796366389,
                  "price": 1
            },
            {
                  "distance": 780,
                  "location": {
                        "address": "4444A Belanger Rue",
                        "country": "CA",
                        "cross_street": "",
                        "formatted_address": "4444A Belanger Rue, Montreal QC H1T 1B5",
                        "locality": "Montreal",
                        "postcode": "H1T 1B5",
                        "region": "QC"
                  },
                  "name": "Cornet Glac\u00e9",
                  "popularity": 0.10896101438304315,
                  "price": 1
            },
            {
                  "distance": 805,
                  "location": {
                        "address": "3222 Beaubien Rue E",
                        "country": "CA",
                        "cross_street": "St-Michel",
                        "formatted_address": "3222 Beaubien Rue E (St-Michel), Montr\u00e9al QC H1Y 1H7",
                        "locality": "Montreal",
                        "postcode": "H1Y 1H7",
                        "region": "QC"
                  },
                  "name": "Pho Hung Restaurant",
                  "popularity": 0.03770817562452687,
                  "price": 2
            },
            {
                  "distance": 813,
                  "location": {
                        "address": "4247 Jean-Talon Rue E",
                        "country": "CA",
                        "formatted_address": "4247 Jean-Talon Rue E, Saint-Leonard QC H1S 1J9",
                        "locality": "Saint-L\u00e9onard",
                        "postcode": "H1S 1J9",
                        "region": "QC"
                  },
                  "name": "Harvey's",
                  "popularity": 0.9872610711582135,
                  "price": 1,
                  "store_id": "2474"
            },
            {
                  "distance": 878,
                  "location": {
                        "address": "4541 Belanger Rue",
                        "country": "CA",
                        "cross_street": "30th Ave",
                        "formatted_address": "4541 Belanger Rue (30th Ave), Montr\u00e9al QC H1T 1B7",
                        "locality": "Montreal",
                        "postcode": "H1T 1B7",
                        "region": "QC"
                  },
                  "name": "Akwaba",
                  "popularity": 0.9619842922028766,
                  "price": 2
            },
            {
                  "distance": 923,
                  "location": {
                        "address": "3124 Beaubien Rue E",
                        "country": "CA",
                        "cross_street": "",
                        "formatted_address": "3124 Beaubien Rue E, Montr\u00e9al QC H1Y 1H3",
                        "locality": "Montreal",
                        "postcode": "H1Y 1H3",
                        "region": "QC"
                  },
                  "name": "Bairrada",
                  "popularity": 0.6641157267221802,
                  "price": 1
            },
            {
                  "distance": 548,
                  "location": {
                        "address": "7007 15e Ave",
                        "country": "CA",
                        "formatted_address": "7007 15e Ave, Montreal QC H2A 2T6",
                        "locality": "Montreal",
                        "postcode": "H2A 2T6",
                        "region": "QC"
                  },
                  "name": "Fondation A-Mar"
            },
            {
                  "distance": 692,
                  "location": {
                        "address": "3700 Jean-Talon Rue E",
                        "country": "CA",
                        "formatted_address": "3700 Jean-Talon Rue E, Montreal QC H2A 1X9",
                        "locality": "Montreal",
                        "postcode": "H2A 1X9",
                        "region": "QC"
                  },
                  "name": "Caf\u00e9 Bar Brewski's"
            },
            {
                  "distance": 699,
                  "location": {
                        "address": "3911 Jean-Talon Rue E",
                        "country": "CA",
                        "formatted_address": "3911 Jean-Talon Rue E, Montreal QC H2A 1Y9",
                        "locality": "Montreal",
                        "postcode": "H2A 1Y9",
                        "region": "QC"
                  },
                  "name": "Barbes Caf\u00e9-Resto"
            },
            {
                  "distance": 719,
                  "location": {
                        "address": "7167 15e Ave",
                        "country": "CA",
                        "formatted_address": "7167 15e Ave, Montreal QC H2A 2T9",
                        "locality": "Montreal",
                        "postcode": "H2A 2T9",
                        "region": "QC"
                  },
                  "name": "La Boulangerie Salem"
            },
            {
                  "distance": 739,
                  "location": {
                        "address": "3231 Beaubien Rue E",
                        "country": "CA",
                        "formatted_address": "3231 Beaubien Rue E, Montreal QC H1Y 1H6",
                        "locality": "Montreal",
                        "postcode": "H1Y 1H6",
                        "region": "QC"
                  },
                  "name": "Restaurant Famili"
            },
            {
                  "distance": 744,
                  "location": {
                        "address": "3598 Jean Talon Rue E",
                        "country": "CA",
                        "formatted_address": "3598 Jean Talon Rue E, Montreal QC H2A 1X5",
                        "locality": "Montreal",
                        "postcode": "H2A 1X5",
                        "region": "QC"
                  },
                  "name": "Caf\u00e9-resto D\u00e9lices F\u00e8s"
            },
            {
                  "distance": 751,
                  "location": {
                        "address": "4128 Jean-Talon Rue E",
                        "country": "CA",
                        "formatted_address": "4128 Jean-Talon Rue E, Montreal QC",
                        "locality": "Montreal",
                        "region": "QC"
                  },
                  "name": "Poisson Poulet"
            },
            {
                  "distance": 759,
                  "location": {
                        "address": "4134 Jean-Talon Rue E",
                        "country": "CA",
                        "formatted_address": "4134 Jean-Talon Rue E, Montreal QC H1S 2V4",
                        "locality": "Montreal",
                        "postcode": "H1S 2V4",
                        "region": "QC"
                  },
                  "name": "Pizza Go"
            },
            {
                  "distance": 775,
                  "location": {
                        "address": "3575 Jean-Talon Rue E",
                        "country": "CA",
                        "formatted_address": "3575 Jean-Talon Rue E, Montreal QC H2A 1X4",
                        "locality": "Montreal",
                        "postcode": "H2A 1X4",
                        "region": "QC"
                  },
                  "name": "Caf\u00e9 Resto le M\u00e9dit\u00e9rran\u00e9en"
            },
            {
                  "distance": 787,
                  "location": {
                        "address": "3234 Beaubien Rue E",
                        "country": "CA",
                        "formatted_address": "3234 Beaubien Rue E, Montreal QC H1Y 1H7",
                        "locality": "Montreal",
                        "postcode": "H1Y 1H7",
                        "region": "QC"
                  },
                  "name": "Taverne"
            },
            {
                  "distance": 795,
                  "location": {
                        "address": "3234 Beaubien Rue E",
                        "country": "CA",
                        "formatted_address": "3234 Beaubien Rue E, Montreal QC",
                        "locality": "Montreal",
                        "region": "QC"
                  },
                  "name": "Le Grand Lionel"
            },
            {
                  "distance": 832,
                  "location": {
                        "address": "3436 Jean-Talon Rue E",
                        "country": "CA",
                        "formatted_address": "3436 Jean-Talon Rue E, Montreal QC H2A 1W9",
                        "locality": "Montreal",
                        "postcode": "H2A 1W9",
                        "region": "QC"
                  },
                  "name": "La Kasbah"
            },
            {
                  "distance": 851,
                  "location": {
                        "address": "4524 Belanger Rue",
                        "country": "CA",
                        "formatted_address": "4524 Belanger Rue, Montreal QC H1T 1B6",
                        "locality": "Montreal",
                        "postcode": "H1T 1B6",
                        "region": "QC"
                  },
                  "name": "Patisserie Charcuterie"
            }
      ],
      "context": {
            "geo_bounds": {
                  "circle": {
                        "center": {
                              "latitude": 45.56168276,
                              "longitude": -73.58564794
                        },
                        "radius": 1000
                  }
            }
      }
}