{
      "results": [
            {
                  "distance": 931,
                  "location": {
                        "address": "4255 Ontario Rue E",
                        "country": "CA",
                        "cross_street": "",
                        "formatted_address": "4255 Ontario Rue E, Montr\u00e9al QC H1V 1K4",
                        "locality": "Montreal",
                        "postcode": "H1V 1K4",
                        "region": "QC"
                  },
                  "name": "H\u00e9licopt\u00e8re",
                  "popularity": 0.910744700984103,
                  "price": 2,
                  "rating": 8.6
            },
            {
                  "distance": 847,
                  "location": {
                        "address": "4299 Ontario Rue E",
                        "country": "CA",
                        "cross_street": "coin Letourneux",
                        "formatted_address": "4299 Ontario Rue E (coin Letourneux), Montr\u00e9al QC H1V 1K4",
                        "locality": "Montreal",
                        "postcode": "H1V 1K4",
                        "region": "QC"
                  },
                  "name": "Hoche Caf\u00e9",
                  "popularity": 0.9021574564723694,
                  "price": 2,
                  "rating": 8.5
            },
            {
                  "distance": 891,
                  "location": {
                        "address": "4271 Ontario Rue E",
                        "country": "CA",
                        "formatted_address": "4271 Ontario Rue E, Montr\u00e9al QC H1V 1K4",
                        "locality": "Montreal",
                        "postcode": "H1V 1K4",
                        "region": "QC"
                  },
                  "name": "L'Olive Noire",
                  "popularity": 0.8508114118092355,
                  "price": 2,
                  "rating": 8.4
            },
            {
                  "distance": 805,
                  "location": {
                        "address": "4317 Ontario Rue E",
                        "country": "CA",
                        "cross_street": "Letourneux",
                        "formatted_address": "4317 Ontario Rue E (Letourneux), Montr\u00e9al QC H1V 1K5",
                        "locality": "Montreal",
                        "postcode": "H1V 1K5",
                        "region": "QC"
                  },
                  "name": "Les gourmandises de Marie-Antoinette",
                  "popularity": 0.9419828728236185,
                  "price": 2,
                  "rating": 8.3
            },
            {
                  "distance": 803,
                  "location": {
                        "address": "4323 Ontario Rue E",
                        "country": "CA",
                        "formatted_address": "4323 Ontario Rue E, Montr\u00e9al QC H1V 1K5",
                        "locality": "Montreal",
                        "postcode": "H1V 1K5",
                        "region": "QC"
                  },
                  "name": "Bagatelle Bistro",
                  "popularity": 0.9195093679031037,
                  "price": 3,
                  "rating": 8.3
            },
            {
                  "distance": 581,
                  "location": {
                        "address": "2225 Bennett Ave",
                        "country": "CA",
                        "cross_street": "",
                        "formatted_address": "2225 Bennett Ave, Montr\u00e9al QC H1V 2T4",
                        "locality": "Montreal",
                        "postcode": "H1V 2T4",
                        "region": "QC"
                  },
                  "name": "Hoche Glac\u00e9",
                  "popularity": 0.9444549583648751,
                  "price": 1,
                  "rating": 7.7
            },
            {
                  "distance": 970,
                  "location": {
                        "address": "4223 Ontario Rue E",
                        "country": "CA",
                        "cross_street": "coin Desjardins",
                        "formatted_address": "4223 Ontario Rue E (coin Desjardins), Montr\u00e9al QC H1V 1K2",
                        "locality": "Montreal",
                        "postcode": "H1V 1K2",
                        "region": "QC"
                  },
                  "name": "New Casa de la Pizza",
                  "popularity": 0.8993660105980318,
                  "price": 1,
                  "rating": 7.4
            },
            {
                  "distance": 927,
                  "location": {
                        "address": "2009 Ave de la Salle",
                        "country": "CA",
                        "cross_street": "",
                        "formatted_address": "2009 Ave de la Salle, Montr\u00e9al QC H1V 2K6",
                        "locality": "Montreal",
                        "postcode": "H1V 2K6",
                        "region": "QC"
                  },
                  "name": "H\u00e9lico",
                  "popularity": 0.9399366010598031,
                  "price": 1,
                  "rating": 6.9
            },
            {
                  "distance": 522,
                  "location": {
                        "address": "4821 Sainte-Catherine Rue E",
                        "country": "CA",
                        "cross_street": "rue Th\u00e9odore",
                        "formatted_address": "4821 Sainte-Catherine Rue E (rue Th\u00e9odore), Montr\u00e9al QC H1V 1Z7",
                        "locality": "Montreal",
                        "postcode": "H1V 1Z7",
                        "region": "QC"
                  },
                  "name": "Restaurant Cabotins",
                  "popularity": 0.9146598221044663,
                  "price": 2,
                  "rating": 6.7
            },
            {
                  "distance": 968,
                  "location": {
                        "address": "5382 Notre-Dame Rue E",
                        "country": "CA",
                        "cross_street": "Dickson",
                        "formatted_address": "5382 Notre-Dame Rue E (Dickson), Montr\u00e9al QC H1N 2C4",
                        "locality": "Montreal",
                        "postcode": "H1N 2C4",
                        "region": "QC"
                  },
                  "name": "Lafleur Restaurants",
                  "popularity": 0.9774200416351249,
                  "price": 1,
                  "rating": 6.4
            },
            {
                  "distance": 884,
                  "location": {
                        "address": "4825 Pierre de Coubertin Ave",
                        "country": "CA",
                        "cross_street": "Viau",
                        "formatted_address": "4825 Pierre de Coubertin Ave (Viau), Montr\u00e9al QC",
                        "locality": "Montreal",
                        "region": "QC"
                  },
                  "name": "Pizza Pizza",
                  "popularity": 0.611610522331567,
                  "price": 1,
                  "rating": 6.2
            },
            {
                  "distance": 152,
                  "location": {
                        "address": "4850 Ontario Rue E",
                        "country": "CA",
                        "cross_street": "",
                        "formatted_address": "4850 Ontario Rue E, Montr\u00e9al QC H1V 1L7",
                        "locality": "Montreal",
                        "postcode": "H1V 1L7",
                        "region": "QC"
                  },
                  "name": "Domaine des 15 Lots",
                  "popularity": 0.9665972747918243,
                  "price": 1
            },
            {
                  "distance": 155,
                  "location": {
                        "address": "4850 Ontario Rue E",
                        "country": "CA",
                        "cross_street": "",
                        "formatted_address": "4850 Ontario Rue E, Montr\u00e9al QC H1V 1L7",
                        "locality": "Montreal",
                        "postcode": "H1V 1L7",
                        "region": "QC"
                  },
                  "name": "Services d'Or",
                  "popularity": 0.12290641559424678,
                  "price": 1
            },
            {
                  "distance": 249,
                  "location": {
                        "address": "5065 Ontario Rue E",
                        "country": "CA",
                        "cross_street": "Coin rue Ida-Steinberg",
                        "formatted_address": "5065 Ontario Rue E (Coin rue Ida-Steinberg), Montr\u00e9al QC H1V 3V2",
                        "locality": "Montreal",
                        "postcode": "H1V 3V2",
                        "region": "QC"
                  },
                  "name": "France Delices",
                  "popularity": 0.21029286525359575
            },
            {
                  "distance": 608,
                  "location": {
                        "address": "4535 Rue de Rouen",
                        "country": "CA",
                        "cross_street": "",
                        "formatted_address": "4535 Rue de Rouen, Montr\u00e9al QC H1V 2W4",
                        "locality": "Montreal",
                        "postcode": "H1V 2W4",
                        "region": "QC"
                  },
                  "name": "Bocal",
                  "popularity": 0.9737533118849356,
                  "price": 1
            },
            {
                  "distance": 673,
                  "location": {
                        "address": "4641 Sainte-Catherine Rue E",
                        "country": "CA",
                        "cross_street": "",
                        "formatted_address": "4641 Sainte-Catherine Rue E, Montr\u00e9al QC H1V 1Z1",
                        "locality": "Montreal",
                        "postcode": "H1V 1Z1",
                        "region": "QC"
                  },
                  "name": "Loupblond",
                  "popularity": 0.7494204201362604,
                  "price": 2
            },
            {
                  "distance": 675,
                  "location": {
                        "address": "4743 Hochelaga Rue",
                        "country": "CA",
                        "cross_street": "Leclaire",
                        "formatted_address": "4743 Hochelaga Rue (Leclaire), Montr\u00e9al QC H1V 1E2",
                        "locality": "Montreal",
                        "postcode": "H1V 1E2",
                        "region": "QC"
                  },
                  "name": "Restaurant Pizzeria Hochelaga",
                  "popularity": 0.9084618660105981,
                  "price": 1
            },
            {
                  "distance": 681,
                  "location": {
                        "address": "4641 Sainte-Catherine Rue E",
                        "country": "CA",
                        "cross_street": "Aird",
                        "formatted_address": "4641 Sainte-Catherine Rue E (Aird), Montr\u00e9al QC H1V 1Z1",
                        "locality": "Montreal",
                        "postcode": "H1V 1Z1",
                        "region": "QC"
                  },
                  "name": "La Taqueria d'Hochlag",
                  "popularity": 0.9301192278576835,
                  "price": 1
            },
            {
                  "distance": 691,
                  "location": {
                        "address": "4641 Sainte-Catherine Rue E",
                        "country": "CA",
                        "cross_street": "Aird",
                        "formatted_address": "4641 Sainte-Catherine Rue E (Aird), Montr\u00e9al QC H1V 1Z1",
                        "locality": "Montreal",
                        "postcode": "H1V 1Z1",
                        "region": "QC"
                  },
                  "name": "Le Maizonneuve",
                  "popularity": 0.09088758516275548,
                  "price": 3
            },
            {
                  "distance": 786,
                  "location": {
                        "address": "4471 Sainte-Catherine Rue E",
                        "country": "CA",
                        "cross_street": "",
                        "formatted_address": "4471 Sainte-Catherine Rue E, Montr\u00e9al QC H1V 1Y6",
                        "locality": "Montreal",
                        "postcode": "H1V 1Y6",
                        "region": "QC"
                  },
                  "name": "Taverne l'Escale",
                  "popularity": 0.877235522331567,
                  "price": 2
            },
            {
                  "distance": 817,
                  "location": {
                        "address": "4315 Ontario Rue E",
                        "country": "CA",
                        "cross_street": "",
                        "formatted_address": "4315 Ontario Rue E, Montr\u00e9al QC H1V 1K5",
                        "locality": "Montreal",
                        "postcode": "H1V 1K5",
                        "region": "QC"
                  },
                  "name": "Pita Bar",
                  "popularity": 0.834145533686601,
                  "price": 2
            },
            {
                  "distance": 821,
                  "location": {
                        "address": "4315 Ontario Rue E",
                        "country": "CA",
                        "cross_street": "",
                        "formatted_address": "4315 Ontario Rue E, Montr\u00e9al QC H1V 1K5",
                        "locality": "Montreal",
                        "postcode": "H1V 1K5",
                        "region": "QC"
                  },
                  "name": "Hoa Anh-D\u0101o",
                  "popularity": 0.1645415404996215,
                  "price": 2
            },
            {
                  "distance": 845,
                  "location": {
                        "address": "4456 Sainte-Catherine Rue E",
                        "country": "CA",
                        "cross_street": "William-David",
                        "formatted_address": "4456 Sainte-Catherine Rue E (William-David), Montr\u00e9al QC H1V 1Y3",
                        "locality": "Montreal",
                        "postcode": "H1V 1Y3",
                        "region": "QC"
                  },
                  "name": "Bar l'Assembl\u00e9e",
                  "popularity": 0.8532598410295231,
                  "price": 2
            },
            {
                  "distance": 861,
                  "location": {
                        "address": "9865 Ste Catherine",
                        "country": "CA",
                        "cross_street": "St alexandre",
                        "formatted_address": "9865 Ste Catherine (St alexandre), Montr\u00e9al QC",
                        "locality": "Montreal",
                        "region": "QC"
                  },
                  "name": "Quiznos",
                  "popularity": 0.8827119606358819,
                  "price": 1
            },
            {
                  "distance": 949,
                  "location": {
                        "address": "4223 Ontario Rue E",
                        "country": "CA",
                        "formatted_address": "4223 Ontario Rue E, Montr\u00e9al QC H1V 1K2",
                        "locality": "Montreal",
                        "postcode": "H1V 1K2",
                        "region": "QC"
                  },
                  "name": "La Casa des Sp\u00e9cialt\u00e9s Grecques",
                  "popularity": 0.7474569454958365,
                  "price": 2
            },
            {
                  "distance": 956,
                  "location": {
                        "address": "4316 Sainte-Catherine Rue E",
                        "country": "CA",
                        "cross_street": "",
                        "formatted_address": "4316 Sainte-Catherine Rue E, Montr\u00e9al QC H1V 1X9",
                        "locality": "Montreal",
                        "postcode": "H1V 1X9",
                        "region": "QC"
                  },
                  "name": "Supernat",
                  "popularity": 0.9456496025738077,
                  "price": 1
            },
            {
                  "distance": 962,
                  "location": {
                        "address": "4303 Sainte-Catherine Rue E",
                        "country": "CA",
                        "cross_street": "",
                        "formatted_address": "4303 Sainte-Catherine Rue E, Montr\u00e9al QC H1V 1Y1",
                        "locality": "Montreal",
                        "postcode": "H1V 1Y1",
                        "region": "QC"
                  },
                  "name": "Bar le Bureau",
                  "popularity": 0.5600397426192278,
                  "price": 2
            },
            {
                  "distance": 1090,
                  "location": {
                        "address": "4596 Sainte-Catherine Rue E",
                        "country": "CA",
                        "cross_street": "",
                        "formatted_address": "4596 Sainte-Catherine Rue E, Montr\u00e9al QC H1V 1Y7",
                        "locality": "Montreal",
                        "postcode": "H1V 1Y7",
                        "region": "QC"
                  },
                  "name": "Patisserie la Lorraine",
                  "popularity": 0.37859576078728235,
                  "price": 1
            },
            {
                  "distance": 246,
                  "location": {
                        "address": "5067 Ontario Rue E",
                        "country": "CA",
                        "formatted_address": "5067 Ontario Rue E, Montreal QC H1V 3V2",
                        "locality": "Montreal",
                        "postcode": "H1V 3V2",
                        "region": "QC"
                  },
                  "name": "Quali-Desserts Inc"
            },
            {
                  "distance": 435,
                  "location": {
                        "address": "2063 Aird Ave",
                        "address_extended": "# 305",
                        "country": "CA",
                        "formatted_address": "2063 Aird Ave, Montreal QC H1V 2V9",
                        "locality": "Montreal",
                        "postcode": "H1V 2V9",
                        "region": "QC"
                  },
                  "name": "Bob, le Roi du Kitsch et du Vintage"
            },
            {
                  "distance": 492,
                  "location": {
                        "address": "4929 Sainte-Catherine Rue E",
                        "country": "CA",
                        "formatted_address": "4929 Sainte-Catherine Rue E, Montreal QC H1V 1Z9",
                        "locality": "Montreal",
                        "postcode": "H1V 1Z9",
                        "region": "QC"
                  },
                  "name": "Platrier & Cube & Plaster"
            },
            {
                  "distance": 553,
                  "location": {
                        "address": "2190 Aird Ave",
                        "country": "CA",
                        "formatted_address": "2190 Aird Ave, Montreal QC",
                        "locality": "Montreal",
                        "region": "QC"
                  },
                  "name": "Galette Soba"
            },
            {
                  "distance": 636,
                  "location": {
                        "address": "4740 Hochelaga Rue",
                        "country": "CA",
                        "formatted_address": "4740 Hochelaga Rue, Montreal QC H1V 1E3",
                        "locality": "Montreal",
                        "postcode": "H1V 1E3",
                        "region": "QC"
                  },
                  "name": "Tok\u00e9"
            },
            {
                  "distance": 650,
                  "location": {
                        "address": "4460 Ontario Rue E",
                        "country": "CA",
                        "formatted_address": "4460 Ontario Rue E, Montreal QC H1V 1K6",
                        "locality": "Montreal",
                        "postcode": "H1V 1K6",
                        "region": "QC"
                  },
                  "name": "Albert B"
            },
            {
                  "distance": 651,
                  "location": {
                        "address": "4696 Sainte Catherine Rue E",
                        "country": "CA",
                        "formatted_address": "4696 Sainte Catherine Rue E, Montreal QC H1V 1Y9",
                        "locality": "Montreal",
                        "postcode": "H1V 1Y9",
                        "region": "QC"
                  },
                  "name": "Restaurant Au Bon Matin"
            }
      ],
      "context": {
            "geo_bounds": {
                  "circle": {
                        "center": {
                              "latitude": 45.5594818,
                              "longitude": -73.535496
                        },
                        "radius": 1000
                  }
            }
      }
}