{
      "results": [
            {
                  "distance": 815,
                  "location": {
                        "address": "360 Saint-Jacques Rue",
                        "country": "CA",
                        "cross_street": "",
                        "formatted_address": "360 Saint-Jacques Rue, Montr\u00e9al QC H2Y 1P5",
                        "locality": "Montreal",
                        "postcode": "H2Y 1P5",
                        "region": "QC"
                  },
                  "name": "Crew Collective & Caf\u00e9",
                  "popularity": 0.9824115253595761,
                  "price": 1,
                  "rating": 9.3
            },
            {
                  "distance": 780,
                  "location": {
                        "address": "351 Saint-Paul Rue O",
                        "country": "CA",
                        "cross_street": "Coin St-Pierre",
                        "formatted_address": "351 Saint-Paul Rue O (Coin St-Pierre), Montr\u00e9al QC H2Y 2A7",
                        "locality": "Montreal",
                        "postcode": "H2Y 2A7",
                        "region": "QC"
                  },
                  "name": "Olive & Gourmando",
                  "popularity": 0.9503217259651779,
                  "price": 2,
                  "rating": 9.2
            },
            {
                  "distance": 607,
                  "location": {
                        "address": "200 Saint-Paul Rue O",
                        "country": "CA",
                        "cross_street": "",
                        "formatted_address": "200 Saint-Paul Rue O, Montr\u00e9al QC H2Y 1Z9",
                        "locality": "Montreal",
                        "postcode": "H2Y 1Z9",
                        "region": "QC"
                  },
                  "name": "Stash Caf\u00e9",
                  "popularity": 0.945140991672975,
                  "price": 2,
                  "rating": 9.1
            },
            {
                  "distance": 943,
                  "location": {
                        "address": "1067 Rue de Bleury",
                        "country": "CA",
                        "cross_street": "De la Gaucheti\u00e8re",
                        "formatted_address": "1067 Rue de Bleury (De la Gaucheti\u00e8re), Montr\u00e9al QC H2Z 1N1",
                        "locality": "Montreal",
                        "postcode": "H2Z 1N1",
                        "region": "QC"
                  },
                  "name": "La Finca caf\u00e9 & bureau",
                  "popularity": 0.9523798258894777,
                  "price": 1,
                  "rating": 9.1
            },
            {
                  "distance": 375,
                  "location": {
                        "address": "520 Saint-Laurent Blvd",
                        "address_extended": "Saint-Jacques",
                        "country": "CA",
                        "cross_street": "Saint-Jacques",
                        "formatted_address": "520 Saint-Laurent Blvd (Saint-Jacques), Montr\u00e9al QC H2Y 2Y9",
                        "locality": "Montreal",
                        "postcode": "H2Y 2Y9",
                        "region": "QC"
                  },
                  "name": "Paquebot Vieux-Mtl",
                  "popularity": 0.9716833838001514,
                  "price": 1,
                  "rating": 9.0
            },
            {
                  "distance": 765,
                  "location": {
                        "address": "312 Saint-Paul Rue O",
                        "country": "CA",
                        "cross_street": "Saint-Pierre",
                        "formatted_address": "312 Saint-Paul Rue O (Saint-Pierre), Montr\u00e9al QC H2Y 2A3",
                        "locality": "Montreal",
                        "postcode": "H2Y 2A3",
                        "region": "QC"
                  },
                  "name": "Barroco",
                  "popularity": 0.9301901968205905,
                  "price": 4,
                  "rating": 9.0
            },
            {
                  "distance": 691,
                  "location": {
                        "address": "425 Saint Nicolas Rue",
                        "country": "CA",
                        "cross_street": "",
                        "formatted_address": "425 Saint Nicolas Rue, Montr\u00e9al QC H2Y 2P4",
                        "locality": "Montreal",
                        "postcode": "H2Y 2P4",
                        "region": "QC"
                  },
                  "name": "Mandy's",
                  "popularity": 0.9572175435276306,
                  "price": 1,
                  "rating": 9.0
            },
            {
                  "distance": 737,
                  "location": {
                        "address": "1106B Saint Laurent Blvd",
                        "country": "CA",
                        "cross_street": "coin Ren\u00e9-L\u00e9vesque",
                        "formatted_address": "1106B Saint Laurent Blvd (coin Ren\u00e9-L\u00e9vesque), Montr\u00e9al QC H2Z 1J5",
                        "locality": "Montreal",
                        "postcode": "H2Z 1J5",
                        "region": "QC"
                  },
                  "name": "Bar le Mal N\u00e9cessaire",
                  "popularity": 0.9491152535957608,
                  "price": 3,
                  "rating": 9.0
            },
            {
                  "distance": 199,
                  "location": {
                        "address": "380 Saint Paul Rue E",
                        "country": "CA",
                        "cross_street": "coin Bonsecours",
                        "formatted_address": "380 Saint Paul Rue E (coin Bonsecours), Montr\u00e9al QC H2Y 1H2",
                        "locality": "Montreal",
                        "postcode": "H2Y 1H2",
                        "region": "QC"
                  },
                  "name": "Pub BreWskey",
                  "popularity": 0.9748888152914459,
                  "price": 1,
                  "rating": 8.9
            },
            {
                  "distance": 111,
                  "location": {
                        "address": "155 Saint-Paul Rue E",
                        "country": "CA",
                        "formatted_address": "155 Saint-Paul Rue E, Montr\u00e9al QC H2Y 1G8",
                        "locality": "Montreal",
                        "postcode": "H2Y 1G8",
                        "region": "QC"
                  },
                  "name": "Cold Room",
                  "popularity": 0.9257782929598789,
                  "price": 3,
                  "rating": 8.9
            },
            {
                  "distance": 114,
                  "location": {
                        "address": "419 Saint-Vincent Rue",
                        "country": "CA",
                        "cross_street": "Rue Saint-Amable",
                        "formatted_address": "419 Saint-Vincent Rue (Rue Saint-Amable), Montr\u00e9al QC H2Y 3A6",
                        "locality": "Montreal",
                        "postcode": "H2Y 3A6",
                        "region": "QC"
                  },
                  "name": "Caf\u00e9 Olimpico",
                  "popularity": 0.9666682437547313,
                  "price": 1,
                  "rating": 8.9
            },
            {
                  "distance": 835,
                  "location": {
                        "address": "363 d'Youville Pl",
                        "country": "CA",
                        "cross_street": "St Pierre et McGill",
                        "formatted_address": "363 d'Youville Pl (St Pierre et McGill), Montr\u00e9al QC H2Y 2B7",
                        "locality": "Montreal",
                        "postcode": "H2Y 2B7",
                        "region": "QC"
                  },
                  "name": "Deli Italien Bello",
                  "popularity": 0.9035058667676003,
                  "price": 2,
                  "rating": 8.9
            },
            {
                  "distance": 919,
                  "location": {
                        "address": "407 McGill Rue",
                        "address_extended": "# 100A",
                        "country": "CA",
                        "formatted_address": "407 McGill Rue, Montr\u00e9al QC H2Y 2G3",
                        "locality": "Montreal",
                        "postcode": "H2Y 2G3",
                        "region": "QC"
                  },
                  "name": "Restaurant Holder",
                  "popularity": 0.954083080999243,
                  "price": 2,
                  "rating": 8.9
            },
            {
                  "distance": 63,
                  "location": {
                        "address": "273 Saint-Paul Rue E",
                        "country": "CA",
                        "cross_street": "at rue du March\u00e9-Bonsecours",
                        "formatted_address": "273 Saint-Paul Rue E (at rue du March\u00e9-Bonsecours), Montr\u00e9al QC H2Y 1H1",
                        "locality": "Montreal",
                        "postcode": "H2Y 1H1",
                        "region": "QC"
                  },
                  "name": "L'Usine de Spaghetti",
                  "popularity": 0.9515400264950795,
                  "price": 2,
                  "rating": 8.8
            },
            {
                  "distance": 493,
                  "location": {
                        "address": "139 Saint-Paul Rue O",
                        "country": "CA",
                        "cross_street": "",
                        "formatted_address": "139 Saint-Paul Rue O, Montr\u00e9al QC H2Y 1Z5",
                        "locality": "Montreal",
                        "postcode": "H2Y 1Z5",
                        "region": "QC"
                  },
                  "name": "Pub Wolf & Workman",
                  "popularity": 0.9454485238455715,
                  "price": 2,
                  "rating": 8.7
            },
            {
                  "distance": 947,
                  "location": {
                        "address": "460 McGill Rue",
                        "country": "CA",
                        "cross_street": "",
                        "formatted_address": "460 McGill Rue, Montr\u00e9al QC H2Y 2H2",
                        "locality": "Montreal",
                        "postcode": "H2Y 2H2",
                        "region": "QC"
                  },
                  "name": "Structure Torr\u00e9facteurs - Structure Coffee Roasters",
                  "popularity": 0.9362343868281605,
                  "price": 1,
                  "rating": 8.6
            },
            {
                  "distance": 742,
                  "location": {
                        "address": "275 Notre-Dame Rue O",
                        "country": "CA",
                        "formatted_address": "275 Notre-Dame Rue O, Montr\u00e9al QC H2Y 1T8",
                        "locality": "Montreal",
                        "postcode": "H2Y 1T8",
                        "region": "QC"
                  },
                  "name": "Chez Delmo",
                  "popularity": 0.9198050719152158,
                  "price": 4,
                  "rating": 8.6
            },
            {
                  "distance": 519,
                  "location": {
                        "address": "151 Saint-Paul Rue O",
                        "country": "CA",
                        "cross_street": "",
                        "formatted_address": "151 Saint-Paul Rue O, Montr\u00e9al QC H2Y 1Z5",
                        "locality": "Montreal",
                        "postcode": "H2Y 1Z5",
                        "region": "QC"
                  },
                  "name": "Tommy Caf\u00e9",
                  "popularity": 0.9337741294473884,
                  "price": 1,
                  "rating": 8.6
            },
            {
                  "distance": 217,
                  "location": {
                        "address": "426 Saint-Gabriel Rue",
                        "country": "CA",
                        "formatted_address": "426 Saint-Gabriel Rue, Montr\u00e9al QC H2Y 2Z9",
                        "locality": "Montreal",
                        "postcode": "H2Y 2Z9",
                        "region": "QC"
                  },
                  "name": "L'Auberge Saint-Gabriel",
                  "popularity": 0.9457087433762301,
                  "price": 3,
                  "rating": 8.6
            },
            {
                  "distance": 530,
                  "location": {
                        "address": "711 cote de la Place-d'Armes",
                        "country": "CA",
                        "cross_street": "St-Jacques",
                        "formatted_address": "711 cote de la Place-d'Armes (St-Jacques), Montr\u00e9al QC H2Y 2X6",
                        "locality": "Montreal",
                        "postcode": "H2Y 2X6",
                        "region": "QC"
                  },
                  "name": "Kyo Bar Japonais",
                  "popularity": 0.9498722558667676,
                  "price": 2,
                  "rating": 8.6
            },
            {
                  "distance": 734,
                  "location": {
                        "address": "1096 Saint-Laurent Blvd",
                        "country": "CA",
                        "cross_street": "entre Ren\u00e9-L\u00e9vesque & De la Gaucheti\u00e8re",
                        "formatted_address": "1096 Saint-Laurent Blvd (entre Ren\u00e9-L\u00e9vesque & De la Gaucheti\u00e8re), Montr\u00e9al QC H2Z 1J5",
                        "locality": "Montreal",
                        "postcode": "H2Z 1J5",
                        "region": "QC"
                  },
                  "name": "La Capital Tacos",
                  "popularity": 0.9445377554882665,
                  "price": 1,
                  "rating": 8.6
            },
            {
                  "distance": 926,
                  "location": {
                        "address": "433 McGill Rue",
                        "country": "CA",
                        "cross_street": "St-Maurice",
                        "formatted_address": "433 McGill Rue (St-Maurice), Montr\u00e9al QC H2Y 2H1",
                        "locality": "Montreal",
                        "postcode": "H2Y 2H1",
                        "region": "QC"
                  },
                  "name": "Brit & Chips",
                  "popularity": 0.9405280090840272,
                  "price": 2,
                  "rating": 8.6
            },
            {
                  "distance": 261,
                  "location": {
                        "address": "350 Notre-Dame Rue E",
                        "address_extended": "Suite 1",
                        "country": "CA",
                        "cross_street": "Bonsecours",
                        "formatted_address": "350 Notre-Dame Rue E (Bonsecours), Montr\u00e9al QC H2Y 1C7",
                        "locality": "Montreal",
                        "postcode": "H2Y 1C7",
                        "region": "QC"
                  },
                  "name": "Caf\u00e9 de' Mercanti - Old Montreal",
                  "popularity": 0.9625993565480696,
                  "price": 1,
                  "rating": 8.6
            },
            {
                  "distance": 230,
                  "location": {
                        "address": "25 Saint Paul St E",
                        "country": "CA",
                        "formatted_address": "25 Saint Paul St E, Montr\u00e9al QC H2Y 1G2",
                        "locality": "Montreal",
                        "postcode": "H2Y 1G2",
                        "region": "QC"
                  },
                  "name": "The Keg Steakhouse + Bar",
                  "popularity": 0.957205715367146,
                  "price": 2,
                  "rating": 8.6,
                  "store_id": "108"
            },
            {
                  "distance": 231236,
                  "location": {
                        "address": "363 d'Youville Pl",
                        "country": "CA",
                        "cross_street": "",
                        "formatted_address": "363 d'Youville Pl, Montreal QC H2Y 2B7",
                        "locality": "Qu\u00e9bec",
                        "postcode": "H2Y 2B7",
                        "region": "QC"
                  },
                  "name": "Bello Deli",
                  "popularity": 0.9531404375441073,
                  "price": 2,
                  "rating": 8.5
            },
            {
                  "distance": 452,
                  "location": {
                        "address": "453 Saint-Sulpice Rue",
                        "country": "CA",
                        "cross_street": "Notre-Dame O.",
                        "formatted_address": "453 Saint-Sulpice Rue (Notre-Dame O.), Montr\u00e9al QC H2Y 2V8",
                        "locality": "Montreal",
                        "postcode": "H2Y 2V8",
                        "region": "QC"
                  },
                  "name": "Les Glaceurs",
                  "popularity": 0.9073145344436033,
                  "price": 3,
                  "rating": 8.5
            },
            {
                  "distance": 575,
                  "location": {
                        "address": "179 Saint-Paul Rue O",
                        "country": "CA",
                        "cross_street": "Place Royale",
                        "formatted_address": "179 Saint-Paul Rue O (Place Royale), Montr\u00e9al QC H2Y 1Z5",
                        "locality": "Montreal",
                        "postcode": "H2Y 1Z5",
                        "region": "QC"
                  },
                  "name": "Le Petit Dep",
                  "popularity": 0.9530540310370931,
                  "rating": 8.5
            },
            {
                  "distance": 606,
                  "location": {
                        "address": "200 Notre-Dame Rue O",
                        "country": "CA",
                        "cross_street": "coin Saint-Fran\u00e7ois Xavier",
                        "formatted_address": "200 Notre-Dame Rue O (coin Saint-Fran\u00e7ois Xavier), Montr\u00e9al QC H2Y 1T3",
                        "locality": "Montreal",
                        "postcode": "H2Y 1T3",
                        "region": "QC"
                  },
                  "name": "Tommy",
                  "popularity": 0.9703586298258895,
                  "price": 1,
                  "rating": 8.3
            },
            {
                  "distance": 287,
                  "location": {
                        "address": "1 Saint-Paul Rue O",
                        "country": "CA",
                        "cross_street": "St-Laurent",
                        "formatted_address": "1 Saint-Paul Rue O (St-Laurent), Montr\u00e9al QC H2Y 1Y6",
                        "locality": "Montreal",
                        "postcode": "H2Y 1Y6",
                        "region": "QC"
                  },
                  "name": "Modavie",
                  "popularity": 0.9749006434519304,
                  "price": 2,
                  "rating": 8.3
            },
            {
                  "distance": 599,
                  "location": {
                        "address": "1006 Saint-Laurent Blvd",
                        "country": "CA",
                        "cross_street": "",
                        "formatted_address": "1006 Saint-Laurent Blvd, Montr\u00e9al QC H2Z 1J3",
                        "locality": "Montreal",
                        "postcode": "H2Z 1J3",
                        "region": "QC"
                  },
                  "name": "Nouilles de Lan Zhou",
                  "popularity": 0.9843868281604845,
                  "price": 2,
                  "rating": 8.3
            },
            {
                  "distance": 248,
                  "location": {
                        "address": "3 Saint-Paul Rue E",
                        "country": "CA",
                        "formatted_address": "3 Saint-Paul Rue E, Montr\u00e9al QC H2Y 1E9",
                        "locality": "Montreal",
                        "postcode": "H2Y 1E9",
                        "region": "QC"
                  },
                  "name": "Creperie Chez Suzette",
                  "popularity": 0.9561530090840272,
                  "price": 2,
                  "rating": 8.3
            },
            {
                  "distance": 199,
                  "location": {
                        "address": "39 Saint-Paul Rue E",
                        "country": "CA",
                        "cross_street": "St-Gabriel",
                        "formatted_address": "39 Saint-Paul Rue E (St-Gabriel), Montreal QC H2Y 1G2",
                        "locality": "Montreal",
                        "postcode": "H2Y 1G2",
                        "region": "QC"
                  },
                  "name": "Vieux-Port Steakhouse",
                  "popularity": 0.9651542392127176,
                  "price": 2,
                  "rating": 8.2
            },
            {
                  "distance": 88,
                  "location": {
                        "address": "426 Jacques-Cartier Pl",
                        "country": "CA",
                        "cross_street": "",
                        "formatted_address": "426 Jacques-Cartier Pl, Montr\u00e9al QC H2Y 3B3",
                        "locality": "Montreal",
                        "postcode": "H2Y 3B3",
                        "region": "QC"
                  },
                  "name": "Maggie Oakes",
                  "popularity": 0.9443603330809992,
                  "price": 4,
                  "rating": 8.2
            },
            {
                  "distance": 1052,
                  "location": {
                        "address": "150 St Catherine Rue W",
                        "address_extended": "Room 201C",
                        "country": "CA",
                        "cross_street": "",
                        "formatted_address": "150 St Catherine Rue W, Montr\u00e9al QC H2X 3Y2",
                        "locality": "Montreal",
                        "postcode": "H2X 3Y2",
                        "region": "QC"
                  },
                  "name": "La Cage",
                  "popularity": 0.9884202308856926,
                  "price": 2,
                  "rating": 8.2,
                  "store_id": "LC_08"
            },
            {
                  "distance": 975,
                  "location": {
                        "address": "468 McGill Rue",
                        "country": "CA",
                        "cross_street": "",
                        "formatted_address": "468 McGill Rue, Montr\u00e9al QC H2Y 2H2",
                        "locality": "Montreal",
                        "postcode": "H2Y 2H2",
                        "region": "QC"
                  },
                  "name": "Five Guys Burgers & Fries",
                  "popularity": 0.9749361279333838,
                  "price": 2,
                  "rating": 8.2,
                  "store_id": "1281"
            }
      ],
      "context": {
            "geo_bounds": {
                  "circle": {
                        "center": {
                              "latitude": 45.50761009,
                              "longitude": -73.55183601
                        },
                        "radius": 1000
                  }
            }
      }
}