{
      "results": [
            {
                  "distance": 301,
                  "location": {
                        "address": "3180 Fleury Rue E",
                        "country": "CA",
                        "cross_street": "at boul Saint-Michel",
                        "formatted_address": "3180 Fleury Rue E (at boul Saint-Michel), Montr\u00e9al QC H1H 2R3",
                        "locality": "Montreal",
                        "postcode": "H1H 2R3",
                        "region": "QC"
                  },
                  "name": "Chez Ma Tante",
                  "popularity": 0.9907976911430735,
                  "price": 1,
                  "rating": 6.8
            },
            {
                  "distance": 931,
                  "location": {
                        "address": "10333 Pie-Ix Blvd",
                        "country": "CA",
                        "cross_street": "Fleury",
                        "formatted_address": "10333 Pie-Ix Blvd (Fleury), Montreal-Nord QC H1H 3Z7",
                        "locality": "Montr\u00e9al-Nord",
                        "postcode": "H1H 3Z7",
                        "region": "QC"
                  },
                  "name": "McDonald's",
                  "popularity": 0.9984859954579863,
                  "price": 1,
                  "rating": 6.3,
                  "store_id": "5464"
            },
            {
                  "distance": 965,
                  "location": {
                        "address": "10433 Pie-Ix Blvd",
                        "country": "CA",
                        "cross_street": "Denomm\u00e9e",
                        "formatted_address": "10433 Pie-Ix Blvd (Denomm\u00e9e), Montreal-Nord QC H1H 3Z9",
                        "locality": "Montr\u00e9al-Nord",
                        "postcode": "H1H 3Z9",
                        "region": "QC"
                  },
                  "name": "Tim Hortons",
                  "popularity": 0.9913417865253595,
                  "price": 1,
                  "rating": 6.2
            },
            {
                  "distance": 137,
                  "location": {
                        "address": "3322 Fleury Rue E",
                        "country": "CA",
                        "cross_street": "",
                        "formatted_address": "3322 Fleury Rue E, Montreal-Nord QC H1H 2R5",
                        "locality": "Montreal-Nord",
                        "postcode": "H1H 2R5",
                        "region": "QC"
                  },
                  "name": "Boulangerie P\u00e2tisserie Montebello Inc",
                  "popularity": 0.26783686601059803,
                  "price": 1
            },
            {
                  "distance": 639,
                  "location": {
                        "address": "2595 Fleury Rue E",
                        "country": "CA",
                        "cross_street": "Sackville",
                        "formatted_address": "2595 Fleury Rue E (Sackville), Montr\u00e9al QC H2B 1L7",
                        "locality": "Montreal",
                        "postcode": "H2B 1L7",
                        "region": "QC"
                  },
                  "name": "Domino's Pizza",
                  "popularity": 0.9432130015140046,
                  "price": 1,
                  "store_id": "10699"
            },
            {
                  "distance": 818,
                  "location": {
                        "address": "6491 Beaubien Rue E",
                        "country": "CA",
                        "cross_street": "",
                        "formatted_address": "6491 Beaubien Rue E, Montr\u00e9al QC H1M 1B1",
                        "locality": "Montreal",
                        "postcode": "H1M 1B1",
                        "region": "QC"
                  },
                  "name": "Le Nouveau Paragon",
                  "popularity": 0.3875023656320969,
                  "price": 2
            },
            {
                  "distance": 841,
                  "location": {
                        "address": "2481 Fleury Rue E",
                        "country": "CA",
                        "cross_street": "Iberville",
                        "formatted_address": "2481 Fleury Rue E (Iberville), Montr\u00e9al QC H2B 1L4",
                        "locality": "Montreal",
                        "postcode": "H2B 1L4",
                        "region": "QC"
                  },
                  "name": "Gourmet d'Asie",
                  "popularity": 0.8302067562452687,
                  "price": 2
            },
            {
                  "distance": 893,
                  "location": {
                        "address": "10490 Pie I X Blvd",
                        "country": "CA",
                        "cross_street": "Forest",
                        "formatted_address": "10490 Pie I X Blvd (Forest), Montreal-Nord QC H1H 4A1",
                        "locality": "Montr\u00e9al-Nord",
                        "postcode": "H1H 4A1",
                        "region": "QC"
                  },
                  "name": "Restaurant le Petit Quebec",
                  "popularity": 0.9423495457986374,
                  "price": 1
            },
            {
                  "distance": 966,
                  "location": {
                        "address": "10660 Pie-Ix Blvd",
                        "country": "CA",
                        "cross_street": "",
                        "formatted_address": "10660 Pie-Ix Blvd, Montreal-Nord QC H1H 4A6",
                        "locality": "Montr\u00e9al-Nord",
                        "postcode": "H1H 4A6",
                        "region": "QC"
                  },
                  "name": "Restaurant Chez Lien",
                  "popularity": 0.6618092354277063,
                  "price": 2
            },
            {
                  "distance": 27,
                  "location": {
                        "address": "3451 Fleury Rue E",
                        "country": "CA",
                        "formatted_address": "3451 Fleury Rue E, Montreal-Nord QC H1H 5R2",
                        "locality": "Montreal-Nord",
                        "postcode": "H1H 5R2",
                        "region": "QC"
                  },
                  "name": "Rolando Resto Bar Sportif"
            },
            {
                  "distance": 27,
                  "location": {
                        "address": "3451 Fleury Rue E",
                        "country": "CA",
                        "formatted_address": "3451 Fleury Rue E, Montreal-Nord QC H1H 5R2",
                        "locality": "Montreal-Nord",
                        "postcode": "H1H 5R2",
                        "region": "QC"
                  },
                  "name": "B Burger"
            },
            {
                  "distance": 276,
                  "location": {
                        "address": "3155 Fleury Rue E",
                        "country": "CA",
                        "formatted_address": "3155 Fleury Rue E, Montreal-Nord QC H1H 2R2",
                        "locality": "Montreal-Nord",
                        "postcode": "H1H 2R2",
                        "region": "QC"
                  },
                  "name": "L'oudaya Cafe Restaurant"
            },
            {
                  "distance": 276,
                  "location": {
                        "address": "3163 Fleury Rue E",
                        "country": "CA",
                        "formatted_address": "3163 Fleury Rue E, Montreal-Nord QC H1H 2R2",
                        "locality": "Montreal-Nord",
                        "postcode": "H1H 2R2",
                        "region": "QC"
                  },
                  "name": "Brasserie Chomar Lt\u00e9e"
            },
            {
                  "distance": 283,
                  "location": {
                        "address": "10380 Saint-Michel Blvd",
                        "country": "CA",
                        "formatted_address": "10380 Saint-Michel Blvd, Montreal-Nord QC H1H 5H3",
                        "locality": "Montreal-Nord",
                        "postcode": "H1H 5H3",
                        "region": "QC"
                  },
                  "name": "Restorant Costa Berde Inc"
            },
            {
                  "distance": 296,
                  "location": {
                        "address": "3656 Fleury Rue E",
                        "country": "CA",
                        "formatted_address": "3656 Fleury Rue E, Montreal-Nord QC H1H 2S6",
                        "locality": "Montreal-Nord",
                        "postcode": "H1H 2S6",
                        "region": "QC"
                  },
                  "name": "Cicek P\u00e2tisserie"
            },
            {
                  "distance": 357,
                  "location": {
                        "address": "2905 Fleury Rue E",
                        "country": "CA",
                        "formatted_address": "2905 Fleury Rue E, Montreal QC H2B 1M3",
                        "locality": "Montreal",
                        "postcode": "H2B 1M3",
                        "region": "QC"
                  },
                  "name": "Maison du Cafe Terrasse Royal"
            },
            {
                  "distance": 374,
                  "location": {
                        "address": "3705 Fleury Rue E",
                        "country": "CA",
                        "formatted_address": "3705 Fleury Rue E, Montreal-Nord QC H1H 2S8",
                        "locality": "Montreal-Nord",
                        "postcode": "H1H 2S8",
                        "region": "QC"
                  },
                  "name": "Phat Grill Resto-Bar"
            },
            {
                  "distance": 374,
                  "location": {
                        "address": "3705 Fleury Rue E",
                        "country": "CA",
                        "formatted_address": "3705 Fleury Rue E, Montreal-Nord QC H1H 2S8",
                        "locality": "Montreal-Nord",
                        "postcode": "H1H 2S8",
                        "region": "QC"
                  },
                  "name": "Vida Sushi"
            },
            {
                  "distance": 384,
                  "location": {
                        "address": "2895 Fleury Rue E",
                        "country": "CA",
                        "formatted_address": "2895 Fleury Rue E, Montreal QC H2B 1M1",
                        "locality": "Montreal",
                        "postcode": "H2B 1M1",
                        "region": "QC"
                  },
                  "name": "Trattoria Ii Ritrovo"
            },
            {
                  "distance": 384,
                  "location": {
                        "address": "2895 Fleury Rue E",
                        "country": "CA",
                        "formatted_address": "2895 Fleury Rue E, Montreal QC H2B 1M1",
                        "locality": "Montreal",
                        "postcode": "H2B 1M1",
                        "region": "QC"
                  },
                  "name": "Romcaffe Trattoria Gt"
            },
            {
                  "distance": 715,
                  "location": {
                        "address": "10025 Ave de London",
                        "country": "CA",
                        "formatted_address": "10025 Ave de London, Montreal-Nord QC H1H 4H2",
                        "locality": "Montreal-Nord",
                        "postcode": "H1H 4H2",
                        "region": "QC"
                  },
                  "name": "Cafe Espresso Lino"
            },
            {
                  "distance": 792,
                  "location": {
                        "address": "10914 Saint Vital Blvd",
                        "country": "CA",
                        "formatted_address": "10914 Saint Vital Blvd, Montreal-Nord QC H1H 4T4",
                        "locality": "Montreal-Nord",
                        "postcode": "H1H 4T4",
                        "region": "QC"
                  },
                  "name": "Patisserie Lien Phat"
            },
            {
                  "distance": 799,
                  "location": {
                        "address": "9482 Saint-Michel Blvd",
                        "country": "CA",
                        "formatted_address": "9482 Saint-Michel Blvd, Montreal QC",
                        "locality": "Montreal",
                        "region": "QC"
                  },
                  "name": "GrillnGo"
            },
            {
                  "distance": 823,
                  "location": {
                        "address": "3251 Henri-Bourassa Blvd E",
                        "country": "CA",
                        "formatted_address": "3251 Henri-Bourassa Blvd E, Montreal-Nord QC H1H 1H3",
                        "locality": "Montreal-Nord",
                        "postcode": "H1H 1H3",
                        "region": "QC"
                  },
                  "name": "Nouveau Paragon II"
            },
            {
                  "distance": 829,
                  "location": {
                        "address": "2827 Henri-Bourassa Blvd E",
                        "country": "CA",
                        "formatted_address": "2827 Henri-Bourassa Blvd E, Montreal QC H2B 1V9",
                        "locality": "Montreal",
                        "postcode": "H2B 1V9",
                        "region": "QC"
                  },
                  "name": "Cafe Versace"
            },
            {
                  "distance": 840,
                  "location": {
                        "address": "2476 Fleury Rue E",
                        "country": "CA",
                        "formatted_address": "2476 Fleury Rue E, Montreal QC H2B 1L3",
                        "locality": "Montreal",
                        "postcode": "H2B 1L3",
                        "region": "QC"
                  },
                  "name": "Pizza Resto Charito"
            },
            {
                  "distance": 907,
                  "location": {
                        "address": "10550 Pie Ix Blvd",
                        "country": "CA",
                        "formatted_address": "10550 Pie Ix Blvd, Montreal QC H1H 2M8",
                        "locality": "Montreal",
                        "postcode": "H1H 2M8",
                        "region": "QC"
                  },
                  "name": "Benny&Co"
            },
            {
                  "distance": 918,
                  "location": {
                        "address": "10669 Pie-Ix Blvd",
                        "country": "CA",
                        "formatted_address": "10669 Pie-Ix Blvd, Montreal-Nord QC H1H 4A3",
                        "locality": "Montreal-Nord",
                        "postcode": "H1H 4A3",
                        "region": "QC"
                  },
                  "name": "Bar Pot de Chance"
            },
            {
                  "distance": 959,
                  "location": {
                        "address": "10567 Pie Ix Blvd",
                        "country": "CA",
                        "formatted_address": "10567 Pie Ix Blvd, Montreal-Nord QC H1H 4A3",
                        "locality": "Montreal-Nord",
                        "postcode": "H1H 4A3",
                        "region": "QC"
                  },
                  "name": "Deli-Forest Restaurant"
            },
            {
                  "distance": 990,
                  "location": {
                        "address": "2545 Henri-Bourassa Blvd E",
                        "country": "CA",
                        "formatted_address": "2545 Henri-Bourassa Blvd E, Montreal QC H2B 1V3",
                        "locality": "Montreal",
                        "postcode": "H2B 1V3",
                        "region": "QC"
                  },
                  "name": "Saveur Madou"
            }
      ],
      "context": {
            "geo_bounds": {
                  "circle": {
                        "center": {
                              "latitude": 45.58116,
                              "longitude": -73.6412434
                        },
                        "radius": 1000
                  }
            }
      }
}