{
      "results": [
            {
                  "distance": 789,
                  "location": {
                        "address": "1201 Van Horne Ave",
                        "country": "CA",
                        "cross_street": "",
                        "formatted_address": "1201 Van Horne Ave, Montr\u00e9al QC H2V 1K4",
                        "locality": "Montreal",
                        "postcode": "H2V 1K4",
                        "region": "QC"
                  },
                  "name": "Damas",
                  "popularity": 0.9677446063588191,
                  "price": 4,
                  "rating": 9.4
            },
            {
                  "distance": 555,
                  "location": {
                        "address": "1311 Bernard Ave",
                        "country": "CA",
                        "cross_street": "coin Outremont",
                        "formatted_address": "1311 Bernard Ave (coin Outremont), Montr\u00e9al QC H2V 1W1",
                        "locality": "Montreal",
                        "postcode": "H2V 1W1",
                        "region": "QC"
                  },
                  "name": "Le Glacier Bilboquet",
                  "popularity": 0.9378075321725965,
                  "price": 2,
                  "rating": 9.0
            },
            {
                  "distance": 700,
                  "location": {
                        "address": "1248 Bernard Ave",
                        "country": "CA",
                        "cross_street": "",
                        "formatted_address": "1248 Bernard Ave, Montr\u00e9al QC H2V 1V6",
                        "locality": "Montreal",
                        "postcode": "H2V 1V6",
                        "region": "QC"
                  },
                  "name": "Pizzeria No. 900",
                  "popularity": 0.8551641748675246,
                  "price": 1,
                  "rating": 8.5
            },
            {
                  "distance": 957,
                  "location": {
                        "address": "1057 Bernard Ave",
                        "country": "CA",
                        "cross_street": "entre Durocher & Querbes",
                        "formatted_address": "1057 Bernard Ave (entre Durocher & Querbes), Outremont QC H2V 1V1",
                        "locality": "Outremont",
                        "postcode": "H2V 1V1",
                        "region": "QC"
                  },
                  "name": "Lester's Aaa Delicatessen",
                  "popularity": 0.9608606169568509,
                  "price": 2,
                  "rating": 8.3
            },
            {
                  "distance": 642,
                  "location": {
                        "address": "11265 Bernard Ave",
                        "country": "CA",
                        "cross_street": "btwn Ave. Champagneur & Ave. Outremont",
                        "formatted_address": "11265 Bernard Ave (btwn Ave. Champagneur & Ave. Outremont), Montr\u00e9al QC H2V 1V8",
                        "locality": "Montreal",
                        "postcode": "H2V 1V8",
                        "region": "QC"
                  },
                  "name": "Restaurant le Petit Italien",
                  "popularity": 0.9217094057532172,
                  "price": 3,
                  "rating": 8.1
            },
            {
                  "distance": 428,
                  "location": {
                        "address": "1464 Van Horne Ave",
                        "country": "CA",
                        "cross_street": "entre Stuart & Dollard",
                        "formatted_address": "1464 Van Horne Ave (entre Stuart & Dollard), Outremont QC H2V 1L2",
                        "locality": "Outremont",
                        "postcode": "H2V 1L2",
                        "region": "QC"
                  },
                  "name": "Paltoquet",
                  "popularity": 0.9282503785011355,
                  "price": 1,
                  "rating": 8.0
            },
            {
                  "distance": 680,
                  "location": {
                        "address": "1249 Bernard Ave",
                        "country": "CA",
                        "cross_street": "Champagneur",
                        "formatted_address": "1249 Bernard Ave (Champagneur), Montr\u00e9al QC H2V 1V7",
                        "locality": "Montreal",
                        "postcode": "H2V 1V7",
                        "region": "QC"
                  },
                  "name": "Brasserie Bernard",
                  "popularity": 0.8758989401968206,
                  "price": 3,
                  "rating": 7.7
            },
            {
                  "distance": 949,
                  "location": {
                        "address": "1248 Beaumont Ave",
                        "country": "CA",
                        "formatted_address": "1248 Beaumont Ave, Montr\u00e9al QC H3P 3E5",
                        "locality": "Montreal",
                        "postcode": "H3P 3E5",
                        "region": "QC"
                  },
                  "name": "Sushi Plus",
                  "popularity": 0.956247634367903,
                  "price": 2,
                  "rating": 7.7
            },
            {
                  "distance": 294,
                  "location": {
                        "address": "1333 Van Horne Ave",
                        "country": "CA",
                        "cross_street": "",
                        "formatted_address": "1333 Van Horne Ave, Montr\u00e9al QC H2V 1K7",
                        "locality": "Montreal",
                        "postcode": "H2V 1K7",
                        "region": "QC"
                  },
                  "name": "Lescurier Tradition Gourmande",
                  "popularity": 0.8525974640423921,
                  "price": 1,
                  "rating": 7.6
            },
            {
                  "distance": 631,
                  "location": {
                        "address": "1271 Bernard Ave",
                        "country": "CA",
                        "cross_street": "coin Champagneur",
                        "formatted_address": "1271 Bernard Ave (coin Champagneur), Outremont QC H2V 1V8",
                        "locality": "Outremont",
                        "postcode": "H2V 1V8",
                        "region": "QC"
                  },
                  "name": "Boulangerie Premiere Moisson",
                  "popularity": 0.8833861657834974,
                  "price": 1,
                  "rating": 7.4
            },
            {
                  "distance": 738,
                  "location": {
                        "address": "1224 Bernard Ave",
                        "country": "CA",
                        "formatted_address": "1224 Bernard Ave, Outremont QC H2V 1V6",
                        "locality": "Outremont",
                        "postcode": "H2V 1V6",
                        "region": "QC"
                  },
                  "name": "Un Amour des Th\u00e9s",
                  "popularity": 0.4476367335352006,
                  "price": 2,
                  "rating": 7.4
            },
            {
                  "distance": 979,
                  "location": {
                        "address": "5660 Cote-Des-Neiges",
                        "country": "CA",
                        "cross_street": "Cote st catherine",
                        "formatted_address": "5660 Cote-Des-Neiges (Cote st catherine), Montr\u00e9al QC H3T 2A8",
                        "locality": "Montreal",
                        "postcode": "H3T 2A8",
                        "region": "QC"
                  },
                  "name": "Thai Express",
                  "popularity": 0.308987036336109,
                  "price": 2,
                  "rating": 6.3
            },
            {
                  "distance": 431,
                  "location": {
                        "address": "1452 Van Horne Ave",
                        "country": "CA",
                        "cross_street": "coin av. Stuart",
                        "formatted_address": "1452 Van Horne Ave (coin av. Stuart), Outremont QC H2V 1L2",
                        "locality": "Outremont",
                        "postcode": "H2V 1L2",
                        "region": "QC"
                  },
                  "name": "Subway",
                  "popularity": 0.32512064723694173,
                  "price": 1,
                  "rating": 6.2,
                  "store_id": "41805"
            },
            {
                  "distance": 619,
                  "location": {
                        "address": "1275 Bernard Ave",
                        "country": "CA",
                        "cross_street": "",
                        "formatted_address": "1275 Bernard Ave, Outremont QC H2V 1V8",
                        "locality": "Outremont",
                        "postcode": "H2V 1V8",
                        "region": "QC"
                  },
                  "name": "Second Cup Coffee Co",
                  "popularity": 0.8932863361090083,
                  "price": 1,
                  "rating": 5.8,
                  "store_id": "3211"
            },
            {
                  "distance": 385,
                  "location": {
                        "address": "1505 Van Horne Ave",
                        "country": "CA",
                        "cross_street": "Dollard",
                        "formatted_address": "1505 Van Horne Ave (Dollard), Outremont QC H2V 1L4",
                        "locality": "Outremont",
                        "postcode": "H2V 1L4",
                        "region": "QC"
                  },
                  "name": "Van Horne Pizzeria",
                  "popularity": 0.8809850492051476,
                  "price": 1,
                  "rating": 5.0
            },
            {
                  "distance": 969,
                  "location": {
                        "address": "1300 Beaumont Ave",
                        "country": "CA",
                        "formatted_address": "1300 Beaumont Ave, Montr\u00e9al QC H3P 3E5",
                        "locality": "Montreal",
                        "postcode": "H3P 3E5",
                        "region": "QC"
                  },
                  "name": "McDonald's",
                  "popularity": 0.9923708364875095,
                  "price": 1,
                  "rating": 4.8,
                  "store_id": "5095"
            },
            {
                  "distance": 342,
                  "location": {
                        "address": "1541 Van Horne",
                        "country": "CA",
                        "cross_street": "",
                        "formatted_address": "1541 Van Horne, Montreal QC H3S 2T5",
                        "locality": "Montreal",
                        "postcode": "H3S 2T5",
                        "region": "QC"
                  },
                  "name": "Pendeli's",
                  "popularity": 0.6617500946252839,
                  "price": 1
            },
            {
                  "distance": 352,
                  "location": {
                        "address": "1541 Van Horne Ave",
                        "country": "CA",
                        "cross_street": "Av McEachran",
                        "formatted_address": "1541 Van Horne Ave (Av McEachran), Montr\u00e9al QC H2V 1L4",
                        "locality": "Montreal",
                        "postcode": "H2V 1L4",
                        "region": "QC"
                  },
                  "name": "Roch le Coq",
                  "popularity": 0.9616531037093111,
                  "price": 1
            },
            {
                  "distance": 430,
                  "location": {
                        "address": "1461 Van Horne Ave",
                        "country": "CA",
                        "cross_street": "",
                        "formatted_address": "1461 Van Horne Ave, Montr\u00e9al QC H2V 1L3",
                        "locality": "Montreal",
                        "postcode": "H2V 1L3",
                        "region": "QC"
                  },
                  "name": "Caf\u00e9 DAX",
                  "popularity": 0.9622090272520818,
                  "price": 1
            },
            {
                  "distance": 455,
                  "location": {
                        "address": "1453 Van Horne Ave",
                        "country": "CA",
                        "formatted_address": "1453 Van Horne Ave, Montr\u00e9al QC H2V 1L3",
                        "locality": "Montreal",
                        "postcode": "H2V 1L3",
                        "region": "QC"
                  },
                  "name": "Double Pizza",
                  "popularity": 0.876916161998486,
                  "price": 1
            },
            {
                  "distance": 491,
                  "location": {
                        "address": "9 Vincent d'Indy Ave",
                        "country": "CA",
                        "cross_street": "",
                        "formatted_address": "9 Vincent d'Indy Ave, Montr\u00e9al QC H2V 4N7",
                        "locality": "Montreal",
                        "postcode": "H2V 4N7",
                        "region": "QC"
                  },
                  "name": "Pizza Tifosi Outremont",
                  "popularity": 0.8951788417865254,
                  "price": 1
            },
            {
                  "distance": 546,
                  "location": {
                        "address": "1368 Van Horne Ave",
                        "country": "CA",
                        "cross_street": "Wiseman",
                        "formatted_address": "1368 Van Horne Ave (Wiseman), Montr\u00e9al QC H2V 1K8",
                        "locality": "Montreal",
                        "postcode": "H2V 1K8",
                        "region": "QC"
                  },
                  "name": "Sushi Yen",
                  "popularity": 0.5249692467827404,
                  "price": 2
            },
            {
                  "distance": 568,
                  "location": {
                        "address": "1346 Van Horne Ave",
                        "country": "CA",
                        "cross_street": "",
                        "formatted_address": "1346 Van Horne Ave, Outremont QC H2V 1K8",
                        "locality": "Outremont",
                        "postcode": "H2V 1K8",
                        "region": "QC"
                  },
                  "name": "P23 Dumplings",
                  "popularity": 0.807709595003785,
                  "price": 1
            },
            {
                  "distance": 587,
                  "location": {
                        "address": "1344 Van Horne Ave",
                        "country": "CA",
                        "cross_street": "Wiseman",
                        "formatted_address": "1344 Van Horne Ave (Wiseman), Montr\u00e9al QC H2V 1K8",
                        "locality": "Montreal",
                        "postcode": "H2V 1K8",
                        "region": "QC"
                  },
                  "name": "Marmite africaine",
                  "popularity": 0.04625993565480697,
                  "price": 2
            },
            {
                  "distance": 596,
                  "location": {
                        "address": "1317 Van Horne Ave",
                        "country": "CA",
                        "cross_street": "",
                        "formatted_address": "1317 Van Horne Ave, Montr\u00e9al QC H2V 1K7",
                        "locality": "Montreal",
                        "postcode": "H2V 1K7",
                        "region": "QC"
                  },
                  "name": "Caf\u00e9 Dante",
                  "popularity": 0.9554314912944739,
                  "price": 1
            },
            {
                  "distance": 676,
                  "location": {
                        "address": "2049 Edouard Montpetit",
                        "country": "CA",
                        "cross_street": "Vincent D'indy",
                        "formatted_address": "2049 Edouard Montpetit (Vincent D'indy), Montr\u00e9al QC",
                        "locality": "Montreal",
                        "region": "QC"
                  },
                  "name": "Les Navafr\u00e9es",
                  "popularity": 0.9031391937925813,
                  "price": 3
            },
            {
                  "distance": 697,
                  "location": {
                        "address": "1233 Lajoie Ave",
                        "country": "CA",
                        "cross_street": "",
                        "formatted_address": "1233 Lajoie Ave, Outremont QC H2V 1P2",
                        "locality": "Outremont",
                        "postcode": "H2V 1P2",
                        "region": "QC"
                  },
                  "name": "Tinc Set Montr\u00e9al",
                  "popularity": 0.9496948334595003,
                  "price": 2
            },
            {
                  "distance": 810,
                  "location": {
                        "address": "1199 Van Horne Ave",
                        "country": "CA",
                        "cross_street": "Bloomfield",
                        "formatted_address": "1199 Van Horne Ave (Bloomfield), Outremont QC H2V 1K1",
                        "locality": "Outremont",
                        "postcode": "H2V 1K1",
                        "region": "QC"
                  },
                  "name": "Restaurant Bloomfield",
                  "popularity": 0.9025359576078729
            },
            {
                  "distance": 812,
                  "location": {
                        "address": "1187 Van Horne Ave",
                        "country": "CA",
                        "cross_street": "Bloomfield",
                        "formatted_address": "1187 Van Horne Ave (Bloomfield), Outremont QC H2V 1K1",
                        "locality": "Outremont",
                        "postcode": "H2V 1K1",
                        "region": "QC"
                  },
                  "name": "Restaurant Christophe",
                  "popularity": 0.37397095003785014,
                  "price": 3
            },
            {
                  "distance": 882,
                  "location": {
                        "address": "1142 Van Horne Ave",
                        "country": "CA",
                        "cross_street": "",
                        "formatted_address": "1142 Van Horne Ave, Montr\u00e9al QC H2V 1J8",
                        "locality": "Montreal",
                        "postcode": "H2V 1J8",
                        "region": "QC"
                  },
                  "name": "Boucherie Bar \u00e0 vin Provisions",
                  "popularity": 0.9643026116578349
            },
            {
                  "distance": 229,
                  "location": {
                        "address": "779 Rockland Ave",
                        "country": "CA",
                        "formatted_address": "779 Rockland Ave, Outremont QC H2V 2Z7",
                        "locality": "Outremont",
                        "postcode": "H2V 2Z7",
                        "region": "QC"
                  },
                  "name": "Les Vraies Affaires"
            },
            {
                  "distance": 329,
                  "location": {
                        "address": "1589 Van Horne Ave",
                        "country": "CA",
                        "formatted_address": "1589 Van Horne Ave, Outremont QC H2V 1L6",
                        "locality": "Outremont",
                        "postcode": "H2V 1L6",
                        "region": "QC"
                  },
                  "name": "BIOBAB Mini March\u00e9"
            },
            {
                  "distance": 555,
                  "location": {
                        "address": "1368 Van Horne Ave",
                        "country": "CA",
                        "formatted_address": "1368 Van Horne Ave, Outremont QC H2V 1K8",
                        "locality": "Outremont",
                        "postcode": "H2V 1K8",
                        "region": "QC"
                  },
                  "name": "Sushi Time"
            },
            {
                  "distance": 626,
                  "location": {
                        "address": "1265 Bernard Ave",
                        "country": "CA",
                        "formatted_address": "1265 Bernard Ave, Outremont QC H2V 1V8",
                        "locality": "Outremont",
                        "postcode": "H2V 1V8",
                        "region": "QC"
                  },
                  "name": "Restaurant le Petit Italien"
            },
            {
                  "distance": 646,
                  "location": {
                        "address": "126 Bernard Rue O",
                        "country": "CA",
                        "formatted_address": "126 Bernard Rue O, Outremont QC H2V 1V8",
                        "locality": "Outremont",
                        "postcode": "H2V 1V8",
                        "region": "QC"
                  },
                  "name": "Cafe Souvenir"
            }
      ],
      "context": {
            "geo_bounds": {
                  "circle": {
                        "center": {
                              "latitude": 45.515617,
                              "longitude": -73.614991
                        },
                        "radius": 1000
                  }
            }
      }
}