{
      "results": [
            {
                  "distance": 910,
                  "location": {
                        "address": "1700 Ontario Rue E",
                        "country": "CA",
                        "cross_street": "coin Papineau",
                        "formatted_address": "1700 Ontario Rue E (coin Papineau), Montr\u00e9al QC H2L 1S7",
                        "locality": "Montreal",
                        "postcode": "H2L 1S7",
                        "region": "QC"
                  },
                  "name": "La Fabrique Arhoma",
                  "popularity": 0.953420704012112,
                  "price": 1,
                  "rating": 8.9
            },
            {
                  "distance": 969,
                  "location": {
                        "address": "1603 Ontario Rue E",
                        "country": "CA",
                        "cross_street": "",
                        "formatted_address": "1603 Ontario Rue E, Montr\u00e9al QC H2L 1S6",
                        "locality": "Montreal",
                        "postcode": "H2L 1S6",
                        "region": "QC"
                  },
                  "name": "Grenade - Resto-bar et terrasse",
                  "popularity": 0.9200534632853898,
                  "price": 2,
                  "rating": 8.0,
                  "store_id": "375355"
            },
            {
                  "distance": 915,
                  "location": {
                        "address": "1690 Ontario Rue E",
                        "country": "CA",
                        "cross_street": "entre De Champlain & Papineau",
                        "formatted_address": "1690 Ontario Rue E (entre De Champlain & Papineau), Montr\u00e9al QC H2L 1S7",
                        "locality": "Montreal",
                        "postcode": "H2L 1S7",
                        "region": "QC"
                  },
                  "name": "Au Petit Extra",
                  "popularity": 0.9349924299772899,
                  "price": 4,
                  "rating": 7.9
            },
            {
                  "distance": 997,
                  "location": {
                        "address": "1326 Sainte-Catherine Rue E",
                        "country": "CA",
                        "cross_street": "Entre les rues Panet et de la Visitation",
                        "formatted_address": "1326 Sainte-Catherine Rue E (Entre les rues Panet et de la Visitation), Montr\u00e9al QC H2L 2H5",
                        "locality": "Montreal",
                        "postcode": "H2L 2H5",
                        "region": "QC"
                  },
                  "name": "Restaurant Mozza P\u00e2tes et Passions Inc",
                  "popularity": 0.815717259651779,
                  "price": 3,
                  "rating": 7.7
            },
            {
                  "distance": 599,
                  "location": {
                        "address": "1812 Sainte-Catherine Rue E",
                        "country": "CA",
                        "cross_street": "Av Papineau",
                        "formatted_address": "1812 Sainte-Catherine Rue E (Av Papineau), Montr\u00e9al QC H2K 2H3",
                        "locality": "Montreal",
                        "postcode": "H2K 2H3",
                        "region": "QC"
                  },
                  "name": "Bar le Stud",
                  "popularity": 0.9814534443603331,
                  "price": 2,
                  "rating": 7.5
            },
            {
                  "distance": 667,
                  "location": {
                        "address": "2308 Ontario Rue E",
                        "country": "CA",
                        "cross_street": "",
                        "formatted_address": "2308 Ontario Rue E, Montr\u00e9al QC H2K 1W1",
                        "locality": "Montreal",
                        "postcode": "H2K 1W1",
                        "region": "QC"
                  },
                  "name": "Cr\u00e8merie Confiserie le Gourmandin",
                  "popularity": 0.8898679977289932,
                  "price": 1,
                  "rating": 7.4
            },
            {
                  "distance": 961,
                  "location": {
                        "address": "1333 Sainte-Catherine Rue E",
                        "country": "CA",
                        "cross_street": "coin Panet",
                        "formatted_address": "1333 Sainte-Catherine Rue E (coin Panet), Montr\u00e9al QC H2L 2H4",
                        "locality": "Montreal",
                        "postcode": "H2L 2H4",
                        "region": "QC"
                  },
                  "name": "Le Saloon Bistro Bar Inc",
                  "popularity": 0.9465721990915973,
                  "price": 2,
                  "rating": 7.3
            },
            {
                  "distance": 953,
                  "location": {
                        "address": "1652 Ontario Rue E",
                        "country": "CA",
                        "cross_street": "",
                        "formatted_address": "1652 Ontario Rue E, Montr\u00e9al QC H2L 1S7",
                        "locality": "Montreal",
                        "postcode": "H2L 1S7",
                        "region": "QC"
                  },
                  "name": "Dame Tartine D\u00e9jeuner et D\u00eener",
                  "popularity": 0.9304031037093111,
                  "price": 1,
                  "rating": 7.3
            },
            {
                  "distance": 847,
                  "location": {
                        "address": "1851 Ontario Rue E",
                        "country": "CA",
                        "cross_street": "Rue Cartier",
                        "formatted_address": "1851 Ontario Rue E (Rue Cartier), Montr\u00e9al QC H2K 1T6",
                        "locality": "Montreal",
                        "postcode": "H2K 1T6",
                        "region": "QC"
                  },
                  "name": "A Quinta",
                  "popularity": 0.9652488644965935,
                  "price": 2,
                  "rating": 7.0
            },
            {
                  "distance": 822,
                  "location": {
                        "address": "1474 Rue Sainte-Catherine E",
                        "country": "CA",
                        "cross_street": "",
                        "formatted_address": "1474 Rue Sainte-Catherine E"
                  },
                  "name": "Sky Pub Terrasse",
                  "popularity": 0.8309519303557911,
                  "price": 2,
                  "rating": 7.0
            },
            {
                  "distance": 702,
                  "location": {
                        "address": "2120 Ontario Rue E",
                        "country": "CA",
                        "cross_street": "De Lormier",
                        "formatted_address": "2120 Ontario Rue E (De Lormier), Montr\u00e9al QC H2K 1V5",
                        "locality": "Montreal",
                        "postcode": "H2K 1V5",
                        "region": "QC"
                  },
                  "name": "Lafleur Restaurants",
                  "popularity": 0.9637348599545799,
                  "price": 1,
                  "rating": 6.9
            },
            {
                  "distance": 815,
                  "location": {
                        "address": "1474 Ste",
                        "country": "CA",
                        "cross_street": "at Alexandre-de-S\u00e8ve",
                        "formatted_address": "1474 Ste (at Alexandre-de-S\u00e8ve), Montr\u00e9al QC H2L 2J1",
                        "locality": "Montreal",
                        "postcode": "H2L 2J1",
                        "region": "QC"
                  },
                  "name": "Complexe Sky",
                  "popularity": 0.9533260787282362,
                  "price": 2,
                  "rating": 6.8
            },
            {
                  "distance": 511,
                  "location": {
                        "address": "1870 Sainte-Catherine Rue E",
                        "country": "CA",
                        "cross_street": "coin Cartier",
                        "formatted_address": "1870 Sainte-Catherine Rue E (coin Cartier), Montr\u00e9al QC H2K 2H5",
                        "locality": "Montreal",
                        "postcode": "H2K 2H5",
                        "region": "QC"
                  },
                  "name": "Lafayette Hot Dog",
                  "popularity": 0.9246191332323997,
                  "price": 1,
                  "rating": 6.8
            },
            {
                  "distance": 921,
                  "location": {
                        "address": "1365 Sainte Catherine Rue E",
                        "country": "CA",
                        "cross_street": "",
                        "formatted_address": "1365 Sainte Catherine Rue E, Montr\u00e9al QC H2L 2H7",
                        "locality": "Montreal",
                        "postcode": "H2L 2H7",
                        "region": "QC"
                  },
                  "name": "District Video Lounge",
                  "popularity": 0.9562712906888721,
                  "price": 3,
                  "rating": 6.7
            },
            {
                  "distance": 727,
                  "location": {
                        "address": "2544 Ontario Rue E",
                        "country": "CA",
                        "cross_street": "coin Frontenac",
                        "formatted_address": "2544 Ontario Rue E (coin Frontenac), Montr\u00e9al QC H2K 1W4",
                        "locality": "Montreal",
                        "postcode": "H2K 1W4",
                        "region": "QC"
                  },
                  "name": "Subway",
                  "popularity": 0.8541824375473126,
                  "price": 1,
                  "rating": 6.4,
                  "store_id": "38095"
            },
            {
                  "distance": 940,
                  "location": {
                        "address": "1356 Sainte-Catherine Rue E",
                        "country": "CA",
                        "cross_street": "Dalcourt",
                        "formatted_address": "1356 Sainte-Catherine Rue E (Dalcourt), Montr\u00e9al QC H2L 2H6",
                        "locality": "Montreal",
                        "postcode": "H2L 2H6",
                        "region": "QC"
                  },
                  "name": "Sushi Shop",
                  "popularity": 0.7877673164269493,
                  "price": 2,
                  "rating": 6.3
            },
            {
                  "distance": 863,
                  "location": {
                        "address": "1453 Sainte-Catherine Rue E",
                        "country": "CA",
                        "cross_street": "",
                        "formatted_address": "1453 Sainte-Catherine Rue E, Montr\u00e9al QC H2L 2H9",
                        "locality": "Montreal",
                        "postcode": "H2L 2H9",
                        "region": "QC"
                  },
                  "name": "Toro Rosso",
                  "popularity": 0.9418645912187736,
                  "price": 4,
                  "rating": 6.3
            },
            {
                  "distance": 394,
                  "location": {
                        "address": "2033 Blvd de Maisonneuve Est Petro Canada",
                        "country": "CA",
                        "cross_street": "",
                        "formatted_address": "2033 Blvd de Maisonneuve Est Petro Canada, Montr\u00e9al QC H2K 4M2",
                        "locality": "Montreal",
                        "postcode": "H2K 4M2",
                        "region": "QC"
                  },
                  "name": "A&W Restaurant",
                  "popularity": 0.9394989591218774,
                  "price": 1,
                  "rating": 6.2,
                  "store_id": "5516"
            },
            {
                  "distance": 334,
                  "location": {
                        "address": "2155 Blvd de Maisonneuve Est",
                        "country": "CA",
                        "cross_street": "coin Delorimier",
                        "formatted_address": "2155 Blvd de Maisonneuve Est (coin Delorimier), Montr\u00e9al QC H2K 4S3",
                        "locality": "Montreal",
                        "postcode": "H2K 4S3",
                        "region": "QC"
                  },
                  "name": "Tim Hortons",
                  "popularity": 0.992631056018168,
                  "price": 1,
                  "rating": 6.1
            },
            {
                  "distance": 556,
                  "location": {
                        "address": "1830 Sainte-Catherine Rue E",
                        "country": "CA",
                        "cross_street": "Cartier",
                        "formatted_address": "1830 Sainte-Catherine Rue E (Cartier), Montr\u00e9al QC H2K 2H3",
                        "locality": "Montreal",
                        "postcode": "H2K 2H3",
                        "region": "QC"
                  },
                  "name": "Restaurant Pho an Nam",
                  "popularity": 0.9299299772899319,
                  "price": 2,
                  "rating": 6.0
            },
            {
                  "distance": 468,
                  "location": {
                        "address": "1950 Blvd de Maisonneuve Est",
                        "country": "CA",
                        "cross_street": "",
                        "formatted_address": "1950 Blvd de Maisonneuve Est, Montr\u00e9al QC H2K 2C8",
                        "locality": "Montreal",
                        "postcode": "H2K 2C8",
                        "region": "QC"
                  },
                  "name": "Bar Taboo",
                  "popularity": 0.9578326078728236,
                  "price": 2,
                  "rating": 5.8
            },
            {
                  "distance": 857,
                  "location": {
                        "address": "2700 Ontario Rue E",
                        "country": "CA",
                        "cross_street": "Bercy",
                        "formatted_address": "2700 Ontario Rue E (Bercy), Montr\u00e9al QC H2K 1W9",
                        "locality": "Montreal",
                        "postcode": "H2K 1W9",
                        "region": "QC"
                  },
                  "name": "Tim Hortons",
                  "popularity": 0.967791919000757,
                  "price": 1,
                  "rating": 5.6
            },
            {
                  "distance": 946,
                  "location": {
                        "address": "1351 Sainte-Catherine Rue E",
                        "country": "CA",
                        "cross_street": "coin Panet",
                        "formatted_address": "1351 Sainte-Catherine Rue E (coin Panet), Montr\u00e9al QC H2L 2H7",
                        "locality": "Montreal",
                        "postcode": "H2L 2H7",
                        "region": "QC"
                  },
                  "name": "Second Cup",
                  "popularity": 0.8620126797880394,
                  "price": 1,
                  "rating": 5.5
            },
            {
                  "distance": 945,
                  "location": {
                        "address": "2010 Papineau Ave",
                        "country": "CA",
                        "cross_street": "coin Ontario",
                        "formatted_address": "2010 Papineau Ave (coin Ontario), Montr\u00e9al QC H2K 4J4",
                        "locality": "Montreal",
                        "postcode": "H2K 4J4",
                        "region": "QC"
                  },
                  "name": "McDonald's",
                  "popularity": 0.9692586109008327,
                  "price": 1,
                  "rating": 4.9,
                  "store_id": "23293"
            },
            {
                  "distance": 732,
                  "location": {
                        "address": "2600 Ontario Rue E",
                        "country": "CA",
                        "cross_street": "coin Du Havre",
                        "formatted_address": "2600 Ontario Rue E (coin Du Havre), Montr\u00e9al QC H2K 4K4",
                        "locality": "Montreal",
                        "postcode": "H2K 4K4",
                        "region": "QC"
                  },
                  "name": "McDonald's",
                  "popularity": 0.9883729182437547,
                  "price": 1,
                  "rating": 4.6,
                  "store_id": "10089"
            },
            {
                  "distance": 144,
                  "location": {
                        "address": "2199 Sainte-Catherine Rue E",
                        "country": "CA",
                        "cross_street": "Parthenais",
                        "formatted_address": "2199 Sainte-Catherine Rue E (Parthenais), Montr\u00e9al QC H2K 2H9",
                        "locality": "Montreal",
                        "postcode": "H2K 2H9",
                        "region": "QC"
                  },
                  "name": "Canard caf\u00e9",
                  "popularity": 0.9539766275548827,
                  "price": 1
            },
            {
                  "distance": 676,
                  "location": {
                        "address": "1661 Sainte-Catherine Rue E",
                        "country": "CA",
                        "cross_street": "Champlain",
                        "formatted_address": "1661 Sainte-Catherine Rue E (Champlain), Montr\u00e9al QC H2L 2J5",
                        "locality": "Montreal",
                        "postcode": "H2L 2J5",
                        "region": "QC"
                  },
                  "name": "Cabaret Berlin",
                  "popularity": 0.8482683573050719,
                  "price": 2
            },
            {
                  "distance": 688,
                  "location": {
                        "address": "1659 Ste Rue",
                        "country": "CA",
                        "cross_street": "",
                        "formatted_address": "1659 Ste Rue, Montr\u00e9al QC H2L 2J5",
                        "locality": "Montreal",
                        "postcode": "H2L 2J5",
                        "region": "QC"
                  },
                  "name": "Cantine Emilia",
                  "popularity": 0.8558265518546556,
                  "price": 2
            },
            {
                  "distance": 726,
                  "location": {
                        "address": "1470 Rue de Champlain",
                        "country": "CA",
                        "cross_street": "",
                        "formatted_address": "1470 Rue de Champlain, Montr\u00e9al QC H2L 2B3",
                        "locality": "Montreal",
                        "postcode": "H2L 2B3",
                        "region": "QC"
                  },
                  "name": "Caf\u00e9 l'interm\u00e8de",
                  "popularity": 0.7469601627554883,
                  "price": 1
            },
            {
                  "distance": 750,
                  "location": {
                        "address": "2054 Fullum Rue",
                        "country": "CA",
                        "cross_street": "Ontario",
                        "formatted_address": "2054 Fullum Rue (Ontario), Montr\u00e9al QC H2K 3N7",
                        "locality": "Montreal",
                        "postcode": "H2K 3N7",
                        "region": "QC"
                  },
                  "name": "Ikaros Pizzeria Enr",
                  "popularity": 0.8425908402725208,
                  "price": 1
            },
            {
                  "distance": 756,
                  "location": {
                        "address": "2043 Parthenais Rue",
                        "country": "CA",
                        "cross_street": "Larivi\u00e8re",
                        "formatted_address": "2043 Parthenais Rue (Larivi\u00e8re), Montr\u00e9al QC H2K 3T1",
                        "locality": "Montreal",
                        "postcode": "H2K 3T1",
                        "region": "QC"
                  },
                  "name": "Cafeteria Nonnini",
                  "popularity": 0.9463238077214232,
                  "price": 1
            },
            {
                  "distance": 784,
                  "location": {
                        "address": "2600 Ontario Rue E",
                        "address_extended": "# 10",
                        "country": "CA",
                        "cross_street": "Du Havre",
                        "formatted_address": "2600 Ontario Rue E (Du Havre), Montr\u00e9al QC H2K 4K4",
                        "locality": "Montreal",
                        "postcode": "H2K 4K4",
                        "region": "QC"
                  },
                  "name": "Restaurant Bercy",
                  "popularity": 0.8457844436033308,
                  "price": 2
            },
            {
                  "distance": 831,
                  "location": {
                        "address": "1487 Sainte-Catherine Rue E",
                        "country": "CA",
                        "cross_street": "",
                        "formatted_address": "1487 Sainte-Catherine Rue E, Montr\u00e9al QC H2L 2H9",
                        "locality": "Montreal",
                        "postcode": "H2L 2H9",
                        "region": "QC"
                  },
                  "name": "Palme",
                  "popularity": 0.8981713663890991,
                  "price": 2
            },
            {
                  "distance": 870,
                  "location": {
                        "address": "1821 Ontario Rue E",
                        "country": "CA",
                        "cross_street": "Goulet",
                        "formatted_address": "1821 Ontario Rue E (Goulet), Montr\u00e9al QC H2K 1T6",
                        "locality": "Montreal",
                        "postcode": "H2K 1T6",
                        "region": "QC"
                  },
                  "name": "Pizza City",
                  "popularity": 0.8540641559424679,
                  "price": 1
            },
            {
                  "distance": 878,
                  "location": {
                        "address": "2683 Ontario Rue E",
                        "country": "CA",
                        "cross_street": "",
                        "formatted_address": "2683 Ontario Rue E, Montr\u00e9al QC H2K 1X1",
                        "locality": "Montreal",
                        "postcode": "H2K 1X1",
                        "region": "QC"
                  },
                  "name": "Bar Sexe Mania",
                  "popularity": 0.9735995457986374,
                  "price": 3
            }
      ],
      "context": {
            "geo_bounds": {
                  "circle": {
                        "center": {
                              "latitude": 45.52711644,
                              "longitude": -73.54801655
                        },
                        "radius": 1000
                  }
            }
      }
}