{
      "results": [
            {
                  "distance": 606,
                  "location": {
                        "address": "1940 rue du Ctr",
                        "country": "CA",
                        "cross_street": "rue Jardin",
                        "formatted_address": "1940 rue du Ctr (rue Jardin), Montr\u00e9al QC H3K 1J2",
                        "locality": "Montreal",
                        "postcode": "H3K 1J2",
                        "region": "QC"
                  },
                  "name": "Le Caf\u00e9 Bloom",
                  "popularity": 0.9499195685087055,
                  "price": 2,
                  "rating": 9.0
            },
            {
                  "distance": 597,
                  "location": {
                        "address": "1871 Rue du Ctr",
                        "country": "CA",
                        "cross_street": "Shearer",
                        "formatted_address": "1871 Rue du Ctr (Shearer), Montr\u00e9al QC H3K 1J1",
                        "locality": "Montreal",
                        "postcode": "H3K 1J1",
                        "region": "QC"
                  },
                  "name": "Knox Taverne",
                  "popularity": 0.9547572861468584,
                  "price": 2,
                  "rating": 8.3
            },
            {
                  "distance": 808,
                  "location": {
                        "address": "760 Charlevoix Rue",
                        "country": "CA",
                        "cross_street": "at Rue de Coleraine",
                        "formatted_address": "760 Charlevoix Rue (at Rue de Coleraine), Montr\u00e9al QC H3K 2Y2",
                        "locality": "Montreal",
                        "postcode": "H3K 2Y2",
                        "region": "QC"
                  },
                  "name": "Paul Patates Frites",
                  "popularity": 0.9733866389099167,
                  "price": 1,
                  "rating": 8.3
            },
            {
                  "distance": 572,
                  "location": {
                        "address": "1886 Rue du Ctr",
                        "country": "CA",
                        "cross_street": "Rue Shearer",
                        "formatted_address": "1886 Rue du Ctr (Rue Shearer), Montr\u00e9al QC H3K 1H9",
                        "locality": "Montreal",
                        "postcode": "H3K 1H9",
                        "region": "QC"
                  },
                  "name": "Milky Way Cocktail Bar",
                  "popularity": 0.9616176192278577,
                  "price": 3,
                  "rating": 8.2
            },
            {
                  "distance": 599,
                  "location": {
                        "address": "1906 rue du Ctr",
                        "country": "CA",
                        "cross_street": "",
                        "formatted_address": "1906 rue du Ctr, Montr\u00e9al QC H3K 1H9",
                        "locality": "Montreal",
                        "postcode": "H3K 1H9",
                        "region": "QC"
                  },
                  "name": "Cuisine Masala",
                  "popularity": 0.4322837812263437,
                  "price": 2,
                  "rating": 8.1
            },
            {
                  "distance": 275,
                  "location": {
                        "address": "1900 le Ber Rue",
                        "country": "CA",
                        "cross_street": "",
                        "formatted_address": "1900 le Ber Rue, Montr\u00e9al QC H3K 2A4",
                        "locality": "Montreal",
                        "postcode": "H3K 2A4",
                        "region": "QC"
                  },
                  "name": "Les Sans-Taverne",
                  "popularity": 0.9684779523088569,
                  "price": 2,
                  "rating": 8.0
            },
            {
                  "distance": 578,
                  "location": {
                        "address": "1870 rue du Ctr",
                        "country": "CA",
                        "cross_street": "",
                        "formatted_address": "1870 rue du Ctr, Montr\u00e9al QC H3K 1H9",
                        "locality": "Montreal",
                        "postcode": "H3K 1H9",
                        "region": "QC"
                  },
                  "name": "Le Petit Sao",
                  "popularity": 0.8894894965934897,
                  "price": 2,
                  "rating": 8.0
            },
            {
                  "distance": 964,
                  "location": {
                        "address": "2483 rue du Ctr",
                        "country": "CA",
                        "cross_street": "",
                        "formatted_address": "2483 rue du Ctr, Montr\u00e9al QC H3K 1J9",
                        "locality": "Montreal",
                        "postcode": "H3K 1J9",
                        "region": "QC"
                  },
                  "name": "Clarke Caf\u00e9",
                  "popularity": 0.9593111279333838,
                  "price": 1,
                  "rating": 7.6
            },
            {
                  "distance": 254,
                  "location": {
                        "address": "2026 Wellington Rue",
                        "country": "CA",
                        "cross_street": "Ash Avenue",
                        "formatted_address": "2026 Wellington Rue (Ash Avenue), Montr\u00e9al QC H3K 1W8",
                        "locality": "Montreal",
                        "postcode": "H3K 1W8",
                        "region": "QC"
                  },
                  "name": "Boom J's Cuisine",
                  "popularity": 0.9342472558667676,
                  "price": 2,
                  "rating": 7.5
            },
            {
                  "distance": 945,
                  "location": {
                        "address": "2172 Saint Patrick Rue",
                        "country": "CA",
                        "cross_street": "",
                        "formatted_address": "2172 Saint Patrick Rue, Montr\u00e9al QC H3K 1B1",
                        "locality": "Montreal",
                        "postcode": "H3K 1B1",
                        "region": "QC"
                  },
                  "name": "Brasserie Capri",
                  "popularity": 0.8528103709311128,
                  "price": 1,
                  "rating": 5.9
            },
            {
                  "distance": 214,
                  "location": {
                        "address": "1980 Wellington Rue",
                        "country": "CA",
                        "cross_street": "Charon",
                        "formatted_address": "1980 Wellington Rue (Charon), Montr\u00e9al QC H3K 1W6",
                        "locality": "Montreal",
                        "postcode": "H3K 1W6",
                        "region": "QC"
                  },
                  "name": "Chez Raoul",
                  "popularity": 0.8610664269492808,
                  "price": 1
            },
            {
                  "distance": 317,
                  "location": {
                        "address": "2069 Wellington Rue",
                        "country": "CA",
                        "cross_street": "Fortune",
                        "formatted_address": "2069 Wellington Rue (Fortune), Montr\u00e9al QC H3K 1W7",
                        "locality": "Montreal",
                        "postcode": "H3K 1W7",
                        "region": "QC"
                  },
                  "name": "Mollo",
                  "popularity": 0.9784609197577593,
                  "price": 1
            },
            {
                  "distance": 575,
                  "location": {
                        "address": "1880 rue du Ctr",
                        "country": "CA",
                        "cross_street": "",
                        "formatted_address": "1880 rue du Ctr, Montr\u00e9al QC H3K 1H9",
                        "locality": "Montreal",
                        "postcode": "H3K 1H9",
                        "region": "QC"
                  },
                  "name": "Caf\u00e9 Cantina",
                  "popularity": 0.8396338001514004,
                  "price": 1
            },
            {
                  "distance": 579,
                  "location": {
                        "address": "1900 Rue du Ctr",
                        "country": "CA",
                        "cross_street": "",
                        "formatted_address": "1900 Rue du Ctr, Montr\u00e9al QC H3K 1H9",
                        "locality": "Montreal",
                        "postcode": "H3K 1H9",
                        "region": "QC"
                  },
                  "name": "Restaurant Boca Boa Grill",
                  "popularity": 0.5995931112793338,
                  "price": 2
            },
            {
                  "distance": 591,
                  "location": {
                        "address": "1889 Center",
                        "country": "CA",
                        "cross_street": "",
                        "formatted_address": "1889 Center, Montr\u00e9al QC",
                        "locality": "Montreal",
                        "region": "QC"
                  },
                  "name": "Nower: naturally smoked meats",
                  "popularity": 0.6735664269492808,
                  "price": 1
            },
            {
                  "distance": 593,
                  "location": {
                        "address": "1886 Rue Ctr",
                        "country": "CA",
                        "cross_street": "",
                        "formatted_address": "1886 Rue Ctr, Montr\u00e9al QC H3K 1H9",
                        "locality": "Montreal",
                        "postcode": "H3K 1H9",
                        "region": "QC"
                  },
                  "name": "Fugazzi Pizza",
                  "popularity": 0.9187168811506434,
                  "price": 1
            },
            {
                  "distance": 600,
                  "location": {
                        "address": "1883 Rue du Ctr",
                        "country": "CA",
                        "cross_street": "Shearer",
                        "formatted_address": "1883 Rue du Ctr (Shearer), Montr\u00e9al QC H3K 1J1",
                        "locality": "Montreal",
                        "postcode": "H3K 1J1",
                        "region": "QC"
                  },
                  "name": "Caf\u00e9 Ton Quartier",
                  "popularity": 0.849522142316427,
                  "price": 1
            },
            {
                  "distance": 666,
                  "location": {
                        "address": "1751 Richardson",
                        "country": "CA",
                        "cross_street": "Shearer",
                        "formatted_address": "1751 Richardson (Shearer), Montr\u00e9al QC H3K 1G6",
                        "locality": "Montreal",
                        "postcode": "H3K 1G6",
                        "region": "QC"
                  },
                  "name": "Les Grillades du Cedre - Nordelec",
                  "popularity": 0.563434424678274
            },
            {
                  "distance": 683,
                  "location": {
                        "address": "2042 Center Rue",
                        "country": "CA",
                        "cross_street": "",
                        "formatted_address": "2042 Center Rue, Montr\u00e9al QC",
                        "locality": "Montreal",
                        "region": "QC"
                  },
                  "name": "Cr\u00e8merie du coin",
                  "popularity": 0.9050671839515518,
                  "price": 1
            },
            {
                  "distance": 786,
                  "location": {
                        "address": "801 Charlevoix Rue",
                        "country": "CA",
                        "cross_street": "",
                        "formatted_address": "801 Charlevoix Rue, Montr\u00e9al QC H3K 2Y5",
                        "locality": "Montreal",
                        "postcode": "H3K 2Y5",
                        "region": "QC"
                  },
                  "name": "Connie Pizza",
                  "popularity": 0.8321702308856926,
                  "price": 1
            },
            {
                  "distance": 819,
                  "location": {
                        "address": "1720 Saint Patrick Rue",
                        "country": "CA",
                        "cross_street": "",
                        "formatted_address": "1720 Saint Patrick Rue, Montr\u00e9al QC H3K 1A7",
                        "locality": "Montreal",
                        "postcode": "H3K 1A7",
                        "region": "QC"
                  },
                  "name": "La Canting",
                  "popularity": 0.8580857305071915,
                  "price": 1
            },
            {
                  "distance": 878,
                  "location": {
                        "address": "2687 Wellington Rue",
                        "country": "CA",
                        "cross_street": "",
                        "formatted_address": "2687 Wellington Rue, Montreal QC H3K 1X8",
                        "locality": "Montreal",
                        "postcode": "H3K 1X8",
                        "region": "QC"
                  },
                  "name": "Pub St Charles",
                  "popularity": 0.9495055828917487,
                  "price": 2
            },
            {
                  "distance": 890,
                  "location": {
                        "address": "14 Prince Arthur Rue",
                        "country": "CA",
                        "cross_street": "",
                        "formatted_address": "14 Prince Arthur Rue, Montr\u00e9al QC",
                        "locality": "Montreal",
                        "region": "QC"
                  },
                  "name": "Au 14",
                  "popularity": 0.2768972369417108,
                  "price": 2
            },
            {
                  "distance": 917,
                  "location": {
                        "address": "2525 rue Ctr",
                        "country": "CA",
                        "cross_street": "Ropery",
                        "formatted_address": "2525 rue Ctr (Ropery), Montr\u00e9al QC H3K 1J9",
                        "locality": "Montreal",
                        "postcode": "H3K 1J9",
                        "region": "QC"
                  },
                  "name": "Florence Caf\u00e9",
                  "popularity": 0.9506647426192278,
                  "price": 1
            },
            {
                  "distance": 250,
                  "location": {
                        "address": "2026 Wellington Rue",
                        "country": "CA",
                        "formatted_address": "2026 Wellington Rue, Montreal QC H3K 1W8",
                        "locality": "Montreal",
                        "postcode": "H3K 1W8",
                        "region": "QC"
                  },
                  "name": "Mama Express"
            },
            {
                  "distance": 289,
                  "location": {
                        "address": "2035 Wellington Rue",
                        "country": "CA",
                        "formatted_address": "2035 Wellington Rue, Montreal QC",
                        "locality": "Montreal",
                        "region": "QC"
                  },
                  "name": "Wellington Ash"
            },
            {
                  "distance": 305,
                  "location": {
                        "address": "1900 le Ber Rue",
                        "country": "CA",
                        "formatted_address": "1900 le Ber Rue, Montreal QC H3K 2A4",
                        "locality": "Montreal",
                        "postcode": "H3K 2A4",
                        "region": "QC"
                  },
                  "name": "Les Sans-Taverne - Coop et Brasserie Artisanale"
            },
            {
                  "distance": 567,
                  "location": {
                        "address": "2251 Wellington Rue",
                        "country": "CA",
                        "formatted_address": "2251 Wellington Rue, Montreal QC H3K 1X4",
                        "locality": "Montreal",
                        "postcode": "H3K 1X4",
                        "region": "QC"
                  },
                  "name": "Alexander Resto"
            },
            {
                  "distance": 573,
                  "location": {
                        "address": "1900 rue Ctr",
                        "country": "CA",
                        "formatted_address": "1900 rue Ctr, Montreal QC H3K 1H9",
                        "locality": "Montreal",
                        "postcode": "H3K 1H9",
                        "region": "QC"
                  },
                  "name": "Salle Amor Electrico"
            },
            {
                  "distance": 579,
                  "location": {
                        "address": "1880 Rue du Ctr",
                        "country": "CA",
                        "formatted_address": "1880 Rue du Ctr, Montreal QC H3K 1H9",
                        "locality": "Montreal",
                        "postcode": "H3K 1H9",
                        "region": "QC"
                  },
                  "name": "Caf\u00e9 Cantina in Montr\u00e9al"
            },
            {
                  "distance": 612,
                  "location": {
                        "address": "1871 Center Rue",
                        "country": "CA",
                        "formatted_address": "1871 Center Rue, Montreal QC H3K 1J1",
                        "locality": "Montreal",
                        "postcode": "H3K 1J1",
                        "region": "QC"
                  },
                  "name": "Bar du Diable a 4 Inc"
            },
            {
                  "distance": 643,
                  "location": {
                        "address": "1201 Rue de Cond\u00e9",
                        "country": "CA",
                        "formatted_address": "1201 Rue de Cond\u00e9, Montreal QC H3K 2E4",
                        "locality": "Montreal",
                        "postcode": "H3K 2E4",
                        "region": "QC"
                  },
                  "name": "La Bo\u00eete du Chef"
            },
            {
                  "distance": 670,
                  "location": {
                        "address": "1753 Richardson Rue",
                        "address_extended": "# 1751",
                        "country": "CA",
                        "formatted_address": "1753 Richardson Rue, Montreal QC H3K 1G5",
                        "locality": "Montreal",
                        "postcode": "H3K 1G5",
                        "region": "QC"
                  },
                  "name": "4B Sp\u00e9cifique"
            },
            {
                  "distance": 810,
                  "location": {
                        "address": "2606 rue de Coleraine",
                        "country": "CA",
                        "formatted_address": "2606 rue de Coleraine, Montreal QC H3K 1S7",
                        "locality": "Montreal",
                        "postcode": "H3K 1S7",
                        "region": "QC"
                  },
                  "name": "Paul Patate"
            },
            {
                  "distance": 851,
                  "location": {
                        "address": "1170 Ropery Rue",
                        "country": "CA",
                        "formatted_address": "1170 Ropery Rue, Montreal QC H3K 2W6",
                        "locality": "Montreal",
                        "postcode": "H3K 2W6",
                        "region": "QC"
                  },
                  "name": "Restaurant Chez l'Amical"
            }
      ],
      "context": {
            "geo_bounds": {
                  "circle": {
                        "center": {
                              "latitude": 45.47993042,
                              "longitude": -73.55592102
                        },
                        "radius": 1000
                  }
            }
      }
}