{
      "results": [
            {
                  "distance": 1018,
                  "location": {
                        "address": "195 Young Rue",
                        "country": "CA",
                        "cross_street": "entre Ottawa & Wellington",
                        "formatted_address": "195 Young Rue (entre Ottawa & Wellington), Montr\u00e9al QC H3C 2E9",
                        "locality": "Montreal",
                        "postcode": "H3C 2E9",
                        "region": "QC"
                  },
                  "name": "La B\u00eate \u00e0 Pain",
                  "popularity": 0.967153198334595,
                  "price": 1,
                  "rating": 9.3
            },
            {
                  "distance": 876,
                  "location": {
                        "address": "705 Sainte-Catherine Rue O",
                        "country": "CA",
                        "cross_street": "",
                        "formatted_address": "705 Sainte-Catherine Rue O, Montr\u00e9al QC H3B 4G5",
                        "locality": "Montreal",
                        "postcode": "H3B 4G5",
                        "region": "QC"
                  },
                  "name": "Time Out Market Montr\u00e9al",
                  "popularity": 0.9987107305071915,
                  "price": 2,
                  "rating": 9.1
            },
            {
                  "distance": 649,
                  "location": {
                        "address": "2067 Crescent Rue",
                        "country": "CA",
                        "cross_street": "",
                        "formatted_address": "2067 Crescent Rue, Montr\u00e9al QC H3G 2C1",
                        "locality": "Montreal",
                        "postcode": "H3G 2C1",
                        "region": "QC"
                  },
                  "name": "Mandy's",
                  "popularity": 0.9813233345950038,
                  "price": 2,
                  "rating": 9.0
            },
            {
                  "distance": 407,
                  "location": {
                        "address": "1206 Stanley Rue",
                        "country": "CA",
                        "cross_street": "entre Ren\u00e9-L\u00e9vesque & Ste-Catherine",
                        "formatted_address": "1206 Stanley Rue (entre Ren\u00e9-L\u00e9vesque & Ste-Catherine), Montr\u00e9al QC H3B 2S7",
                        "locality": "Montreal",
                        "postcode": "H3B 2S7",
                        "region": "QC"
                  },
                  "name": "Melk Bar a Caf\u00e9",
                  "popularity": 0.9670704012112036,
                  "price": 2,
                  "rating": 9.0
            },
            {
                  "distance": 844,
                  "location": {
                        "address": "1886 Notre-Dame Rue O",
                        "country": "CA",
                        "cross_street": "coin Des Seigneurs",
                        "formatted_address": "1886 Notre-Dame Rue O (coin Des Seigneurs), Montr\u00e9al QC H3J 1M6",
                        "locality": "Montreal",
                        "postcode": "H3J 1M6",
                        "region": "QC"
                  },
                  "name": "Le Boucan",
                  "popularity": 0.9390494890234671,
                  "price": 3,
                  "rating": 8.8
            },
            {
                  "distance": 564,
                  "location": {
                        "address": "1116 Sainte-Catherine Rue O",
                        "country": "CA",
                        "cross_street": "Peel",
                        "formatted_address": "1116 Sainte-Catherine Rue O (Peel), Montr\u00e9al QC H3B 1H4",
                        "locality": "Montreal",
                        "postcode": "H3B 1H4",
                        "region": "QC"
                  },
                  "name": "Reuben's Deli",
                  "popularity": 0.9828136828160484,
                  "price": 2,
                  "rating": 8.6
            },
            {
                  "distance": 815,
                  "location": {
                        "address": "1504 Sherbrooke Rue O",
                        "country": "CA",
                        "cross_street": "",
                        "formatted_address": "1504 Sherbrooke Rue O, Montr\u00e9al QC H3G 1L3",
                        "locality": "Montreal",
                        "postcode": "H3G 1L3",
                        "region": "QC"
                  },
                  "name": "Ristorante Beatrice",
                  "popularity": 0.9627058099924299,
                  "price": 3,
                  "rating": 8.6
            },
            {
                  "distance": 390,
                  "location": {
                        "address": "1255 Crescent Rue",
                        "country": "CA",
                        "cross_street": "Sainte-Catherine",
                        "formatted_address": "1255 Crescent Rue (Sainte-Catherine), Montr\u00e9al QC H3G 2B1",
                        "locality": "Montreal",
                        "postcode": "H3G 2B1",
                        "region": "QC"
                  },
                  "name": "Gyu-Kaku BBQ",
                  "popularity": 0.9762253974261923,
                  "price": 2,
                  "rating": 8.6,
                  "store_id": "14142"
            },
            {
                  "distance": 792,
                  "location": {
                        "address": "1448 Sherbrooke Rue O",
                        "country": "CA",
                        "formatted_address": "1448 Sherbrooke Rue O, Montr\u00e9al QC H3G 1K4",
                        "locality": "Montreal",
                        "postcode": "H3G 1K4",
                        "region": "QC"
                  },
                  "name": "Cafe Aunja",
                  "popularity": 0.9581401400454201,
                  "price": 1,
                  "rating": 8.6
            },
            {
                  "distance": 771,
                  "location": {
                        "address": "1485 Ottawa Rue",
                        "country": "CA",
                        "cross_street": "coin Guy",
                        "formatted_address": "1485 Ottawa Rue (coin Guy), Montr\u00e9al QC H3C 1S9",
                        "locality": "Montreal",
                        "postcode": "H3C 1S9",
                        "region": "QC"
                  },
                  "name": "Brasseur de Montr\u00e9al",
                  "popularity": 0.9854750189250567,
                  "price": 2,
                  "rating": 8.5
            },
            {
                  "distance": 733,
                  "location": {
                        "address": "2175 rue de la Montagne",
                        "address_extended": "# 100",
                        "country": "CA",
                        "cross_street": "",
                        "formatted_address": "2175 rue de la Montagne, Montr\u00e9al QC H3G 1Z8",
                        "locality": "Montreal",
                        "postcode": "H3G 1Z8",
                        "region": "QC"
                  },
                  "name": "Bar Cloakroom",
                  "popularity": 0.9470216691900075,
                  "price": 3,
                  "rating": 8.5
            },
            {
                  "distance": 605,
                  "location": {
                        "address": "1388 Blvd de Maisonneuve O",
                        "country": "CA",
                        "cross_street": "",
                        "formatted_address": "1388 Blvd de Maisonneuve O, Montr\u00e9al QC H3G 0C8",
                        "locality": "Montreal",
                        "postcode": "H3G 0C8",
                        "region": "QC"
                  },
                  "name": "Notre-Boeuf-de-Gr\u00e2ce",
                  "popularity": 0.9788394208932627,
                  "price": 1,
                  "rating": 8.4
            },
            {
                  "distance": 389,
                  "location": {
                        "address": "1224 Drummond Rue",
                        "country": "CA",
                        "cross_street": "",
                        "formatted_address": "1224 Drummond Rue, Montr\u00e9al QC H3G 1V7",
                        "locality": "Montreal",
                        "postcode": "H3G 1V7",
                        "region": "QC"
                  },
                  "name": "Restaurant Medusa",
                  "popularity": 0.9541895344436033,
                  "price": 2,
                  "rating": 8.3
            },
            {
                  "distance": 385,
                  "location": {
                        "address": "1238 MacKay Rue",
                        "country": "CA",
                        "cross_street": "South of Sainte-catherine",
                        "formatted_address": "1238 MacKay Rue (South of Sainte-catherine), Montr\u00e9al QC H3G 2H4",
                        "locality": "Montreal",
                        "postcode": "H3G 2H4",
                        "region": "QC"
                  },
                  "name": "Garage Beirut",
                  "popularity": 0.9214373580620742,
                  "rating": 8.3
            },
            {
                  "distance": 662,
                  "location": {
                        "address": "1626 Blvd de Maisonneuve Ouest",
                        "country": "CA",
                        "cross_street": "",
                        "formatted_address": "1626 Blvd de Maisonneuve Ouest, Montr\u00e9al QC H3H 1J5",
                        "locality": "Montreal",
                        "postcode": "H3H 1J5",
                        "region": "QC"
                  },
                  "name": "Antep Kabab",
                  "popularity": 0.9862201930355791,
                  "price": 1,
                  "rating": 8.3
            },
            {
                  "distance": 858,
                  "location": {
                        "address": "1612 Sherbrooke Rue O",
                        "country": "CA",
                        "cross_street": "",
                        "formatted_address": "1612 Sherbrooke Rue O, Montr\u00e9al QC H3H 1C9",
                        "locality": "Montreal",
                        "postcode": "H3H 1C9",
                        "region": "QC"
                  },
                  "name": "Chez Hailar",
                  "popularity": 0.9650241294473884,
                  "price": 2,
                  "rating": 8.3
            },
            {
                  "distance": 314,
                  "location": {
                        "address": "1189 Rue de la Montagne",
                        "country": "CA",
                        "cross_street": "at Ren\u00e9-Levesque",
                        "formatted_address": "1189 Rue de la Montagne (at Ren\u00e9-Levesque), Montr\u00e9al QC H3G 1Z2",
                        "locality": "Montreal",
                        "postcode": "H3G 1Z2",
                        "region": "QC"
                  },
                  "name": "Ye Olde Orchard Pub & Grill",
                  "popularity": 0.9698855034065103,
                  "price": 2,
                  "rating": 8.3
            },
            {
                  "distance": 384,
                  "location": {
                        "address": "1255 Bishop Rue",
                        "country": "CA",
                        "cross_street": "",
                        "formatted_address": "1255 Bishop Rue, Montr\u00e9al QC H3G 2E2",
                        "locality": "Montreal",
                        "postcode": "H3G 2E2",
                        "region": "QC"
                  },
                  "name": "C'Cho-Colat",
                  "popularity": 0.9571110900832702,
                  "price": 1,
                  "rating": 8.2
            },
            {
                  "distance": 623,
                  "location": {
                        "address": "2020 Crescent Rue",
                        "address_extended": "coin Maisonneuve",
                        "country": "CA",
                        "cross_street": "coin Maisonneuve",
                        "formatted_address": "2020 Crescent Rue (coin Maisonneuve), Montr\u00e9al QC H3G 2B8",
                        "locality": "Montreal",
                        "postcode": "H3G 2B8",
                        "region": "QC"
                  },
                  "name": "Restaurant Boustan",
                  "popularity": 0.9724049015897047,
                  "price": 1,
                  "rating": 8.2
            },
            {
                  "distance": 769,
                  "location": {
                        "address": "300 Rue de la Montagne",
                        "country": "CA",
                        "cross_street": "Rue Du Seminaire",
                        "formatted_address": "300 Rue de la Montagne (Rue Du Seminaire), Montr\u00e9al QC H3C 2B1",
                        "locality": "Montreal",
                        "postcode": "H3C 2B1",
                        "region": "QC"
                  },
                  "name": "Le Petit Dep",
                  "popularity": 0.9751963474640424,
                  "price": 1,
                  "rating": 8.2
            },
            {
                  "distance": 693,
                  "location": {
                        "address": "1441 Saint Mathieu Rue",
                        "country": "CA",
                        "cross_street": "entre De Maisonneuve & Ste-Catherine",
                        "formatted_address": "1441 Saint Mathieu Rue (entre De Maisonneuve & Ste-Catherine), Montr\u00e9al QC H3H 2M4",
                        "locality": "Montreal",
                        "postcode": "H3H 2M4",
                        "region": "QC"
                  },
                  "name": "Otto Yakitori Izakaya",
                  "popularity": 0.9624337623012869,
                  "price": 2,
                  "rating": 8.2
            },
            {
                  "distance": 430,
                  "location": {
                        "address": "1356 Sainte-Catherine Rue O",
                        "country": "CA",
                        "cross_street": "coin Crescent",
                        "formatted_address": "1356 Sainte-Catherine Rue O (coin Crescent), Montr\u00e9al QC H3G 1P6",
                        "locality": "Montreal",
                        "postcode": "H3G 1P6",
                        "region": "QC"
                  },
                  "name": "Les 3 Brasseurs",
                  "popularity": 0.9850728614685844,
                  "price": 2,
                  "rating": 8.2
            },
            {
                  "distance": 692,
                  "location": {
                        "address": "1472 Peel Rue",
                        "country": "CA",
                        "cross_street": "coin De Maisonneuve",
                        "formatted_address": "1472 Peel Rue (coin De Maisonneuve), Montr\u00e9al QC H3A 1S8",
                        "locality": "Montreal",
                        "postcode": "H3A 1S8",
                        "region": "QC"
                  },
                  "name": "Cafe Vasco Da Gama",
                  "popularity": 0.9501561317183952,
                  "price": 2,
                  "rating": 8.2
            },
            {
                  "distance": 538,
                  "location": {
                        "address": "1515 Sainte-Catherine Rue O",
                        "country": "CA",
                        "cross_street": "boul. de Maisonneuve",
                        "formatted_address": "1515 Sainte-Catherine Rue O (boul. de Maisonneuve), Montr\u00e9al QC H3G 2W1",
                        "locality": "Montreal",
                        "postcode": "H3G 2W1",
                        "region": "QC"
                  },
                  "name": "Jugo Juice",
                  "popularity": 0.9863976154428463,
                  "price": 1,
                  "rating": 8.2
            },
            {
                  "distance": 800,
                  "location": {
                        "address": "1850 Notre-Dame Rue O",
                        "country": "CA",
                        "cross_street": "Rue des Seigneurs",
                        "formatted_address": "1850 Notre-Dame Rue O (Rue des Seigneurs), Montr\u00e9al QC H3J 1M5",
                        "locality": "Montreal",
                        "postcode": "H3J 1M5",
                        "region": "QC"
                  },
                  "name": "Caf\u00e9 Lali",
                  "popularity": 0.9049134178652536,
                  "price": 1,
                  "rating": 8.1
            },
            {
                  "distance": 892,
                  "location": {
                        "address": "1250 Robert-Bourassa Blvd",
                        "country": "CA",
                        "cross_street": "",
                        "formatted_address": "1250 Robert-Bourassa Blvd, Montr\u00e9al QC H3B 3B8",
                        "locality": "Montreal",
                        "postcode": "H3B 3B8",
                        "region": "QC"
                  },
                  "name": "Le East",
                  "popularity": 0.9653316616199848,
                  "price": 2,
                  "rating": 8.1
            },
            {
                  "distance": 524,
                  "location": {
                        "address": "1434 Crescent Rue",
                        "country": "CA",
                        "cross_street": "Rue Sainte-Catherine Ouest",
                        "formatted_address": "1434 Crescent Rue (Rue Sainte-Catherine Ouest), Montr\u00e9al QC H3G 2B6",
                        "locality": "Montreal",
                        "postcode": "H3G 2B6",
                        "region": "QC"
                  },
                  "name": "Wienstein & Gavino's",
                  "popularity": 0.974179125662377,
                  "price": 2,
                  "rating": 8.0
            },
            {
                  "distance": 784,
                  "location": {
                        "address": "1909 Sainte-Catherine Rue O",
                        "country": "CA",
                        "cross_street": "St-Marc Street",
                        "formatted_address": "1909 Sainte-Catherine Rue O (St-Marc Street), Montr\u00e9al QC H3H 1M3",
                        "locality": "Montreal",
                        "postcode": "H3H 1M3",
                        "region": "QC"
                  },
                  "name": "Sammi & Soupe Dumpling",
                  "popularity": 0.9820921650264951,
                  "price": 1,
                  "rating": 8.0
            },
            {
                  "distance": 217,
                  "location": {
                        "address": "1325 Blvd Ren\u00e9-L\u00e9vesque O",
                        "country": "CA",
                        "cross_street": "",
                        "formatted_address": "1325 Blvd Ren\u00e9-L\u00e9vesque O, Montr\u00e9al QC H3G 0A1",
                        "locality": "Montreal",
                        "postcode": "H3G 0A1",
                        "region": "QC"
                  },
                  "name": "Siam",
                  "popularity": 0.9710564912944739,
                  "price": 2,
                  "rating": 8.0
            },
            {
                  "distance": 816,
                  "location": {
                        "address": "732 Sainte-Catherine Rue O",
                        "country": "CA",
                        "cross_street": "McGill Av.",
                        "formatted_address": "732 Sainte-Catherine Rue O (McGill Av.), Montr\u00e9al QC H3B 1B9",
                        "locality": "Montreal",
                        "postcode": "H3B 1B9",
                        "region": "QC"
                  },
                  "name": "Les 3 Brasseurs",
                  "popularity": 0.9831566994700984,
                  "price": 2,
                  "rating": 8.0
            },
            {
                  "distance": 393,
                  "location": {
                        "address": "1244 MacKay Rue",
                        "country": "CA",
                        "cross_street": "entre St-Catherine & Ren\u00e9-L\u00e9vesque",
                        "formatted_address": "1244 MacKay Rue (entre St-Catherine & Ren\u00e9-L\u00e9vesque), Montr\u00e9al QC H3G 2H4",
                        "locality": "Montreal",
                        "postcode": "H3G 2H4",
                        "region": "QC"
                  },
                  "name": "N sur Mackay",
                  "popularity": 0.951208838001514,
                  "price": 3,
                  "rating": 7.9
            },
            {
                  "distance": 672,
                  "location": {
                        "address": "2000 Guy Rue",
                        "country": "CA",
                        "cross_street": "coin de Maisonneuve",
                        "formatted_address": "2000 Guy Rue (coin de Maisonneuve), Montr\u00e9al QC H3H 2L8",
                        "locality": "Montreal",
                        "postcode": "H3H 2L8",
                        "region": "QC"
                  },
                  "name": "Starbucks",
                  "popularity": 0.9943106548069645,
                  "price": 2,
                  "rating": 7.8,
                  "store_id": "4056-140777"
            },
            {
                  "distance": 725,
                  "location": {
                        "address": "1684 Blvd Maisonneuve Ouest",
                        "country": "CA",
                        "cross_street": "St. Mathieu",
                        "formatted_address": "1684 Blvd Maisonneuve Ouest (St. Mathieu), Montr\u00e9al QC H3H 1J7",
                        "locality": "Montreal",
                        "postcode": "H3H 1J7",
                        "region": "QC"
                  },
                  "name": "All\u00f4! Mon Coco",
                  "popularity": 0.9630843111279334,
                  "price": 1,
                  "rating": 7.8
            },
            {
                  "distance": 292,
                  "location": {
                        "address": "1221 Rene-Levesque Blvd O",
                        "country": "CA",
                        "cross_street": "coin Drummond",
                        "formatted_address": "1221 Rene-Levesque Blvd O (coin Drummond), Montr\u00e9al QC H3G 1T1",
                        "locality": "Montreal",
                        "postcode": "H3G 1T1",
                        "region": "QC"
                  },
                  "name": "Bier Markt",
                  "popularity": 0.9826244322482968,
                  "price": 2,
                  "rating": 7.7,
                  "store_id": "4862"
            },
            {
                  "distance": 634,
                  "location": {
                        "address": "2002 MacKay Rue",
                        "country": "CA",
                        "cross_street": "De Maisonneuve",
                        "formatted_address": "2002 MacKay Rue (De Maisonneuve), Montr\u00e9al QC H3G 2J1",
                        "locality": "Montreal",
                        "postcode": "H3G 2J1",
                        "region": "QC"
                  },
                  "name": "Hinnawi Bros Bagel & Caf\u00e9",
                  "popularity": 0.97194360333081,
                  "price": 1,
                  "rating": 7.7
            }
      ],
      "context": {
            "geo_bounds": {
                  "circle": {
                        "center": {
                              "latitude": 45.4948716,
                              "longitude": -73.57112378
                        },
                        "radius": 1000
                  }
            }
      }
}