{
      "results": [
            {
                  "distance": 767,
                  "location": {
                        "address": "322 Ave du Mont-Royal Est",
                        "country": "CA",
                        "cross_street": "coin Drolet",
                        "formatted_address": "322 Ave du Mont-Royal Est (coin Drolet), Montr\u00e9al QC H2T 1P7",
                        "locality": "Montreal",
                        "postcode": "H2T 1P7",
                        "region": "QC"
                  },
                  "name": "Au Kouign-Amann",
                  "popularity": 0.9501206472369417,
                  "price": 2,
                  "rating": 9.2
            },
            {
                  "distance": 589,
                  "location": {
                        "address": "3927 Saint-Denis Rue",
                        "country": "CA",
                        "cross_street": "entre Duluth & Roy",
                        "formatted_address": "3927 Saint-Denis Rue (entre Duluth & Roy), Montr\u00e9al QC H2W 2M4",
                        "locality": "Montreal",
                        "postcode": "H2W 2M4",
                        "region": "QC"
                  },
                  "name": "L'Express",
                  "popularity": 0.9460517600302801,
                  "price": 3,
                  "rating": 9.1
            },
            {
                  "distance": 809,
                  "location": {
                        "address": "4627 Saint-Denis Rue",
                        "country": "CA",
                        "cross_street": "",
                        "formatted_address": "4627 Saint-Denis Rue, Montr\u00e9al QC H2J 2L4",
                        "locality": "Montreal",
                        "postcode": "H2J 2L4",
                        "region": "QC"
                  },
                  "name": "Caf\u00e9 Myriade - le Plateau",
                  "popularity": 0.9432603141559425,
                  "price": 1,
                  "rating": 9.1
            },
            {
                  "distance": 699,
                  "location": {
                        "address": "3801 Saint-Denis Rue",
                        "country": "CA",
                        "cross_street": "",
                        "formatted_address": "3801 Saint-Denis Rue, Montr\u00e9al QC H2W 2M4",
                        "locality": "Montreal",
                        "postcode": "H2W 2M4",
                        "region": "QC"
                  },
                  "name": "Le Club Espresso Bar",
                  "popularity": 0.9342945685087055,
                  "price": 1,
                  "rating": 9.0
            },
            {
                  "distance": 829,
                  "location": {
                        "address": "151 Rachel Rue E",
                        "country": "CA",
                        "cross_street": "coin De Bullion",
                        "formatted_address": "151 Rachel Rue E (coin De Bullion), Montr\u00e9al QC H2W 1E1",
                        "locality": "Montreal",
                        "postcode": "H2W 1E1",
                        "region": "QC"
                  },
                  "name": "Caf\u00e9 N\u00e9v\u00e9",
                  "popularity": 0.9299654617713853,
                  "price": 2,
                  "rating": 9.0
            },
            {
                  "distance": 521,
                  "location": {
                        "address": "1266 Ave du Mont-Royal Est",
                        "country": "CA",
                        "cross_street": "entre Br\u00e9beuf & Chambord",
                        "formatted_address": "1266 Ave du Mont-Royal Est (entre Br\u00e9beuf & Chambord), Montr\u00e9al QC H2J 1Y3",
                        "locality": "Montreal",
                        "postcode": "H2J 1Y3",
                        "region": "QC"
                  },
                  "name": "Point G",
                  "popularity": 0.9041800719152158,
                  "price": 1,
                  "rating": 8.9
            },
            {
                  "distance": 805,
                  "location": {
                        "address": "173 Duluth Ave E",
                        "country": "CA",
                        "cross_street": "coin H\u00f4tel-De-Ville",
                        "formatted_address": "173 Duluth Ave E (coin H\u00f4tel-De-Ville), Montr\u00e9al QC H2W 1H4",
                        "locality": "Montreal",
                        "postcode": "H2W 1H4",
                        "region": "QC"
                  },
                  "name": "Chez Jose",
                  "popularity": 0.919958838001514,
                  "price": 1,
                  "rating": 8.9
            },
            {
                  "distance": 870,
                  "location": {
                        "address": "3660 Saint-Denis Rue",
                        "country": "CA",
                        "cross_street": "coin Cherrier",
                        "formatted_address": "3660 Saint-Denis Rue (coin Cherrier), Montr\u00e9al QC H2X 3L7",
                        "locality": "Montreal",
                        "postcode": "H2X 3L7",
                        "region": "QC"
                  },
                  "name": "Mamie Clafoutis",
                  "popularity": 0.9447151778955337,
                  "price": 2,
                  "rating": 8.9
            },
            {
                  "distance": 586,
                  "location": {
                        "address": "4185 Drolet Rue",
                        "country": "CA",
                        "cross_street": "coin Rachel",
                        "formatted_address": "4185 Drolet Rue (coin Rachel), Montr\u00e9al QC H2W 2L5",
                        "locality": "Montreal",
                        "postcode": "H2W 2L5",
                        "region": "QC"
                  },
                  "name": "Yokato Yokabai",
                  "popularity": 0.9432957986373959,
                  "price": 2,
                  "rating": 8.9
            },
            {
                  "distance": 1014,
                  "location": {
                        "address": "4177 Saint-Laurent Blvd",
                        "country": "CA",
                        "cross_street": "coin Rachel",
                        "formatted_address": "4177 Saint-Laurent Blvd (coin Rachel), Montr\u00e9al QC H2W 1Y7",
                        "locality": "Montreal",
                        "postcode": "H2W 1Y7",
                        "region": "QC"
                  },
                  "name": "Patati Patata Friterie de Luxe",
                  "popularity": 0.9553960068130204,
                  "price": 2,
                  "rating": 8.8
            },
            {
                  "distance": 840,
                  "location": {
                        "address": "1810 Ave du MONT-ROYAL Est",
                        "country": "CA",
                        "cross_street": "",
                        "formatted_address": "1810 Ave du MONT-ROYAL Est, Montr\u00e9al QC H2H 1J1",
                        "locality": "Montreal",
                        "postcode": "H2H 1J1",
                        "region": "QC"
                  },
                  "name": "Mr. Puffs",
                  "popularity": 0.9136307721423165,
                  "price": 1,
                  "rating": 8.8
            },
            {
                  "distance": 710,
                  "location": {
                        "address": "252 Rachel Rue E",
                        "country": "CA",
                        "cross_street": "coin Laval",
                        "formatted_address": "252 Rachel Rue E (coin Laval), Montr\u00e9al QC H2W 1E6",
                        "locality": "Montreal",
                        "postcode": "H2W 1E6",
                        "region": "QC"
                  },
                  "name": "Caf\u00e9 Replika",
                  "popularity": 0.8989165404996216,
                  "price": 1,
                  "rating": 8.8
            },
            {
                  "distance": 194,
                  "location": {
                        "address": "865 Rachel Rue E",
                        "country": "CA",
                        "cross_street": "coin St-Andr\u00e9",
                        "formatted_address": "865 Rachel Rue E (coin St-Andr\u00e9), Montr\u00e9al QC H2J 2H9",
                        "locality": "Montreal",
                        "postcode": "H2J 2H9",
                        "region": "QC"
                  },
                  "name": "La Maison des P\u00e2tes Fra\u00eeches",
                  "popularity": 0.938115064345193,
                  "price": 2,
                  "rating": 8.8
            },
            {
                  "distance": 491,
                  "location": {
                        "address": "1127 Ave du Mont-Royal Est",
                        "country": "CA",
                        "cross_street": "coin Christophe-Colomb",
                        "formatted_address": "1127 Ave du Mont-Royal Est (coin Christophe-Colomb), Montr\u00e9al QC H2J 1X9",
                        "locality": "Montreal",
                        "postcode": "H2J 1X9",
                        "region": "QC"
                  },
                  "name": "St-Viateur Bagel & Cafe",
                  "popularity": 0.9727715745647237,
                  "price": 1,
                  "rating": 8.7
            },
            {
                  "distance": 362,
                  "location": {
                        "address": "536 Duluth Ave E",
                        "country": "CA",
                        "cross_street": "at Ave. Duluth Est & Ave. de Chateaubriand",
                        "formatted_address": "536 Duluth Ave E (at Ave. Duluth Est & Ave. de Chateaubriand), Montr\u00e9al QC H2L 1A9",
                        "locality": "Montreal",
                        "postcode": "H2L 1A9",
                        "region": "QC"
                  },
                  "name": "Au Pied de Cochon",
                  "popularity": 0.9154404806964421,
                  "price": 3,
                  "rating": 8.7
            },
            {
                  "distance": 916,
                  "location": {
                        "address": "3609 Saint-Denis Rue",
                        "address_extended": "Square St-Louis",
                        "country": "CA",
                        "cross_street": "Square St-Louis",
                        "formatted_address": "3609 Saint-Denis Rue (Square St-Louis), Montr\u00e9al QC H2X 3L6",
                        "locality": "Montreal",
                        "postcode": "H2X 3L6",
                        "region": "QC"
                  },
                  "name": "La Fabrique Bistrot",
                  "popularity": 0.9323547501892505,
                  "price": 4,
                  "rating": 8.6
            },
            {
                  "distance": 511,
                  "location": {
                        "address": "4115A Saint-Denis Rue",
                        "country": "CA",
                        "cross_street": "coin Duluth",
                        "formatted_address": "4115A Saint-Denis Rue (coin Duluth), Montr\u00e9al QC H2W 2M7",
                        "locality": "Montreal",
                        "postcode": "H2W 2M7",
                        "region": "QC"
                  },
                  "name": "Diese Onze",
                  "popularity": 0.9298944928084785,
                  "rating": 8.6
            },
            {
                  "distance": 106,
                  "location": {
                        "address": "951 Rachel Rue E",
                        "country": "CA",
                        "cross_street": "",
                        "formatted_address": "951 Rachel Rue E, Montr\u00e9al QC H2J 2J4",
                        "locality": "Montreal",
                        "postcode": "H2J 2J4",
                        "region": "QC"
                  },
                  "name": "Pub Pit Caribou",
                  "popularity": 0.9519658402725208,
                  "rating": 8.6
            },
            {
                  "distance": 1002,
                  "location": {
                        "address": "9 Duluth Ave E",
                        "country": "CA",
                        "cross_street": "entre St-Laurent & St-Dominique",
                        "formatted_address": "9 Duluth Ave E (entre St-Laurent & St-Dominique), Montr\u00e9al QC H2W 1G7",
                        "locality": "Montreal",
                        "postcode": "H2W 1G7",
                        "region": "QC"
                  },
                  "name": "R\u00e9servoir",
                  "popularity": 0.9331708932626798,
                  "price": 1,
                  "rating": 8.5
            },
            {
                  "distance": 801,
                  "location": {
                        "address": "1059 Gilford Rue",
                        "country": "CA",
                        "cross_street": "Christophe-Colomb",
                        "formatted_address": "1059 Gilford Rue (Christophe-Colomb), Montr\u00e9al QC H2J 1P7",
                        "locality": "Montreal",
                        "postcode": "H2J 1P7",
                        "region": "QC"
                  },
                  "name": "Restaurant la Raclette",
                  "popularity": 0.9396527252081757,
                  "price": 3,
                  "rating": 8.5
            },
            {
                  "distance": 464,
                  "location": {
                        "address": "4449 Rue de Mentana",
                        "country": "CA",
                        "cross_street": "Avenue du Mont-Royal",
                        "formatted_address": "4449 Rue de Mentana (Avenue du Mont-Royal), Montr\u00e9al QC H2J 3B4",
                        "locality": "Montreal",
                        "postcode": "H2J 3B4",
                        "region": "QC"
                  },
                  "name": "Tampopo",
                  "popularity": 0.8850539364118092,
                  "price": 2,
                  "rating": 8.5
            },
            {
                  "distance": 49,
                  "location": {
                        "address": "994 Rachel Rue E",
                        "country": "CA",
                        "cross_street": "entre de Boyer & du Parc-Lafontaine",
                        "formatted_address": "994 Rachel Rue E (entre de Boyer & du Parc-Lafontaine), Montr\u00e9al QC H2J 2J3",
                        "locality": "Montreal",
                        "postcode": "H2J 2J3",
                        "region": "QC"
                  },
                  "name": "La Banquise",
                  "popularity": 0.9872374148372445,
                  "price": 1,
                  "rating": 8.5
            },
            {
                  "distance": 403,
                  "location": {
                        "address": "506 Duluth Ave E",
                        "country": "CA",
                        "cross_street": "coin av. de Chateaubriand",
                        "formatted_address": "506 Duluth Ave E (coin av. de Chateaubriand), Montr\u00e9al QC H2L 1A7",
                        "locality": "Montreal",
                        "postcode": "H2L 1A7",
                        "region": "QC"
                  },
                  "name": "Khyber Pass Restaurant",
                  "popularity": 0.9183738644965935,
                  "price": 2,
                  "rating": 8.4
            },
            {
                  "distance": 494,
                  "location": {
                        "address": "922 Ave du Mont-Royal Est",
                        "country": "CA",
                        "cross_street": "entre St-Andr\u00e9 & De Mentana",
                        "formatted_address": "922 Ave du Mont-Royal Est (entre St-Andr\u00e9 & De Mentana), Montr\u00e9al QC H2J 1X2",
                        "locality": "Montreal",
                        "postcode": "H2J 1X2",
                        "region": "QC"
                  },
                  "name": "Restaurant l'Avenue",
                  "popularity": 0.9553132096896291,
                  "price": 2,
                  "rating": 8.4
            },
            {
                  "distance": 905,
                  "location": {
                        "address": "3609 Saint-Denis Rue",
                        "address_extended": "Fl 1ST",
                        "country": "CA",
                        "cross_street": "coin rue du Square-Saint-Louis",
                        "formatted_address": "3609 Saint-Denis Rue (coin rue du Square-Saint-Louis), Montr\u00e9al QC H2X 3L6",
                        "locality": "Montreal",
                        "postcode": "H2X 3L6",
                        "region": "QC"
                  },
                  "name": "Sushi Momo V\u00e9g\u00e9talien",
                  "popularity": 0.8928486941710825,
                  "price": 2,
                  "rating": 8.4
            },
            {
                  "distance": 959,
                  "location": {
                        "address": "156 Roy Rue E",
                        "country": "CA",
                        "cross_street": "coin De Bullion",
                        "formatted_address": "156 Roy Rue E (coin De Bullion), Montr\u00e9al QC H2W 1M2",
                        "locality": "Montreal",
                        "postcode": "H2W 1M2",
                        "region": "QC"
                  },
                  "name": "Else's",
                  "popularity": 0.9207868092354277,
                  "price": 2,
                  "rating": 8.4
            },
            {
                  "distance": 756,
                  "location": {
                        "address": "351 Ave du Mont-Royal E",
                        "country": "CA",
                        "cross_street": "",
                        "formatted_address": "351 Ave du Mont-Royal E, Montr\u00e9al QC H2T 1R1",
                        "locality": "Montreal",
                        "postcode": "H2T 1R1",
                        "region": "QC"
                  },
                  "name": "Le Toledo",
                  "popularity": 0.9615111657834974,
                  "price": 1,
                  "rating": 8.4
            },
            {
                  "distance": 979,
                  "location": {
                        "address": "4720 Marquette Rue",
                        "country": "CA",
                        "cross_street": "coin Gilford",
                        "formatted_address": "4720 Marquette Rue (coin Gilford), Montr\u00e9al QC H2J 3Y6",
                        "locality": "Montreal",
                        "postcode": "H2J 3Y6",
                        "region": "QC"
                  },
                  "name": "Maison Publique",
                  "popularity": 0.9193674299772899,
                  "price": 3,
                  "rating": 8.4
            },
            {
                  "distance": 852,
                  "location": {
                        "address": "4710 rue de Lanaudi\u00e8re",
                        "country": "CA",
                        "cross_street": "coin Gilford",
                        "formatted_address": "4710 rue de Lanaudi\u00e8re (coin Gilford), Montr\u00e9al QC H2J 3P7",
                        "locality": "Montreal",
                        "postcode": "H2J 3P7",
                        "region": "QC"
                  },
                  "name": "Le Chien Fumant",
                  "popularity": 0.9083435844057532,
                  "price": 3,
                  "rating": 8.2
            },
            {
                  "distance": 733,
                  "location": {
                        "address": "354 Ave du Mont-Royal Est",
                        "country": "CA",
                        "cross_street": "entre Drolet & St-Denis",
                        "formatted_address": "354 Ave du Mont-Royal Est (entre Drolet & St-Denis), Montr\u00e9al QC H2T 1P9",
                        "locality": "Montreal",
                        "postcode": "H2T 1P9",
                        "region": "QC"
                  },
                  "name": "Bily Kun",
                  "popularity": 0.927327781983346,
                  "price": 2,
                  "rating": 8.2
            },
            {
                  "distance": 991,
                  "location": {
                        "address": "20 Duluth Ave E",
                        "country": "CA",
                        "cross_street": "entre St-Laurent & St-Dominique",
                        "formatted_address": "20 Duluth Ave E (entre St-Laurent & St-Dominique), Montr\u00e9al QC H2W 1G6",
                        "locality": "Montreal",
                        "postcode": "H2W 1G6",
                        "region": "QC"
                  },
                  "name": "Bar Suzanne",
                  "popularity": 0.9205620741862226,
                  "price": 2,
                  "rating": 8.1
            },
            {
                  "distance": 757,
                  "location": {
                        "address": "213 Rachel Rue E",
                        "country": "CA",
                        "cross_street": "entre Laval & H\u00f4tel-de-ville",
                        "formatted_address": "213 Rachel Rue E (entre Laval & H\u00f4tel-de-ville), Montr\u00e9al QC H2W 1E4",
                        "locality": "Montreal",
                        "postcode": "H2W 1E4",
                        "region": "QC"
                  },
                  "name": "A Bar",
                  "popularity": 0.8736515897047691,
                  "price": 2,
                  "rating": 8.1
            },
            {
                  "distance": 511,
                  "location": {
                        "address": "860 Ave du Mont-Royal Est",
                        "country": "CA",
                        "cross_street": "coin Saint-Andr\u00e9",
                        "formatted_address": "860 Ave du Mont-Royal Est (coin Saint-Andr\u00e9), Montr\u00e9al QC H2J 1X1",
                        "locality": "Montreal",
                        "postcode": "H2J 1X1",
                        "region": "QC"
                  },
                  "name": "Boulangerie Premi\u00e8re Moisson",
                  "popularity": 0.9510787282361847,
                  "price": 1,
                  "rating": 8.0
            },
            {
                  "distance": 770,
                  "location": {
                        "address": "327 Ave du Mont-Royal Est",
                        "country": "CA",
                        "cross_street": "entre Saint-Denis et Drolet",
                        "formatted_address": "327 Ave du Mont-Royal Est (entre Saint-Denis et Drolet), Montr\u00e9al QC H2T 1P8",
                        "locality": "Montreal",
                        "postcode": "H2T 1P8",
                        "region": "QC"
                  },
                  "name": "Bar Plan B",
                  "popularity": 0.9094199470098411,
                  "price": 2,
                  "rating": 8.0
            },
            {
                  "distance": 656,
                  "location": {
                        "address": "3845 Saint-Denis Rue",
                        "country": "CA",
                        "cross_street": "",
                        "formatted_address": "3845 Saint-Denis Rue, Montr\u00e9al QC H2W 2M4",
                        "locality": "Montreal",
                        "postcode": "H2W 2M4",
                        "region": "QC"
                  },
                  "name": "Restaurant Au Pres de MA Blonde",
                  "popularity": 0.924110522331567,
                  "rating": 7.9
            }
      ],
      "context": {
            "geo_bounds": {
                  "circle": {
                        "center": {
                              "latitude": 45.52551169,
                              "longitude": -73.57424453
                        },
                        "radius": 1000
                  }
            }
      }
}