{
      "results": [
            {
                  "distance": 249,
                  "location": {
                        "address": "1714 Dollard Ave",
                        "address_extended": "# 1708",
                        "country": "CA",
                        "cross_street": "",
                        "formatted_address": "1714 Dollard Ave, Lasalle QC H8N 1T8",
                        "locality": "Lasalle",
                        "postcode": "H8N 1T8",
                        "region": "QC"
                  },
                  "name": "Fromagerie la Campagnola",
                  "popularity": 0.9893901400454201,
                  "price": 3,
                  "rating": 8.3
            },
            {
                  "distance": 392,
                  "location": {
                        "address": "8460 Newman Blvd",
                        "country": "CA",
                        "cross_street": "Rue Shevchenko",
                        "formatted_address": "8460 Newman Blvd (Rue Shevchenko), Lasalle QC H8N 1Y5",
                        "locality": "Lasalle",
                        "postcode": "H8N 1Y5",
                        "region": "QC"
                  },
                  "name": "Starbucks",
                  "popularity": 0.9949020628311885,
                  "price": 1,
                  "rating": 8.1
            },
            {
                  "distance": 44,
                  "location": {
                        "address": "1870A Dollard Ave",
                        "country": "CA",
                        "cross_street": "entre Newman & Gloria",
                        "formatted_address": "1870A Dollard Ave (entre Newman & Gloria), Lasalle QC H8N 1T8",
                        "locality": "Lasalle",
                        "postcode": "H8N 1T8",
                        "region": "QC"
                  },
                  "name": "Cafe Choco-Latte Inc",
                  "popularity": 0.933028955336866,
                  "price": 1,
                  "rating": 7.9
            },
            {
                  "distance": 500,
                  "location": {
                        "address": "1033 90e Ave",
                        "country": "CA",
                        "cross_street": "",
                        "formatted_address": "1033 90e Ave, Lasalle QC H8R 3A4",
                        "locality": "Lasalle",
                        "postcode": "H8R 3A4",
                        "region": "QC"
                  },
                  "name": "Manzo Pizzeria",
                  "popularity": 0.9827427138531416,
                  "price": 1,
                  "rating": 7.8
            },
            {
                  "distance": 511,
                  "location": {
                        "address": "8390 Newman Blvd",
                        "country": "CA",
                        "formatted_address": "8390 Newman Blvd, Lasalle QC H8N 1X9",
                        "locality": "Lasalle",
                        "postcode": "H8N 1X9",
                        "region": "QC"
                  },
                  "name": "Tim Hortons",
                  "popularity": 0.9935654806964421,
                  "price": 1,
                  "rating": 7.2
            },
            {
                  "distance": 333,
                  "location": {
                        "address": "8520 Newman Blvd",
                        "country": "CA",
                        "formatted_address": "8520 Newman Blvd, Montr\u00e9al QC H8N 1Y5",
                        "locality": "Montreal",
                        "postcode": "H8N 1Y5",
                        "region": "QC"
                  },
                  "name": "R\u00f4tisserie Scores",
                  "popularity": 0.984694360333081,
                  "price": 2,
                  "rating": 7.0
            },
            {
                  "distance": 596,
                  "location": {
                        "address": "8195 Newman Blvd",
                        "country": "CA",
                        "cross_street": "Rue Lise",
                        "formatted_address": "8195 Newman Blvd (Rue Lise), Lasalle QC H8N 1Y1",
                        "locality": "Lasalle",
                        "postcode": "H8N 1Y1",
                        "region": "QC"
                  },
                  "name": "Shish Poulet",
                  "popularity": 0.8894185276305829,
                  "price": 2,
                  "rating": 6.7
            },
            {
                  "distance": 604,
                  "location": {
                        "address": "8300 Newman Blvd",
                        "country": "CA",
                        "cross_street": "Rue Lise",
                        "formatted_address": "8300 Newman Blvd (Rue Lise), Lasalle QC H8N 1X9",
                        "locality": "Lasalle",
                        "postcode": "H8N 1X9",
                        "region": "QC"
                  },
                  "name": "McDonald's",
                  "popularity": 0.9986397615442847,
                  "price": 1,
                  "rating": 6.4,
                  "store_id": "2379"
            },
            {
                  "distance": 893,
                  "location": {
                        "address": "7979 Newman Blvd",
                        "country": "CA",
                        "cross_street": "",
                        "formatted_address": "7979 Newman Blvd, Lasalle QC H8N 2N9",
                        "locality": "Lasalle",
                        "postcode": "H8N 2N9",
                        "region": "QC"
                  },
                  "name": "R\u00f4tisserie St-Hubert",
                  "popularity": 0.9909632853898561,
                  "price": 2,
                  "rating": 6.4,
                  "store_id": "100089"
            },
            {
                  "distance": 719,
                  "location": {
                        "address": "1551 Shevchenko Blvd",
                        "country": "CA",
                        "cross_street": "",
                        "formatted_address": "1551 Shevchenko Blvd, Lasalle QC H8N 1P3",
                        "locality": "Lasalle",
                        "postcode": "H8N 1P3",
                        "region": "QC"
                  },
                  "name": "KFC",
                  "popularity": 0.9971967259651779,
                  "price": 1,
                  "rating": 6.0,
                  "store_id": "1264"
            },
            {
                  "distance": 314,
                  "location": {
                        "address": "2101 Dollard Ave",
                        "country": "CA",
                        "cross_street": "Boulevard Newman",
                        "formatted_address": "2101 Dollard Ave (Boulevard Newman), Lasalle QC H8N 1S2",
                        "locality": "Lasalle",
                        "postcode": "H8N 1S2",
                        "region": "QC"
                  },
                  "name": "Buffet Chinois Mandarin",
                  "popularity": 0.9851083459500378,
                  "price": 1,
                  "rating": 5.7
            },
            {
                  "distance": 65,
                  "location": {
                        "address": "1850 Dollard Ave",
                        "country": "CA",
                        "cross_street": "",
                        "formatted_address": "1850 Dollard Ave, Montr\u00e9al QC H8N 1T8",
                        "locality": "Montreal",
                        "postcode": "H8N 1T8",
                        "region": "QC"
                  },
                  "name": "Toujours Mikes",
                  "popularity": 0.9745931112793338,
                  "price": 2,
                  "store_id": "MK-0035"
            },
            {
                  "distance": 224,
                  "location": {
                        "address": "1684 Dollard St",
                        "country": "CA",
                        "cross_street": "",
                        "formatted_address": "1684 Dollard St, Montr\u00e9al QC",
                        "locality": "Montreal",
                        "region": "QC"
                  },
                  "name": "Voodoo",
                  "popularity": 0.6549015897047691,
                  "price": 2
            },
            {
                  "distance": 249,
                  "location": {
                        "address": "2190 Dollard Ave",
                        "country": "CA",
                        "cross_street": "",
                        "formatted_address": "2190 Dollard Ave, Montr\u00e9al QC H8N 1S6",
                        "locality": "Montreal",
                        "postcode": "H8N 1S6",
                        "region": "QC"
                  },
                  "name": "Domino's Pizza",
                  "popularity": 0.9881836676760031,
                  "price": 1,
                  "store_id": "10687"
            },
            {
                  "distance": 345,
                  "location": {
                        "address": "1655 Dollard Ave",
                        "country": "CA",
                        "cross_street": "",
                        "formatted_address": "1655 Dollard Ave, Lasalle QC H8N 1T7",
                        "locality": "Lasalle",
                        "postcode": "H8N 1T7",
                        "region": "QC"
                  },
                  "name": "Pizza Time",
                  "popularity": 0.3488479371688115,
                  "price": 1
            },
            {
                  "distance": 371,
                  "location": {
                        "address": "1651 Dollard Ave",
                        "country": "CA",
                        "cross_street": "Rue Davie-Boyer",
                        "formatted_address": "1651 Dollard Ave (Rue Davie-Boyer), Lasalle QC H8N 1T7",
                        "locality": "Lasalle",
                        "postcode": "H8N 1T7",
                        "region": "QC"
                  },
                  "name": "Coq-O-Bec",
                  "popularity": 0.6539316805450416,
                  "price": 2
            },
            {
                  "distance": 378,
                  "location": {
                        "address": "2101 Dollard Ave",
                        "country": "CA",
                        "cross_street": "coin boul Newman",
                        "formatted_address": "2101 Dollard Ave (coin boul Newman), Lasalle QC H8N 1S2",
                        "locality": "Lasalle",
                        "postcode": "H8N 1S2",
                        "region": "QC"
                  },
                  "name": "Sushi Plus",
                  "popularity": 0.9894611090083271,
                  "price": 2
            },
            {
                  "distance": 380,
                  "location": {
                        "address": "1615 Dollard Ave",
                        "country": "CA",
                        "cross_street": "rue David-Boyer",
                        "formatted_address": "1615 Dollard Ave (rue David-Boyer), Lasalle QC H8N 1T7",
                        "locality": "Lasalle",
                        "postcode": "H8N 1T7",
                        "region": "QC"
                  },
                  "name": "Harmonie Orientale",
                  "popularity": 0.9398183194549584,
                  "price": 2
            },
            {
                  "distance": 402,
                  "location": {
                        "address": "1611 Dollard Ave",
                        "country": "CA",
                        "cross_street": "",
                        "formatted_address": "1611 Dollard Ave, Montr\u00e9al QC H8N 1T7",
                        "locality": "Montreal",
                        "postcode": "H8N 1T7",
                        "region": "QC"
                  },
                  "name": "Restaurant Dadam",
                  "popularity": 0.6362722369417109,
                  "price": 2
            },
            {
                  "distance": 614,
                  "location": {
                        "address": "8171 Newman Blvd",
                        "country": "CA",
                        "cross_street": "",
                        "formatted_address": "8171 Newman Blvd, Lasalle QC H8N 1Y1",
                        "locality": "Lasalle",
                        "postcode": "H8N 1Y1",
                        "region": "QC"
                  },
                  "name": "Chez Lien",
                  "popularity": 0.9402796177138532,
                  "price": 2
            },
            {
                  "distance": 698,
                  "location": {
                        "address": "1371 Dollard Ave",
                        "country": "CA",
                        "cross_street": "",
                        "formatted_address": "1371 Dollard Ave, Lasalle QC H8N 1T3",
                        "locality": "Lasalle",
                        "postcode": "H8N 1T3",
                        "region": "QC"
                  },
                  "name": "Il Piceno cafe",
                  "popularity": 0.9925482588947767,
                  "price": 2
            },
            {
                  "distance": 812,
                  "location": {
                        "address": "8051 Newman Blvd",
                        "country": "CA",
                        "cross_street": "",
                        "formatted_address": "8051 Newman Blvd, Lasalle QC H8N 2N9",
                        "locality": "Lasalle",
                        "postcode": "H8N 2N9",
                        "region": "QC"
                  },
                  "name": "Arahova Souvlaki",
                  "popularity": 0.9331354087812264,
                  "price": 2
            },
            {
                  "distance": 813,
                  "location": {
                        "address": "8061 Newman Blvd",
                        "country": "CA",
                        "cross_street": "",
                        "formatted_address": "8061 Newman Blvd, Lasalle QC H8N 2N9",
                        "locality": "Lasalle",
                        "postcode": "H8N 2N9",
                        "region": "QC"
                  },
                  "name": "Sushi Shop",
                  "popularity": 0.9585186411809236,
                  "price": 2
            },
            {
                  "distance": 878,
                  "location": {
                        "address": "1475 Shevchenko Blvd",
                        "country": "CA",
                        "cross_street": "",
                        "formatted_address": "1475 Shevchenko Blvd, Lasalle QC H8N 1P2",
                        "locality": "Lasalle",
                        "postcode": "H8N 1P2",
                        "region": "QC"
                  },
                  "name": "New Lasalle Restaurant Pizzeria",
                  "popularity": 0.9550766464799394,
                  "price": 1
            },
            {
                  "distance": 973,
                  "location": {
                        "address": "1443 Shevchenko Blvd",
                        "country": "CA",
                        "cross_street": "",
                        "formatted_address": "1443 Shevchenko Blvd, Lasalle QC H8N 1P2",
                        "locality": "Lasalle",
                        "postcode": "H8N 1P2",
                        "region": "QC"
                  },
                  "name": "Restaurant Nouveau Lasalle",
                  "popularity": 0.8653245647236941,
                  "price": 1
            },
            {
                  "distance": 1001,
                  "location": {
                        "address": "455 Lafleur Ave",
                        "country": "CA",
                        "cross_street": "Rue Cl\u00e9ment",
                        "formatted_address": "455 Lafleur Ave (Rue Cl\u00e9ment), Lasalle QC H8R 3H8",
                        "locality": "Lasalle",
                        "postcode": "H8R 3H8",
                        "region": "QC"
                  },
                  "name": "Serano Pizzeria",
                  "popularity": 0.9683478425435277,
                  "price": 1
            },
            {
                  "distance": 1020,
                  "location": {
                        "address": "9015 Airlie Rue",
                        "country": "CA",
                        "cross_street": "",
                        "formatted_address": "9015 Airlie Rue, Lasalle QC H8R 2A4",
                        "locality": "Lasalle",
                        "postcode": "H8R 2A4",
                        "region": "QC"
                  },
                  "name": "Ayo Restaurant",
                  "popularity": 0.9097156510219531,
                  "price": 2
            },
            {
                  "distance": 157,
                  "location": {
                        "address": "2101 Dollard Ave",
                        "country": "CA",
                        "formatted_address": "2101 Dollard Ave, Lasalle QC H8N 1S2",
                        "locality": "Lasalle",
                        "postcode": "H8N 1S2",
                        "region": "QC"
                  },
                  "name": "Pik-Nik"
            },
            {
                  "distance": 231,
                  "location": {
                        "address": "2150 Dollard Ave",
                        "country": "CA",
                        "formatted_address": "2150 Dollard Ave, Lasalle QC H8N 1S6",
                        "locality": "Lasalle",
                        "postcode": "H8N 1S6",
                        "region": "QC"
                  },
                  "name": "Pind Lasalle"
            },
            {
                  "distance": 266,
                  "location": {
                        "address": "7077 Newman Blvd",
                        "country": "CA",
                        "formatted_address": "7077 Newman Blvd, Lasalle QC H8N 1X1",
                        "locality": "Lasalle",
                        "postcode": "H8N 1X1",
                        "region": "QC"
                  },
                  "name": "O Deli"
            },
            {
                  "distance": 298,
                  "location": {
                        "address": "1661 Dollard Ave",
                        "country": "CA",
                        "formatted_address": "1661 Dollard Ave, Lasalle QC H8N 1T7",
                        "locality": "Lasalle",
                        "postcode": "H8N 1T7",
                        "region": "QC"
                  },
                  "name": "Restaurant Pushad"
            },
            {
                  "distance": 331,
                  "location": {
                        "address": "1661 Dollard Ave",
                        "country": "CA",
                        "formatted_address": "1661 Dollard Ave, Lasalle QC",
                        "locality": "Lasalle",
                        "region": "QC"
                  },
                  "name": "Punjab Delights"
            },
            {
                  "distance": 336,
                  "location": {
                        "address": "1661 Dollard Ave",
                        "country": "CA",
                        "formatted_address": "1661 Dollard Ave, Lasalle QC H8N 1T7",
                        "locality": "Lasalle",
                        "postcode": "H8N 1T7",
                        "region": "QC"
                  },
                  "name": "Les D\u00e9lices du Punjab"
            },
            {
                  "distance": 382,
                  "location": {
                        "address": "1617 Dollard Ave",
                        "country": "CA",
                        "formatted_address": "1617 Dollard Ave, Lasalle QC H8N 1T7",
                        "locality": "Lasalle",
                        "postcode": "H8N 1T7",
                        "region": "QC"
                  },
                  "name": "Restaurant Arzou Express"
            },
            {
                  "distance": 392,
                  "location": {
                        "address": "1611 Dollard Ave",
                        "country": "CA",
                        "formatted_address": "1611 Dollard Ave, Lasalle QC H8N 1T7",
                        "locality": "Lasalle",
                        "postcode": "H8N 1T7",
                        "region": "QC"
                  },
                  "name": "Chester Poulet"
            }
      ],
      "context": {
            "geo_bounds": {
                  "circle": {
                        "center": {
                              "latitude": 45.42971096,
                              "longitude": -73.63388345
                        },
                        "radius": 1000
                  }
            }
      }
}