{
      "results": [
            {
                  "distance": 739,
                  "location": {
                        "address": "110 Blvd de la Concorde Ouest",
                        "country": "CA",
                        "cross_street": "at 16e Rue",
                        "formatted_address": "110 Blvd de la Concorde Ouest (at 16e Rue), Laval QC H7N 1H9",
                        "locality": "Laval",
                        "postcode": "H7N 1H9",
                        "region": "QC"
                  },
                  "name": "Chez Gerard",
                  "popularity": 0.9650986342943855,
                  "price": 1,
                  "rating": 7.5
            },
            {
                  "distance": 444,
                  "location": {
                        "address": "46 Cartier Blvd O",
                        "country": "CA",
                        "cross_street": "at rue \u00c9mile",
                        "formatted_address": "46 Cartier Blvd O (at rue \u00c9mile), Laval QC H7N 2H4",
                        "locality": "Laval",
                        "postcode": "H7N 2H4",
                        "region": "QC"
                  },
                  "name": "Chez Gerard",
                  "popularity": 0.9875033473176827,
                  "price": 1,
                  "rating": 6.8
            },
            {
                  "distance": 590,
                  "location": {
                        "address": "155B des Laurentides Blvd",
                        "country": "CA",
                        "cross_street": "",
                        "formatted_address": "155B des Laurentides Blvd, Laval QC H7G 2T4",
                        "locality": "Laval",
                        "postcode": "H7G 2T4",
                        "region": "QC"
                  },
                  "name": "Subway",
                  "popularity": 0.9418905650272249,
                  "price": 1,
                  "rating": 6.6,
                  "store_id": "13551"
            },
            {
                  "distance": 846,
                  "location": {
                        "address": "489 des Laurentides Blvd",
                        "country": "CA",
                        "cross_street": "De la Concorde",
                        "formatted_address": "489 des Laurentides Blvd (De la Concorde), Laval QC H7G 2V2",
                        "locality": "Laval",
                        "postcode": "H7G 2V2",
                        "region": "QC"
                  },
                  "name": "Tim Hortons",
                  "popularity": 0.9634919218066589,
                  "price": 1,
                  "rating": 6.2
            },
            {
                  "distance": 192,
                  "location": {
                        "address": "105 Cartier Blvd O",
                        "country": "CA",
                        "cross_street": "",
                        "formatted_address": "105 Cartier Blvd O, Laval QC H7N 2H6",
                        "locality": "Laval",
                        "postcode": "H7N 2H6",
                        "region": "QC"
                  },
                  "name": "Allo Pizza",
                  "popularity": 0.5971614746050166,
                  "price": 1
            },
            {
                  "distance": 362,
                  "location": {
                        "address": "54 Cartier Blvd O",
                        "country": "CA",
                        "cross_street": "",
                        "formatted_address": "54 Cartier Blvd O, Laval QC",
                        "locality": "Laval",
                        "region": "QC"
                  },
                  "name": "R\u00f4tisseries Au Coq",
                  "popularity": 0.8043381237168615,
                  "price": 1
            },
            {
                  "distance": 370,
                  "location": {
                        "address": "54 Cartier Blvd O",
                        "country": "CA",
                        "cross_street": "",
                        "formatted_address": "54 Cartier Blvd O, Laval QC H7N 2H5",
                        "locality": "Laval",
                        "postcode": "H7N 2H5",
                        "region": "QC"
                  },
                  "name": "Au Coq",
                  "popularity": 0.2224404177452468,
                  "price": 1
            },
            {
                  "distance": 389,
                  "location": {
                        "address": "66 Cartier Blvd O",
                        "country": "CA",
                        "cross_street": "",
                        "formatted_address": "66 Cartier Blvd O, Laval QC H7N 2H5",
                        "locality": "Laval",
                        "postcode": "H7N 2H5",
                        "region": "QC"
                  },
                  "name": "Marche des Iles",
                  "popularity": 0.582701062215478,
                  "price": 2
            },
            {
                  "distance": 551,
                  "location": {
                        "address": "34 Cartier O",
                        "country": "CA",
                        "cross_street": "",
                        "formatted_address": "34 Cartier O, Laval QC H7N 2H3",
                        "locality": "Laval",
                        "postcode": "H7N 2H3",
                        "region": "QC"
                  },
                  "name": "La Diperie",
                  "popularity": 0.6443809693832009,
                  "price": 1
            },
            {
                  "distance": 557,
                  "location": {
                        "address": "223 des Laurentides Blvd",
                        "country": "CA",
                        "cross_street": "",
                        "formatted_address": "223 des Laurentides Blvd, Laval QC H7G 2T7",
                        "locality": "Laval",
                        "postcode": "H7G 2T7",
                        "region": "QC"
                  },
                  "name": "Crazy Moon Laval",
                  "popularity": 0.9260019637597072,
                  "price": 3
            },
            {
                  "distance": 595,
                  "location": {
                        "address": "117 des Laurentides Blvd",
                        "country": "CA",
                        "formatted_address": "117 des Laurentides Blvd, Laval QC H7G 2T2",
                        "locality": "Laval",
                        "postcode": "H7G 2T2",
                        "region": "QC"
                  },
                  "name": "Pink Paradise",
                  "popularity": 0.7672944746942784,
                  "price": 3
            },
            {
                  "distance": 642,
                  "location": {
                        "address": "87 des Laurentides Blvd",
                        "country": "CA",
                        "cross_street": "Cartier",
                        "formatted_address": "87 des Laurentides Blvd (Cartier), Laval QC H7G 2T2",
                        "locality": "Laval",
                        "postcode": "H7G 2T2",
                        "region": "QC"
                  },
                  "name": "Buffalo Bill Wings",
                  "popularity": 0.1620101758457556,
                  "price": 1
            },
            {
                  "distance": 740,
                  "location": {
                        "address": "180 Blvd de la Concorde Ouest",
                        "country": "CA",
                        "formatted_address": "180 Blvd de la Concorde Ouest, Laval QC H7N 1H9",
                        "locality": "Laval",
                        "postcode": "H7N 1H9",
                        "region": "QC"
                  },
                  "name": "Caf\u00e9 Bistro Il Momento",
                  "popularity": 0.24609479603677586,
                  "price": 1
            },
            {
                  "distance": 763,
                  "location": {
                        "address": "445 des Laurentides Blvd",
                        "country": "CA",
                        "cross_street": "",
                        "formatted_address": "445 des Laurentides Blvd, Laval QC H7G 2V2",
                        "locality": "Laval",
                        "postcode": "H7G 2V2",
                        "region": "QC"
                  },
                  "name": "Bar Club Mangu",
                  "popularity": 0.8199589395697581,
                  "price": 1
            },
            {
                  "distance": 767,
                  "location": {
                        "address": "40 des Laurentides Blvd",
                        "country": "CA",
                        "cross_street": "Station Cartier",
                        "formatted_address": "40 des Laurentides Blvd (Station Cartier), Laval QC H7G 2S6",
                        "locality": "Laval",
                        "postcode": "H7G 2S6",
                        "region": "QC"
                  },
                  "name": "Presse Caf\u00e9",
                  "popularity": 0.8960992591270196,
                  "price": 1
            },
            {
                  "distance": 792,
                  "location": {
                        "address": "270 Blvd de la Concorde Ouest",
                        "country": "CA",
                        "cross_street": "",
                        "formatted_address": "270 Blvd de la Concorde Ouest, Laval QC H7N 1J1",
                        "locality": "Laval",
                        "postcode": "H7N 1J1",
                        "region": "QC"
                  },
                  "name": "Bar Bada Bing",
                  "popularity": 0.35606533964116754,
                  "price": 2
            },
            {
                  "distance": 835,
                  "location": {
                        "address": "103 de la Concorde W des Rapides",
                        "country": "CA",
                        "formatted_address": "103 de la Concorde W des Rapides, Laval QC H7N 1H8",
                        "locality": "Laval",
                        "postcode": "H7N 1H8",
                        "region": "QC"
                  },
                  "name": "Domino's Pizza",
                  "popularity": 0.9725966259037758,
                  "price": 1
            },
            {
                  "distance": 371,
                  "location": {
                        "address": "54 Cartier Blvd O",
                        "country": "CA",
                        "formatted_address": "54 Cartier Blvd O, Laval QC H7N 2H5",
                        "locality": "Laval",
                        "postcode": "H7N 2H5",
                        "region": "QC"
                  },
                  "name": "Au Coq"
            },
            {
                  "distance": 402,
                  "location": {
                        "address": "46 Cartier Blvd O",
                        "country": "CA",
                        "formatted_address": "46 Cartier Blvd O, Laval QC H7N 2H4",
                        "locality": "Laval",
                        "postcode": "H7N 2H4",
                        "region": "QC"
                  },
                  "name": "Louks Beignets"
            },
            {
                  "distance": 565,
                  "location": {
                        "address": "209 des Laurentides Blvd",
                        "country": "CA",
                        "formatted_address": "209 des Laurentides Blvd, Laval QC H7G 2T7",
                        "locality": "Laval",
                        "postcode": "H7G 2T7",
                        "region": "QC"
                  },
                  "name": "Bistro la Coquille"
            },
            {
                  "distance": 572,
                  "location": {
                        "address": "237 des Laurentides Blvd",
                        "country": "CA",
                        "formatted_address": "237 des Laurentides Blvd, Laval QC H7G 2T7",
                        "locality": "Laval",
                        "postcode": "H7G 2T7",
                        "region": "QC"
                  },
                  "name": "Restaurant Pupusa Al Paso"
            },
            {
                  "distance": 612,
                  "location": {
                        "address": "327 des Laurentides Blvd",
                        "country": "CA",
                        "formatted_address": "327 des Laurentides Blvd, Laval QC H7K 2J9",
                        "locality": "Laval",
                        "postcode": "H7K 2J9",
                        "region": "QC"
                  },
                  "name": "Restaurant Trois Pour Deux"
            },
            {
                  "distance": 700,
                  "location": {
                        "address": "428 des Laurentides Blvd",
                        "country": "CA",
                        "formatted_address": "428 des Laurentides Blvd, Laval QC H7G 2T8",
                        "locality": "Laval",
                        "postcode": "H7G 2T8",
                        "region": "QC"
                  },
                  "name": "Au Pain Quaotidien 2"
            },
            {
                  "distance": 716,
                  "location": {
                        "address": "293A Cartier Blvd O",
                        "country": "CA",
                        "formatted_address": "293A Cartier Blvd O, Laval QC H7N 2J1",
                        "locality": "Laval",
                        "postcode": "H7N 2J1",
                        "region": "QC"
                  },
                  "name": "Allo Pizza"
            },
            {
                  "distance": 744,
                  "location": {
                        "address": "48 des Laurentides Blvd",
                        "country": "CA",
                        "formatted_address": "48 des Laurentides Blvd, Laval QC H7G 2S7",
                        "locality": "Laval",
                        "postcode": "H7G 2S7",
                        "region": "QC"
                  },
                  "name": "Bingo la Java Inc"
            },
            {
                  "distance": 772,
                  "location": {
                        "address": "101 Blvd de la Concorde O",
                        "country": "CA",
                        "formatted_address": "101 Blvd de la Concorde O, Laval QC H7N 1H8",
                        "locality": "Laval",
                        "postcode": "H7N 1H8",
                        "region": "QC"
                  },
                  "name": "Mon Verger en P\u00e2te d'Amandes"
            },
            {
                  "distance": 774,
                  "location": {
                        "address": "270 Blvd de la Concorde O",
                        "country": "CA",
                        "formatted_address": "270 Blvd de la Concorde O, Laval QC H7N 1J1",
                        "locality": "Laval",
                        "postcode": "H7N 1J1",
                        "region": "QC"
                  },
                  "name": "Bar Badabing"
            }
      ],
      "context": {
            "geo_bounds": {
                  "circle": {
                        "center": {
                              "latitude": 45.56223428,
                              "longitude": -73.6916762
                        },
                        "radius": 1000
                  }
            }
      }
}