{
      "results": [
            {
                  "distance": 720,
                  "location": {
                        "address": "511 Villeray Rue",
                        "country": "CA",
                        "cross_street": "coin Berri",
                        "formatted_address": "511 Villeray Rue (coin Berri), Montr\u00e9al QC H2R 1H5",
                        "locality": "Montreal",
                        "postcode": "H2R 1H5",
                        "region": "QC"
                  },
                  "name": "Tapeo",
                  "popularity": 0.9402914458743377,
                  "price": 2,
                  "rating": 9.1
            },
            {
                  "distance": 623,
                  "location": {
                        "address": "7349 Saint Hubert Rue",
                        "country": "CA",
                        "cross_street": "",
                        "formatted_address": "7349 Saint Hubert Rue, Montr\u00e9al QC H2R 2N4",
                        "locality": "Montreal",
                        "postcode": "H2R 2N4",
                        "region": "QC"
                  },
                  "name": "Mr. Azteca",
                  "popularity": 0.9330762679788039,
                  "price": 1,
                  "rating": 8.5
            },
            {
                  "distance": 732,
                  "location": {
                        "address": "709B Jarry Rue E",
                        "country": "CA",
                        "cross_street": "",
                        "formatted_address": "709B Jarry Rue E, Montr\u00e9al QC H2P 1W2",
                        "locality": "Montreal",
                        "postcode": "H2P 1W2",
                        "region": "QC"
                  },
                  "name": "Baristello & Co",
                  "popularity": 0.9224664080242241,
                  "price": 1,
                  "rating": 8.3
            },
            {
                  "distance": 974,
                  "location": {
                        "address": "1950 Jean-Talon Rue E",
                        "country": "CA",
                        "cross_street": "Chabot",
                        "formatted_address": "1950 Jean-Talon Rue E (Chabot), Montr\u00e9al QC H2E 1T8",
                        "locality": "Montreal",
                        "postcode": "H2E 1T8",
                        "region": "QC"
                  },
                  "name": "Boulangerie & Charcuterie San Pietro",
                  "popularity": 0.953763720666162,
                  "price": 1,
                  "rating": 8.2
            },
            {
                  "distance": 717,
                  "location": {
                        "address": "8115 Papineau Ave",
                        "country": "CA",
                        "cross_street": "coin Jarry Est",
                        "formatted_address": "8115 Papineau Ave (coin Jarry Est), Montr\u00e9al QC H2E 2H7",
                        "locality": "Montreal",
                        "postcode": "H2E 2H7",
                        "region": "QC"
                  },
                  "name": "Tim Hortons",
                  "popularity": 0.9937783875851628,
                  "price": 1,
                  "rating": 8.0
            },
            {
                  "distance": 981,
                  "location": {
                        "address": "405 Jarry Rue E",
                        "country": "CA",
                        "cross_street": "coin St-Denis",
                        "formatted_address": "405 Jarry Rue E (coin St-Denis), Montr\u00e9al QC H2P 1V2",
                        "locality": "Montreal",
                        "postcode": "H2P 1V2",
                        "region": "QC"
                  },
                  "name": "Caf\u00e9 Larue et Fils Inc",
                  "popularity": 0.9481571725965178,
                  "price": 1,
                  "rating": 7.9
            },
            {
                  "distance": 819,
                  "location": {
                        "address": "615 Jarry Rue E",
                        "country": "CA",
                        "formatted_address": "615 Jarry Rue E, Montr\u00e9al QC H2P 1V8",
                        "locality": "Montreal",
                        "postcode": "H2P 1V8",
                        "region": "QC"
                  },
                  "name": "Restaurant Da Lillo",
                  "popularity": 0.9266180923542771,
                  "price": 2,
                  "rating": 7.5
            },
            {
                  "distance": 693,
                  "location": {
                        "address": "519 Faillon Rue E",
                        "country": "CA",
                        "formatted_address": "519 Faillon Rue E, Montr\u00e9al QC H2R 1L6",
                        "locality": "Montreal",
                        "postcode": "H2R 1L6",
                        "region": "QC"
                  },
                  "name": "Daou Restaurant",
                  "popularity": 0.9034112414837244,
                  "price": 2,
                  "rating": 7.5
            },
            {
                  "distance": 966,
                  "location": {
                        "address": "220 Villeray Rue",
                        "country": "CA",
                        "cross_street": "coin Henri-Julien",
                        "formatted_address": "220 Villeray Rue (coin Henri-Julien), Montr\u00e9al QC H2R 1G5",
                        "locality": "Montreal",
                        "postcode": "H2R 1G5",
                        "region": "QC"
                  },
                  "name": "Miss Villeray",
                  "popularity": 0.9195448523845572,
                  "price": 2,
                  "rating": 7.4
            },
            {
                  "distance": 585,
                  "location": {
                        "address": "1812 Tillemont Rue",
                        "country": "CA",
                        "cross_street": "Papineau",
                        "formatted_address": "1812 Tillemont Rue (Papineau), Montr\u00e9al QC H2E 1C5",
                        "locality": "Montreal",
                        "postcode": "H2E 1C5",
                        "region": "QC"
                  },
                  "name": "Boulangerie & P\u00e2tisserie Tillemont Inc",
                  "popularity": 0.9615466502649508,
                  "price": 1,
                  "rating": 7.3
            },
            {
                  "distance": 888,
                  "location": {
                        "address": "552 Jarry Rue E",
                        "country": "CA",
                        "cross_street": "coin Lajeunesse",
                        "formatted_address": "552 Jarry Rue E (coin Lajeunesse), Montr\u00e9al QC H2P 1V5",
                        "locality": "Montreal",
                        "postcode": "H2P 1V5",
                        "region": "QC"
                  },
                  "name": "Taverne Jarry",
                  "popularity": 0.8387940007570023,
                  "price": 2,
                  "rating": 6.7
            },
            {
                  "distance": 512,
                  "location": {
                        "address": "7690 Papineau Ave",
                        "country": "CA",
                        "formatted_address": "7690 Papineau Ave, Montreal QC H2E 2H2",
                        "locality": "Montreal",
                        "postcode": "H2E 2H2",
                        "region": "QC"
                  },
                  "name": "Restaurant Deli-Plus",
                  "popularity": 0.9771243376230129,
                  "price": 1,
                  "rating": 6.6
            },
            {
                  "distance": 931,
                  "location": {
                        "address": "8400 Christophe-Colomb Ave",
                        "country": "CA",
                        "cross_street": "",
                        "formatted_address": "8400 Christophe-Colomb Ave, Montr\u00e9al QC H2P 1X3",
                        "locality": "Montreal",
                        "postcode": "H2P 1X3",
                        "region": "QC"
                  },
                  "name": "A&W Restaurant",
                  "popularity": 0.9881600113550341,
                  "price": 1,
                  "rating": 6.5,
                  "store_id": "5346"
            },
            {
                  "distance": 386,
                  "location": {
                        "address": "1280 Jarry Rue E",
                        "country": "CA",
                        "cross_street": "",
                        "formatted_address": "1280 Jarry Rue E, Montr\u00e9al QC H2P 1X1",
                        "locality": "Montreal",
                        "postcode": "H2P 1X1",
                        "region": "QC"
                  },
                  "name": "Subway",
                  "popularity": 0.9300955715367146,
                  "price": 1,
                  "rating": 6.4,
                  "store_id": "26612"
            },
            {
                  "distance": 673,
                  "location": {
                        "address": "1700 Jarry Rue E",
                        "country": "CA",
                        "cross_street": "",
                        "formatted_address": "1700 Jarry Rue E, Montr\u00e9al QC H2E 1B3",
                        "locality": "Montreal",
                        "postcode": "H2E 1B3",
                        "region": "QC"
                  },
                  "name": "KFC",
                  "popularity": 0.9714349924299773,
                  "price": 1,
                  "rating": 6.1
            },
            {
                  "distance": 213,
                  "location": {
                        "address": "1370 Villeray Rue",
                        "country": "CA",
                        "cross_street": "",
                        "formatted_address": "1370 Villeray Rue, Montr\u00e9al QC H2E 1G6",
                        "locality": "Montreal",
                        "postcode": "H2E 1G6",
                        "region": "QC"
                  },
                  "name": "Tabac",
                  "popularity": 0.9707489591218774,
                  "price": 1
            },
            {
                  "distance": 403,
                  "location": {
                        "address": "7614 Saint-Hubert Rue",
                        "country": "CA",
                        "cross_street": "",
                        "formatted_address": "7614 Saint-Hubert Rue, Montr\u00e9al QC H2R 2N6",
                        "locality": "Montreal",
                        "postcode": "H2R 2N6",
                        "region": "QC"
                  },
                  "name": "Pizzellicoq Restaurant",
                  "popularity": 0.8172076078728236,
                  "price": 2
            },
            {
                  "distance": 439,
                  "location": {
                        "address": "1600 Villeray Rue",
                        "country": "CA",
                        "cross_street": "",
                        "formatted_address": "1600 Villeray Rue, Montr\u00e9al QC H2E 1H3",
                        "locality": "Montreal",
                        "postcode": "H2E 1H3",
                        "region": "QC"
                  },
                  "name": "Le Pro",
                  "popularity": 0.8249668811506434,
                  "price": 1
            },
            {
                  "distance": 551,
                  "location": {
                        "address": "1534 Jarry Rue E",
                        "country": "CA",
                        "cross_street": "",
                        "formatted_address": "1534 Jarry Rue E, Montr\u00e9al QC H2E 1A9",
                        "locality": "Montreal",
                        "postcode": "H2E 1A9",
                        "region": "QC"
                  },
                  "name": "Pizza Montreal",
                  "popularity": 0.9646456283118849,
                  "price": 1
            },
            {
                  "distance": 615,
                  "location": {
                        "address": "1660 Jarry Rue E",
                        "country": "CA",
                        "cross_street": "",
                        "formatted_address": "1660 Jarry Rue E, Montr\u00e9al QC H2E 1B3",
                        "locality": "Montreal",
                        "postcode": "H2E 1B3",
                        "region": "QC"
                  },
                  "name": "Le Gras Dur",
                  "popularity": 0.8562287093111279,
                  "price": 2
            },
            {
                  "distance": 623,
                  "location": {
                        "address": "8099 Saint-Hubert Rue",
                        "country": "CA",
                        "cross_street": "Jarry",
                        "formatted_address": "8099 Saint-Hubert Rue (Jarry), Montr\u00e9al QC H2R 2P4",
                        "locality": "Montreal",
                        "postcode": "H2R 2P4",
                        "region": "QC"
                  },
                  "name": "Lokma P\u00e2tisserie-Caf\u00e9",
                  "popularity": 0.8353874905374716,
                  "price": 1
            },
            {
                  "distance": 690,
                  "location": {
                        "address": "751 Jarry Rue E",
                        "country": "CA",
                        "cross_street": "",
                        "formatted_address": "751 Jarry Rue E, Montr\u00e9al QC H2P 1W3",
                        "locality": "Montreal",
                        "postcode": "H2P 1W3",
                        "region": "QC"
                  },
                  "name": "Fanfare Jarry",
                  "popularity": 0.9510314155942468,
                  "price": 1
            },
            {
                  "distance": 693,
                  "location": {
                        "address": "7245 Saint-Hubert Rue",
                        "country": "CA",
                        "cross_street": "",
                        "formatted_address": "7245 Saint-Hubert Rue, Montr\u00e9al QC H2R 2N2",
                        "locality": "Montreal",
                        "postcode": "H2R 2N2",
                        "region": "QC"
                  },
                  "name": "Restaurant Pachamama",
                  "popularity": 0.9621025738077215,
                  "price": 2
            },
            {
                  "distance": 715,
                  "location": {
                        "address": "7217 Saint-Hubert Rue",
                        "country": "CA",
                        "cross_street": "De Castelnau",
                        "formatted_address": "7217 Saint-Hubert Rue (De Castelnau), Montr\u00e9al QC H2R 2N2",
                        "locality": "Montreal",
                        "postcode": "H2R 2N2",
                        "region": "QC"
                  },
                  "name": "Les Importations Eche",
                  "popularity": 0.9637585162755489,
                  "price": 1
            },
            {
                  "distance": 745,
                  "location": {
                        "address": "426 Faillon Rue E",
                        "country": "CA",
                        "cross_street": "Berri",
                        "formatted_address": "426 Faillon Rue E (Berri), Montr\u00e9al QC H2R 1L4",
                        "locality": "Montreal",
                        "postcode": "H2R 1L4",
                        "region": "QC"
                  },
                  "name": "Caf\u00e9 Coquetel",
                  "popularity": 0.9526873580620742,
                  "price": 1
            },
            {
                  "distance": 806,
                  "location": {
                        "address": "608 Jarry E",
                        "country": "CA",
                        "cross_street": "",
                        "formatted_address": "608 Jarry E, Montr\u00e9al QC H2P 1V7",
                        "locality": "Montreal",
                        "postcode": "H2P 1V7",
                        "region": "QC"
                  },
                  "name": "B\u00eap",
                  "popularity": 0.8465887585162756,
                  "price": 2
            },
            {
                  "distance": 881,
                  "location": {
                        "address": "1840 Jean Talon Rue E",
                        "country": "CA",
                        "cross_street": "Papineau",
                        "formatted_address": "1840 Jean Talon Rue E (Papineau), Montr\u00e9al QC H2E 1T5",
                        "locality": "Montreal",
                        "postcode": "H2E 1T5",
                        "region": "QC"
                  },
                  "name": "Dilallo Burger et Bar",
                  "popularity": 0.9578207797123391,
                  "price": 2
            },
            {
                  "distance": 953,
                  "location": {
                        "address": "7046 Saint-Hubert Rue",
                        "country": "CA",
                        "cross_street": "",
                        "formatted_address": "7046 Saint-Hubert Rue, Montr\u00e9al QC H2S 2M9",
                        "locality": "Montreal",
                        "postcode": "H2S 2M9",
                        "region": "QC"
                  },
                  "name": "Domino's Pizza",
                  "popularity": 0.9229868470855412,
                  "price": 1,
                  "store_id": "10710"
            },
            {
                  "distance": 959,
                  "location": {
                        "address": "600 Jean-Talon Rue E",
                        "country": "CA",
                        "formatted_address": "600 Jean-Talon Rue E, Montr\u00e9al QC H2R 3A8",
                        "locality": "Montreal",
                        "postcode": "H2R 3A8",
                        "region": "QC"
                  },
                  "name": "Cafe Bistro El Mundo",
                  "popularity": 0.8496404239212718,
                  "price": 1
            },
            {
                  "distance": 961,
                  "location": {
                        "address": "501 Jarry Rue E",
                        "country": "CA",
                        "cross_street": "Berri",
                        "formatted_address": "501 Jarry Rue E (Berri), Montr\u00e9al QC H2P 1V4",
                        "locality": "Montreal",
                        "postcode": "H2P 1V4",
                        "region": "QC"
                  },
                  "name": "Basha",
                  "popularity": 0.3892056207418622,
                  "price": 1
            },
            {
                  "distance": 537,
                  "location": {
                        "address": "7450 Saint-Hubert Rue",
                        "country": "CA",
                        "formatted_address": "7450 Saint-Hubert Rue, Montreal QC H2R 2N3",
                        "locality": "Montreal",
                        "postcode": "H2R 2N3",
                        "region": "QC"
                  },
                  "name": "Paraiso Tropical"
            },
            {
                  "distance": 538,
                  "location": {
                        "address": "7429 Saint-Hubert Rue",
                        "country": "CA",
                        "formatted_address": "7429 Saint-Hubert Rue, Montreal QC H2R 2N4",
                        "locality": "Montreal",
                        "postcode": "H2R 2N4",
                        "region": "QC"
                  },
                  "name": "Bistro Bar Bizzwack"
            },
            {
                  "distance": 589,
                  "location": {
                        "address": "1590 Jarry Rue E",
                        "country": "CA",
                        "formatted_address": "1590 Jarry Rue E, Montreal QC H2E 1B2",
                        "locality": "Montreal",
                        "postcode": "H2E 1B2",
                        "region": "QC"
                  },
                  "name": "Caf\u00e9 Bar Cosenza"
            },
            {
                  "distance": 757,
                  "location": {
                        "address": "420 Faillon Rue E",
                        "country": "CA",
                        "formatted_address": "420 Faillon Rue E, Montreal QC H2R 1L4",
                        "locality": "Montreal",
                        "postcode": "H2R 1L4",
                        "region": "QC"
                  },
                  "name": "Lahmadjoune Beyrouth"
            },
            {
                  "distance": 759,
                  "location": {
                        "address": "7183 Saint-Hubert Rue",
                        "country": "CA",
                        "formatted_address": "7183 Saint-Hubert Rue, Montreal QC H2R 2N2",
                        "locality": "Montreal",
                        "postcode": "H2R 2N2",
                        "region": "QC"
                  },
                  "name": "Restaurant El Jibaro"
            }
      ],
      "context": {
            "geo_bounds": {
                  "circle": {
                        "center": {
                              "latitude": 45.54717204,
                              "longitude": -73.61815631
                        },
                        "radius": 1000
                  }
            }
      }
}