{
      "results": [
            {
                  "distance": 667,
                  "location": {
                        "address": "900 le Corbusier Blvd",
                        "country": "CA",
                        "cross_street": "au Quartier Laval",
                        "formatted_address": "900 le Corbusier Blvd (au Quartier Laval), Laval QC H7N 0A8",
                        "locality": "Laval",
                        "postcode": "H7N 0A8",
                        "region": "QC"
                  },
                  "name": "Starbucks",
                  "popularity": 0.9492100330268678,
                  "price": 1,
                  "rating": 7.8,
                  "store_id": "6021-146644"
            },
            {
                  "distance": 444,
                  "location": {
                        "address": "1130 le Corbusier Blvd",
                        "country": "CA",
                        "cross_street": "",
                        "formatted_address": "1130 le Corbusier Blvd, Laval QC H7N 0A8",
                        "locality": "Laval",
                        "postcode": "H7N 0A8",
                        "region": "QC"
                  },
                  "name": "Restaurant Amir",
                  "popularity": 0.9130590020530215,
                  "price": 2,
                  "rating": 7.0
            },
            {
                  "distance": 977,
                  "location": {
                        "address": "608 Blvd de la Concorde Ouest",
                        "country": "CA",
                        "cross_street": "coin Amp\u00e8re",
                        "formatted_address": "608 Blvd de la Concorde Ouest (coin Amp\u00e8re), Laval QC H7N 5R1",
                        "locality": "Laval",
                        "postcode": "H7N 5R1",
                        "region": "QC"
                  },
                  "name": "Boulangerie Patisserie",
                  "popularity": 0.9331429081496028,
                  "price": 1,
                  "rating": 6.9
            },
            {
                  "distance": 985,
                  "location": {
                        "address": "1600 le Corbusier Blvd",
                        "address_extended": "Unit 100A",
                        "country": "CA",
                        "cross_street": "Centre Laval",
                        "formatted_address": "1600 le Corbusier Blvd (Centre Laval), Laval QC H7S 1Y9",
                        "locality": "Laval",
                        "postcode": "H7S 1Y9",
                        "region": "QC"
                  },
                  "name": "Subway",
                  "popularity": 0.8849415335178077,
                  "price": 1,
                  "rating": 6.5,
                  "store_id": "19407"
            },
            {
                  "distance": 496,
                  "location": {
                        "address": "840 le Corbusier Blvd",
                        "country": "CA",
                        "cross_street": "",
                        "formatted_address": "840 le Corbusier Blvd, Laval QC H7N 0A8",
                        "locality": "Laval",
                        "postcode": "H7N 0A8",
                        "region": "QC"
                  },
                  "name": "Panda Peng",
                  "popularity": 0.8669999107381952,
                  "price": 1,
                  "rating": 6.4
            },
            {
                  "distance": 2016,
                  "location": {
                        "address": "1600 le Corbusier Blvd",
                        "address_extended": "Centre Laval",
                        "country": "CA",
                        "formatted_address": "1600 le Corbusier Blvd, Laval QC H7S 1Y9",
                        "locality": "Laval",
                        "postcode": "H7S 1Y9",
                        "region": "QC"
                  },
                  "name": "Thai Express",
                  "popularity": 0.6152816209943766,
                  "price": 2,
                  "rating": 6.3,
                  "store_id": "1863"
            },
            {
                  "distance": 518,
                  "location": {
                        "address": "1340 le Corbusier Blvd",
                        "address_extended": "C2",
                        "country": "CA",
                        "formatted_address": "1340 le Corbusier Blvd, Laval QC H7N 0A7",
                        "locality": "Laval",
                        "postcode": "H7N 0A7",
                        "region": "QC"
                  },
                  "name": "Tim Hortons",
                  "popularity": 0.9643845398553959,
                  "price": 1,
                  "rating": 6.1
            },
            {
                  "distance": 466,
                  "location": {
                        "address": "1110 le Corbusier Blvd",
                        "country": "CA",
                        "formatted_address": "1110 le Corbusier Blvd, Laval QC H7N 0A8",
                        "locality": "Laval",
                        "postcode": "H7N 0A8",
                        "region": "QC"
                  },
                  "name": "Kanda Sushi Bar",
                  "popularity": 0.8972596625903776,
                  "price": 2,
                  "rating": 6.1
            },
            {
                  "distance": 533,
                  "location": {
                        "address": "1020 le Corbusier Blvd",
                        "address_extended": "Quartier Laval",
                        "country": "CA",
                        "cross_street": "",
                        "formatted_address": "1020 le Corbusier Blvd, Laval QC H7N 0A8",
                        "locality": "Laval",
                        "postcode": "H7N 0A8",
                        "region": "QC"
                  },
                  "name": "Thai Express",
                  "popularity": 0.8977952334196198,
                  "price": 2,
                  "rating": 5.9,
                  "store_id": "74"
            },
            {
                  "distance": 855,
                  "location": {
                        "address": "1600 le Corbusier Blvd",
                        "address_extended": "# 72",
                        "country": "CA",
                        "cross_street": "au Centre Laval",
                        "formatted_address": "1600 le Corbusier Blvd (au Centre Laval), Laval QC H7S 1Y9",
                        "locality": "Laval",
                        "postcode": "H7S 1Y9",
                        "region": "QC"
                  },
                  "name": "Nickels Restaurant",
                  "popularity": 0.9856288494153351,
                  "price": 1,
                  "rating": 5.9
            },
            {
                  "distance": 465,
                  "location": {
                        "address": "1120 le Corbusier Blvd",
                        "address_extended": "Unit H-2",
                        "country": "CA",
                        "cross_street": "",
                        "formatted_address": "1120 le Corbusier Blvd, Laval QC H7N 0A8",
                        "locality": "Laval",
                        "postcode": "H7N 0A8",
                        "region": "QC"
                  },
                  "name": "Subway",
                  "popularity": 0.7929126126930287,
                  "price": 1,
                  "rating": 5.5
            },
            {
                  "distance": 886,
                  "location": {
                        "address": "1600 le Corbusier Blvd",
                        "address_extended": "# 74",
                        "country": "CA",
                        "cross_street": "Souvenir",
                        "formatted_address": "1600 le Corbusier Blvd (Souvenir), Laval QC H7S 1Y9",
                        "locality": "Laval",
                        "postcode": "H7S 1Y9",
                        "region": "QC"
                  },
                  "name": "Buffet Chinois Fu Lam",
                  "popularity": 0.8622690350798893,
                  "price": 1,
                  "rating": 4.7
            },
            {
                  "distance": 123,
                  "location": {
                        "address": "555 Lucien-Paiement Rue",
                        "country": "CA",
                        "cross_street": "",
                        "formatted_address": "555 Lucien-Paiement Rue, Laval QC H7N 0A5",
                        "locality": "Laval",
                        "postcode": "H7N 0A5",
                        "region": "QC"
                  },
                  "name": "Caf\u00e9 D\u00e9p\u00f4t",
                  "popularity": 0.10595376238507542,
                  "price": 1
            },
            {
                  "distance": 138,
                  "location": {
                        "address": "1700 rue Jacques-T\u00e9treault",
                        "country": "CA",
                        "cross_street": "Universit\u00e9 de Montr\u00e9al \u00e0 Laval",
                        "formatted_address": "1700 rue Jacques-T\u00e9treault (Universit\u00e9 de Montr\u00e9al \u00e0 Laval), Laval QC H7N 0B6",
                        "locality": "Laval",
                        "postcode": "H7N 0B6",
                        "region": "QC"
                  },
                  "name": "Van Houtte",
                  "popularity": 0.876104614835312,
                  "price": 1
            },
            {
                  "distance": 322,
                  "location": {
                        "address": "1950 Claude-Gagne Rue",
                        "address_extended": "# 302",
                        "country": "CA",
                        "cross_street": "",
                        "formatted_address": "1950 Claude-Gagne Rue, Laval QC H7N 0E4",
                        "locality": "Laval",
                        "postcode": "H7N 0E4",
                        "region": "QC"
                  },
                  "name": "Gatto Matto",
                  "popularity": 0.948585200392752,
                  "price": 2
            },
            {
                  "distance": 344,
                  "location": {
                        "address": "1950 Claude Gagne Rue",
                        "address_extended": "Unit 306",
                        "country": "CA",
                        "cross_street": "",
                        "formatted_address": "1950 Claude Gagne Rue, Laval QC H7N 5H9",
                        "locality": "Laval",
                        "postcode": "H7N 5H9",
                        "region": "QC"
                  },
                  "name": "Tiger Sugar",
                  "popularity": 0.9276086762474337
            },
            {
                  "distance": 353,
                  "location": {
                        "address": "1950 Claude-Gagne Rue",
                        "country": "CA",
                        "cross_street": "",
                        "formatted_address": "1950 Claude-Gagne Rue, Laval QC H7N 0E4",
                        "locality": "Laval",
                        "postcode": "H7N 0E4",
                        "region": "QC"
                  },
                  "name": "Westwood Bar & Grill",
                  "popularity": 0.9470677497098992,
                  "price": 2
            },
            {
                  "distance": 470,
                  "location": {
                        "address": "1100 le Corbusier Blvd",
                        "country": "CA",
                        "formatted_address": "1100 le Corbusier Blvd, Laval QC H7N 0A8",
                        "locality": "Laval",
                        "postcode": "H7N 0A8",
                        "region": "QC"
                  },
                  "name": "Bellepros",
                  "popularity": 0.9041328215656521,
                  "price": 1
            },
            {
                  "distance": 508,
                  "location": {
                        "address": "1700 Jacques-Tetreault Rue",
                        "country": "CA",
                        "cross_street": "at Rue Lucien-Paiment",
                        "formatted_address": "1700 Jacques-Tetreault Rue (at Rue Lucien-Paiment), Laval QC H7N 0B6",
                        "locality": "Laval",
                        "postcode": "H7N 0B6",
                        "region": "QC"
                  },
                  "name": "Mikacchino",
                  "popularity": 0.2917968401321075,
                  "price": 1
            },
            {
                  "distance": 508,
                  "location": {
                        "address": "1323 Blvd de la Concorde O",
                        "country": "CA",
                        "cross_street": "Boul Concorde",
                        "formatted_address": "1323 Blvd de la Concorde O (Boul Concorde), Laval QC H7N 5Y4",
                        "locality": "Laval",
                        "postcode": "H7N 5Y4",
                        "region": "QC"
                  },
                  "name": "Resto-Bar 1323",
                  "popularity": 0.07381951263054538,
                  "price": 1
            },
            {
                  "distance": 520,
                  "location": {
                        "address": "840 le Corbusier Blvd",
                        "country": "CA",
                        "cross_street": "",
                        "formatted_address": "840 le Corbusier Blvd, Laval QC H7N 0A8",
                        "locality": "Laval",
                        "postcode": "H7N 0A8",
                        "region": "QC"
                  },
                  "name": "Panda d'or",
                  "popularity": 0.9024368472730518,
                  "price": 1
            },
            {
                  "distance": 854,
                  "location": {
                        "address": "1553 le Corbusier Blvd",
                        "country": "CA",
                        "cross_street": "",
                        "formatted_address": "1553 le Corbusier Blvd, Laval QC H7S 1Z3",
                        "locality": "Laval",
                        "postcode": "H7S 1Z3",
                        "region": "QC"
                  },
                  "name": "Boeuf Cochon Steak + Bar",
                  "popularity": 0.9393019726858877,
                  "price": 2
            },
            {
                  "distance": 859,
                  "location": {
                        "address": "1600 le Corbusier Blvd",
                        "address_extended": "Centre Laval",
                        "country": "CA",
                        "cross_street": "Boulevard du Souvenir",
                        "formatted_address": "1600 le Corbusier Blvd (Boulevard du Souvenir), Laval QC H7S 1Y9",
                        "locality": "Laval",
                        "postcode": "H7S 1Y9",
                        "region": "QC"
                  },
                  "name": "Valentine",
                  "popularity": 0.8082656431313041,
                  "price": 1
            },
            {
                  "distance": 884,
                  "location": {
                        "address": "1600 le Corbusier Blvd",
                        "address_extended": "# 2F",
                        "country": "CA",
                        "cross_street": "",
                        "formatted_address": "1600 le Corbusier Blvd, Laval QC H7S 1Y9",
                        "locality": "Laval",
                        "postcode": "H7S 1Y9",
                        "region": "QC"
                  },
                  "name": "Pizza Az",
                  "popularity": 0.7326608944032849
            },
            {
                  "distance": 905,
                  "location": {
                        "address": "387 Cartier Blvd O",
                        "country": "CA",
                        "cross_street": "",
                        "formatted_address": "387 Cartier Blvd O, Laval QC H7N 2K6",
                        "locality": "Laval",
                        "postcode": "H7N 2K6",
                        "region": "QC"
                  },
                  "name": "Pizza D\u00f6ner",
                  "popularity": 0.8418280817638133
            },
            {
                  "distance": 938,
                  "location": {
                        "address": "1600 le Corbusier Blvd",
                        "address_extended": "# 41",
                        "country": "CA",
                        "cross_street": "Boul. St-Martin",
                        "formatted_address": "1600 le Corbusier Blvd (Boul. St-Martin), Laval QC H7S 1Y9",
                        "locality": "Laval",
                        "postcode": "H7S 1Y9",
                        "region": "QC"
                  },
                  "name": "Mikaccino",
                  "popularity": 0.9717040078550389,
                  "price": 1
            },
            {
                  "distance": 955,
                  "location": {
                        "address": "542 Amp\u00e8re",
                        "country": "CA",
                        "cross_street": "Concorde ouest",
                        "formatted_address": "542 Amp\u00e8re (Concorde ouest), Laval QC",
                        "locality": "Laval",
                        "region": "QC"
                  },
                  "name": "Pizza 2 Pour 1",
                  "popularity": 0.7119521556725877,
                  "price": 1
            },
            {
                  "distance": 179,
                  "location": {
                        "address": "555 Lucien-Paiement Rue",
                        "country": "CA",
                        "formatted_address": "555 Lucien-Paiement Rue, Laval QC H7N 0A5",
                        "locality": "Laval",
                        "postcode": "H7N 0A5",
                        "region": "QC"
                  },
                  "name": "Caf\u00e9 D\u00e9p\u00f4t"
            },
            {
                  "distance": 209,
                  "location": {
                        "address": "475 de l'Avenir",
                        "country": "CA",
                        "formatted_address": "475 de l'Avenir, Laval QC H7N 5H9",
                        "locality": "Laval",
                        "postcode": "H7N 5H9",
                        "region": "QC"
                  },
                  "name": "Subway",
                  "store_id": "Restaurant #65426"
            },
            {
                  "distance": 211,
                  "location": {
                        "address": "600 Lucien-Paiement Rue",
                        "address_extended": "Suite 120",
                        "country": "CA",
                        "formatted_address": "600 Lucien-Paiement Rue, Laval QC H7N 0H7",
                        "locality": "Laval",
                        "postcode": "H7N 0H7",
                        "region": "QC"
                  },
                  "name": "Five Guys Burgers & Fries",
                  "store_id": "1970"
            },
            {
                  "distance": 286,
                  "location": {
                        "address": "1950 Rue Claude-Gagn\u00e9",
                        "country": "CA",
                        "formatted_address": "1950 Rue Claude-Gagn\u00e9, Laval QC H7N 5H9",
                        "locality": "Laval",
                        "postcode": "H7N 5H9",
                        "region": "QC"
                  },
                  "name": "1909 Taverne moderne - LVL",
                  "store_id": "3952"
            },
            {
                  "distance": 300,
                  "location": {
                        "address": "1950 Rue Claude-Gagn\u00e9",
                        "country": "CA",
                        "formatted_address": "1950 Rue Claude-Gagn\u00e9, Laval QC H7N 5H9",
                        "locality": "Laval",
                        "postcode": "H7N 5H9",
                        "region": "QC"
                  },
                  "name": "La Cage"
            },
            {
                  "distance": 312,
                  "location": {
                        "address": "1950 rue Claude-Gagn\u00e9",
                        "address_extended": "Suite 304",
                        "country": "CA",
                        "formatted_address": "1950 rue Claude-Gagn\u00e9, Laval QC H7N 5H9",
                        "locality": "Laval",
                        "postcode": "H7N 5H9",
                        "region": "QC"
                  },
                  "name": "Copper Branch"
            },
            {
                  "distance": 439,
                  "location": {
                        "address": "780 le Corbusier Blvd",
                        "country": "CA",
                        "formatted_address": "780 le Corbusier Blvd, Laval QC H7N 0A8",
                        "locality": "Laval",
                        "postcode": "H7N 0A8",
                        "region": "QC"
                  },
                  "name": "D\u00e9jeuners Eggstyle"
            },
            {
                  "distance": 453,
                  "location": {
                        "address": "1323 Blvd de la Concorde O",
                        "country": "CA",
                        "formatted_address": "1323 Blvd de la Concorde O, Laval QC H7N 5Y4",
                        "locality": "Laval",
                        "postcode": "H7N 5Y4",
                        "region": "QC"
                  },
                  "name": "Les Gestions I.p.m.b. Cardinal Inc"
            }
      ],
      "context": {
            "geo_bounds": {
                  "circle": {
                        "center": {
                              "latitude": 45.55814299,
                              "longitude": -73.71942043
                        },
                        "radius": 1000
                  }
            }
      }
}