{
      "results": [
            {
                  "distance": 980,
                  "location": {
                        "address": "360 Saint-Jacques Rue",
                        "country": "CA",
                        "cross_street": "",
                        "formatted_address": "360 Saint-Jacques Rue, Montr\u00e9al QC H2Y 1P5",
                        "locality": "Montreal",
                        "postcode": "H2Y 1P5",
                        "region": "QC"
                  },
                  "name": "Crew Collective & Caf\u00e9",
                  "popularity": 0.9824115253595761,
                  "price": 1,
                  "rating": 9.3
            },
            {
                  "distance": 459,
                  "location": {
                        "address": "1595 Saint-Laurent Blvd",
                        "country": "CA",
                        "cross_street": "entre De Maisonneuve & Ontario",
                        "formatted_address": "1595 Saint-Laurent Blvd (entre De Maisonneuve & Ontario), Montr\u00e9al QC H2X 2S9",
                        "locality": "Montreal",
                        "postcode": "H2X 2S9",
                        "region": "QC"
                  },
                  "name": "Bouillon Bilk",
                  "popularity": 0.962682153671461,
                  "price": 3,
                  "rating": 9.3
            },
            {
                  "distance": 568,
                  "location": {
                        "address": "705 Sainte-Catherine Rue O",
                        "country": "CA",
                        "cross_street": "",
                        "formatted_address": "705 Sainte-Catherine Rue O, Montr\u00e9al QC H3B 4G5",
                        "locality": "Montreal",
                        "postcode": "H3B 4G5",
                        "region": "QC"
                  },
                  "name": "Time Out Market Montr\u00e9al",
                  "popularity": 0.9987107305071915,
                  "price": 2,
                  "rating": 9.1
            },
            {
                  "distance": 595,
                  "location": {
                        "address": "1067 Rue de Bleury",
                        "country": "CA",
                        "cross_street": "De la Gaucheti\u00e8re",
                        "formatted_address": "1067 Rue de Bleury (De la Gaucheti\u00e8re), Montr\u00e9al QC H2Z 1N1",
                        "locality": "Montreal",
                        "postcode": "H2Z 1N1",
                        "region": "QC"
                  },
                  "name": "La Finca caf\u00e9 & bureau",
                  "popularity": 0.9523798258894777,
                  "price": 1,
                  "rating": 9.1
            },
            {
                  "distance": 713,
                  "location": {
                        "address": "19 Prince-Arthur Rue O",
                        "country": "CA",
                        "cross_street": "entre St-Laurent & Clark",
                        "formatted_address": "19 Prince-Arthur Rue O (entre St-Laurent & Clark), Montr\u00e9al QC H2X 1S4",
                        "locality": "Montreal",
                        "postcode": "H2X 1S4",
                        "region": "QC"
                  },
                  "name": "Caf\u00e9 Nocturne",
                  "popularity": 0.9314912944738835,
                  "price": 1,
                  "rating": 9.0
            },
            {
                  "distance": 639,
                  "location": {
                        "address": "1106B Saint Laurent Blvd",
                        "country": "CA",
                        "cross_street": "coin Ren\u00e9-L\u00e9vesque",
                        "formatted_address": "1106B Saint Laurent Blvd (coin Ren\u00e9-L\u00e9vesque), Montr\u00e9al QC H2Z 1J5",
                        "locality": "Montreal",
                        "postcode": "H2Z 1J5",
                        "region": "QC"
                  },
                  "name": "Bar le Mal N\u00e9cessaire",
                  "popularity": 0.9491152535957608,
                  "price": 3,
                  "rating": 9.0
            },
            {
                  "distance": 272,
                  "location": {
                        "address": "1250 Rue de Bleury",
                        "country": "CA",
                        "cross_street": "at Sainte-Catherine",
                        "formatted_address": "1250 Rue de Bleury (at Sainte-Catherine), Montr\u00e9al QC H3B 2W4",
                        "locality": "Montreal",
                        "postcode": "H3B 2W4",
                        "region": "QC"
                  },
                  "name": "Nyks Bistro Pub",
                  "popularity": 0.9770888531415595,
                  "price": 2,
                  "rating": 8.6
            },
            {
                  "distance": 846,
                  "location": {
                        "address": "301 Emery Rue",
                        "country": "CA",
                        "cross_street": "entre St-Denis & Sanguinet",
                        "formatted_address": "301 Emery Rue (entre St-Denis & Sanguinet), Montr\u00e9al QC H2X 1J2",
                        "locality": "Montreal",
                        "postcode": "H2X 1J2",
                        "region": "QC"
                  },
                  "name": "Caf\u00e9 Saint-Henri Quartier Latin",
                  "popularity": 0.9289718962906889,
                  "price": 1,
                  "rating": 8.6
            },
            {
                  "distance": 926,
                  "location": {
                        "address": "1116 Sainte-Catherine Rue O",
                        "country": "CA",
                        "cross_street": "Peel",
                        "formatted_address": "1116 Sainte-Catherine Rue O (Peel), Montr\u00e9al QC H3B 1H4",
                        "locality": "Montreal",
                        "postcode": "H3B 1H4",
                        "region": "QC"
                  },
                  "name": "Reuben's Deli",
                  "popularity": 0.9828136828160484,
                  "price": 2,
                  "rating": 8.6
            },
            {
                  "distance": 973,
                  "location": {
                        "address": "1749 Saint-Denis Rue",
                        "country": "CA",
                        "cross_street": "coin Ontario",
                        "formatted_address": "1749 Saint-Denis Rue (coin Ontario), Montr\u00e9al QC H2X 3K4",
                        "locality": "Montreal",
                        "postcode": "H2X 3K4",
                        "region": "QC"
                  },
                  "name": "Le Saint Bock",
                  "popularity": 0.9721565102195306,
                  "price": 2,
                  "rating": 8.4
            },
            {
                  "distance": 763,
                  "location": {
                        "address": "1006 Saint-Laurent Blvd",
                        "country": "CA",
                        "cross_street": "",
                        "formatted_address": "1006 Saint-Laurent Blvd, Montr\u00e9al QC H2Z 1J3",
                        "locality": "Montreal",
                        "postcode": "H2Z 1J3",
                        "region": "QC"
                  },
                  "name": "Nouilles de Lan Zhou",
                  "popularity": 0.9843868281604845,
                  "price": 2,
                  "rating": 8.3
            },
            {
                  "distance": 738,
                  "location": {
                        "address": "3600 Saint-Laurent Blvd",
                        "address_extended": "coin Prince-Arthur",
                        "country": "CA",
                        "cross_street": "coin Prince-Arthur",
                        "formatted_address": "3600 Saint-Laurent Blvd (coin Prince-Arthur), Montr\u00e9al QC H2X 2V4",
                        "locality": "Montreal",
                        "postcode": "H2X 2V4",
                        "region": "QC"
                  },
                  "name": "Juliette et Chocolat",
                  "popularity": 0.971304882664648,
                  "price": 2,
                  "rating": 8.2
            },
            {
                  "distance": 477,
                  "location": {
                        "address": "51 Sherbrooke Rue O",
                        "country": "CA",
                        "cross_street": "coin Clark",
                        "formatted_address": "51 Sherbrooke Rue O (coin Clark), Montr\u00e9al QC H2X 1X2",
                        "locality": "Montreal",
                        "postcode": "H2X 1X2",
                        "region": "QC"
                  },
                  "name": "Caf\u00e9 OSMO",
                  "popularity": 0.9720027441332324,
                  "price": 1,
                  "rating": 8.2
            },
            {
                  "distance": 254,
                  "location": {
                        "address": "245 Sherbrooke Rue O",
                        "country": "CA",
                        "cross_street": "coin Jeanne-Mance",
                        "formatted_address": "245 Sherbrooke Rue O (coin Jeanne-Mance), Montr\u00e9al QC H2X 1X7",
                        "locality": "Montreal",
                        "postcode": "H2X 1X7",
                        "region": "QC"
                  },
                  "name": "Benelux",
                  "popularity": 0.9719790878122634,
                  "price": 1,
                  "rating": 8.2
            },
            {
                  "distance": 309,
                  "location": {
                        "address": "150 St Catherine Rue W",
                        "address_extended": "Room 201C",
                        "country": "CA",
                        "cross_street": "",
                        "formatted_address": "150 St Catherine Rue W, Montr\u00e9al QC H2X 3Y2",
                        "locality": "Montreal",
                        "postcode": "H2X 3Y2",
                        "region": "QC"
                  },
                  "name": "La Cage",
                  "popularity": 0.9884202308856926,
                  "price": 2,
                  "rating": 8.2,
                  "store_id": "LC_08"
            },
            {
                  "distance": 948,
                  "location": {
                        "address": "1567 Saint-Denis Rue",
                        "country": "CA",
                        "cross_street": "coin De Maisonneuve",
                        "formatted_address": "1567 Saint-Denis Rue (coin De Maisonneuve), Montr\u00e9al QC H2X 3K3",
                        "locality": "Montreal",
                        "postcode": "H2X 3K3",
                        "region": "QC"
                  },
                  "name": "Saint-Houblon",
                  "popularity": 0.9718608062074187,
                  "price": 3,
                  "rating": 8.2
            },
            {
                  "distance": 653,
                  "location": {
                        "address": "3515 Saint-Laurent Blvd",
                        "country": "CA",
                        "cross_street": "entre Sherbrooke & Prince-Arthur",
                        "formatted_address": "3515 Saint-Laurent Blvd (entre Sherbrooke & Prince-Arthur), Montr\u00e9al QC H2X 2T6",
                        "locality": "Montreal",
                        "postcode": "H2X 2T6",
                        "region": "QC"
                  },
                  "name": "McKibbin's Irish Pub",
                  "popularity": 0.9739189061317184,
                  "price": 2,
                  "rating": 8.2
            },
            {
                  "distance": 447,
                  "location": {
                        "address": "1579 Saint-Laurent Blvd",
                        "country": "CA",
                        "cross_street": "",
                        "formatted_address": "1579 Saint-Laurent Blvd, Montr\u00e9al QC H2X 2S9",
                        "locality": "Montreal",
                        "postcode": "H2X 2S9",
                        "region": "QC"
                  },
                  "name": "Bar Pamplemousse",
                  "popularity": 0.9600563020439061,
                  "rating": 8.1
            },
            {
                  "distance": 540,
                  "location": {
                        "address": "1250 Robert-Bourassa Blvd",
                        "country": "CA",
                        "cross_street": "",
                        "formatted_address": "1250 Robert-Bourassa Blvd, Montr\u00e9al QC H3B 3B8",
                        "locality": "Montreal",
                        "postcode": "H3B 3B8",
                        "region": "QC"
                  },
                  "name": "Le East",
                  "popularity": 0.9653316616199848,
                  "price": 2,
                  "rating": 8.1
            },
            {
                  "distance": 508,
                  "location": {
                        "address": "1080 Rue de Bleury",
                        "country": "CA",
                        "cross_street": "",
                        "formatted_address": "1080 Rue de Bleury, Montr\u00e9al QC H2Z 1N2",
                        "locality": "Montreal",
                        "postcode": "H2Z 1N2",
                        "region": "QC"
                  },
                  "name": "Chifa",
                  "popularity": 0.9603165215745647,
                  "price": 2,
                  "rating": 8.0
            },
            {
                  "distance": 613,
                  "location": {
                        "address": "732 Sainte-Catherine Rue O",
                        "country": "CA",
                        "cross_street": "McGill Av.",
                        "formatted_address": "732 Sainte-Catherine Rue O (McGill Av.), Montr\u00e9al QC H3B 1B9",
                        "locality": "Montreal",
                        "postcode": "H3B 1B9",
                        "region": "QC"
                  },
                  "name": "Les 3 Brasseurs",
                  "popularity": 0.9831566994700984,
                  "price": 2,
                  "rating": 8.0
            },
            {
                  "distance": 956,
                  "location": {
                        "address": "1649 Saint-Denis Rue",
                        "country": "CA",
                        "cross_street": "entre Emery & Ontario",
                        "formatted_address": "1649 Saint-Denis Rue (entre Emery & Ontario), Montr\u00e9al QC H2X 3K4",
                        "locality": "Montreal",
                        "postcode": "H2X 3K4",
                        "region": "QC"
                  },
                  "name": "Pub l'Ile Noire",
                  "popularity": 0.9520841218773657,
                  "price": 2,
                  "rating": 7.9
            },
            {
                  "distance": 711,
                  "location": {
                        "address": "20 Prince-Arthur Rue O",
                        "country": "CA",
                        "cross_street": "coin Saint-Laurent",
                        "formatted_address": "20 Prince-Arthur Rue O (coin Saint-Laurent), Montr\u00e9al QC H2X 1S3",
                        "locality": "Montreal",
                        "postcode": "H2X 1S3",
                        "region": "QC"
                  },
                  "name": "Ye Olde Orchard Pub & Grill",
                  "popularity": 0.9363171839515518,
                  "price": 2,
                  "rating": 7.8
            },
            {
                  "distance": 955,
                  "location": {
                        "address": "701 cote de la Place-d'Armes",
                        "country": "CA",
                        "cross_street": "St-Jacques",
                        "formatted_address": "701 cote de la Place-d'Armes (St-Jacques), Montr\u00e9al QC H2Y 2X6",
                        "locality": "Montreal",
                        "postcode": "H2Y 2X6",
                        "region": "QC"
                  },
                  "name": "Suite 701",
                  "popularity": 0.9388720666161998,
                  "price": 2,
                  "rating": 7.8
            },
            {
                  "distance": 402,
                  "location": {
                        "address": "224 Milton Rue",
                        "country": "CA",
                        "cross_street": "",
                        "formatted_address": "224 Milton Rue, Montr\u00e9al QC H2X 1V6",
                        "locality": "Montreal",
                        "postcode": "H2X 1V6",
                        "region": "QC"
                  },
                  "name": "Mae Sri Comptoir Thai",
                  "popularity": 0.9586132664647994,
                  "price": 2,
                  "rating": 7.7
            },
            {
                  "distance": 671,
                  "location": {
                        "address": "1 Ville-Marie Pl",
                        "country": "CA",
                        "cross_street": "Robert-Bourassa",
                        "formatted_address": "1 Ville-Marie Pl (Robert-Bourassa), Montr\u00e9al QC H3B 2C4",
                        "locality": "Montreal",
                        "postcode": "H3B 2C4",
                        "region": "QC"
                  },
                  "name": "Les Enfants Terribles",
                  "popularity": 0.9822814155942468,
                  "price": 3,
                  "rating": 7.7
            },
            {
                  "distance": 817,
                  "location": {
                        "address": "1249 Metcalfe Rue",
                        "country": "CA",
                        "cross_street": "entre Sainte-Catherine Ouest et Square Dorchester",
                        "formatted_address": "1249 Metcalfe Rue (entre Sainte-Catherine Ouest et Square Dorchester), Montr\u00e9al QC H3B 2V5",
                        "locality": "Montreal",
                        "postcode": "H3B 2V5",
                        "region": "QC"
                  },
                  "name": "Dunn's Famous",
                  "popularity": 0.9749716124148372,
                  "price": 2,
                  "rating": 7.6
            },
            {
                  "distance": 914,
                  "location": {
                        "address": "1210 Peel Rue",
                        "country": "CA",
                        "cross_street": "btwn Ste-Catherine & Cypress",
                        "formatted_address": "1210 Peel Rue (btwn Ste-Catherine & Cypress), Montr\u00e9al QC H3B 2T6",
                        "locality": "Montreal",
                        "postcode": "H3B 2T6",
                        "region": "QC"
                  },
                  "name": "McLean's Pub",
                  "popularity": 0.9849190953822862,
                  "price": 1,
                  "rating": 7.5
            },
            {
                  "distance": 648,
                  "location": {
                        "address": "1251 McGill College Ave",
                        "country": "CA",
                        "cross_street": "Rue Sainte-Catherine O",
                        "formatted_address": "1251 McGill College Ave (Rue Sainte-Catherine O), Montr\u00e9al QC H3B 2Y4",
                        "locality": "Montreal",
                        "postcode": "H3B 2Y4",
                        "region": "QC"
                  },
                  "name": "Enoteca Monza Pizzeria Moderna",
                  "popularity": 0.9676736373959122,
                  "price": 2,
                  "rating": 7.5
            },
            {
                  "distance": 620,
                  "location": {
                        "address": "1111 Saint-Urbain Rue",
                        "address_extended": "M05",
                        "country": "CA",
                        "cross_street": "coin Ren\u00e9-Levesque",
                        "formatted_address": "1111 Saint-Urbain Rue (coin Ren\u00e9-Levesque), Montr\u00e9al QC H2Z 1Y6",
                        "locality": "Montreal",
                        "postcode": "H2Z 1Y6",
                        "region": "QC"
                  },
                  "name": "Maison Kam Fung",
                  "popularity": 0.9822695874337622,
                  "price": 2,
                  "rating": 7.5
            },
            {
                  "distance": 379,
                  "location": {
                        "address": "93 St Catherine Rue O",
                        "country": "CA",
                        "cross_street": "",
                        "formatted_address": "93 St Catherine Rue O, Montr\u00e9al QC H2X 1Z7",
                        "locality": "Montreal",
                        "postcode": "H2X 1Z7",
                        "region": "QC"
                  },
                  "name": "Tim Hortons",
                  "popularity": 0.980542676003028,
                  "price": 1,
                  "rating": 7.5
            },
            {
                  "distance": 828,
                  "location": {
                        "address": "360 Saint-Antoine Rue O",
                        "country": "CA",
                        "cross_street": "Rue de Bleury",
                        "formatted_address": "360 Saint-Antoine Rue O (Rue de Bleury), Montr\u00e9al QC H2Y 3X4",
                        "locality": "Montreal",
                        "postcode": "H2Y 3X4",
                        "region": "QC"
                  },
                  "name": "Caf\u00e9 Java U",
                  "popularity": 0.9570046366389099,
                  "price": 1,
                  "rating": 7.4
            },
            {
                  "distance": 967,
                  "location": {
                        "address": "1490 Stanley Rue",
                        "country": "CA",
                        "cross_street": "coin de Maisonneuve",
                        "formatted_address": "1490 Stanley Rue (coin de Maisonneuve), Montr\u00e9al QC H3A 1P7",
                        "locality": "Montreal",
                        "postcode": "H3A 1P7",
                        "region": "QC"
                  },
                  "name": "Firegrill Restaurant & Bar",
                  "popularity": 0.9710801476154428,
                  "price": 3,
                  "rating": 7.4
            },
            {
                  "distance": 390,
                  "location": {
                        "address": "3498 Ave du Parc",
                        "country": "CA",
                        "cross_street": "Milton Street",
                        "formatted_address": "3498 Ave du Parc (Milton Street), Montr\u00e9al QC H2X 2H5",
                        "locality": "Montreal",
                        "postcode": "H2X 2H5",
                        "region": "QC"
                  },
                  "name": "Milton B",
                  "popularity": 0.9634864685844058,
                  "price": 1,
                  "rating": 7.4
            },
            {
                  "distance": 965,
                  "location": {
                        "address": "380 Saint-Jacques Rue",
                        "country": "CA",
                        "cross_street": "entre McGill & St-Pierre",
                        "formatted_address": "380 Saint-Jacques Rue (entre McGill & St-Pierre), Montr\u00e9al QC H2Y 1S1",
                        "locality": "Montreal",
                        "postcode": "H2Y 1S1",
                        "region": "QC"
                  },
                  "name": "S\u00e9same",
                  "popularity": 0.9366365442846328,
                  "price": 2,
                  "rating": 7.3
            }
      ],
      "context": {
            "geo_bounds": {
                  "circle": {
                        "center": {
                              "latitude": 45.50764393,
                              "longitude": -73.56932402
                        },
                        "radius": 1000
                  }
            }
      }
}