{
      "results": [
            {
                  "distance": 895,
                  "location": {
                        "address": "3131 Blvd de la C\u00f4te-Vertu",
                        "address_extended": "Place Vertu",
                        "country": "CA",
                        "cross_street": "",
                        "formatted_address": "3131 Blvd de la C\u00f4te-Vertu, Montr\u00e9al QC H4R 1Y8",
                        "locality": "Montreal",
                        "postcode": "H4R 1Y8",
                        "region": "QC"
                  },
                  "name": "All\u00f4! Mon Coco",
                  "popularity": 0.9950913133989402,
                  "price": 1,
                  "rating": 7.9
            },
            {
                  "distance": 755,
                  "location": {
                        "address": "2525 des Nations",
                        "country": "CA",
                        "cross_street": "Boul Poirier",
                        "formatted_address": "2525 des Nations (Boul Poirier), Montreal QC",
                        "locality": "Montreal",
                        "region": "QC"
                  },
                  "name": "Challenger la Piazza",
                  "popularity": 0.9462291824375473,
                  "price": 2,
                  "rating": 7.0
            },
            {
                  "distance": 772,
                  "location": {
                        "address": "2505 des Nations Rue",
                        "address_extended": "Bombardier",
                        "country": "CA",
                        "cross_street": "at Bois Franc",
                        "formatted_address": "2505 des Nations Rue (at Bois Franc), Saint-Laurent QC H4R 3C8",
                        "locality": "Saint-Laurent",
                        "postcode": "H4R 3C8",
                        "region": "QC"
                  },
                  "name": "Caf\u00e9 D\u00e9p\u00f4t",
                  "popularity": 0.983712623012869,
                  "price": 1,
                  "rating": 6.9
            },
            {
                  "distance": 917,
                  "location": {
                        "address": "3131 Vertu Blvd Cote",
                        "address_extended": "Fc39",
                        "country": "CA",
                        "cross_street": "Beaulac",
                        "formatted_address": "3131 Vertu Blvd Cote (Beaulac), Saint-Laurent QC H4R 1Y5",
                        "locality": "Saint-Laurent",
                        "postcode": "H4R 1Y5",
                        "region": "QC"
                  },
                  "name": "Subway",
                  "popularity": 0.9121640802422407,
                  "price": 1,
                  "rating": 5.6,
                  "store_id": "19298"
            },
            {
                  "distance": 902,
                  "location": {
                        "address": "3131 de la Cote-Vertu Blvd",
                        "address_extended": "Place Vertu",
                        "country": "CA",
                        "cross_street": "btwn rue Beaulac & boul. Cavendish",
                        "formatted_address": "3131 de la Cote-Vertu Blvd (btwn rue Beaulac & boul. Cavendish), Saint-Laurent QC H4R 1Y8",
                        "locality": "Saint-Laurent",
                        "postcode": "H4R 1Y8",
                        "region": "QC"
                  },
                  "name": "McDonald's",
                  "popularity": 0.9972440386071159,
                  "price": 1,
                  "rating": 5.6
            },
            {
                  "distance": 546,
                  "location": {
                        "address": "2500 des Nations Rue",
                        "country": "CA",
                        "cross_street": "",
                        "formatted_address": "2500 des Nations Rue, Montr\u00e9al QC H4R 3J9",
                        "locality": "Montreal",
                        "postcode": "H4R 3J9",
                        "region": "QC"
                  },
                  "name": "Nirvana Sushi",
                  "popularity": 0.8738763247539743,
                  "price": 2
            },
            {
                  "distance": 866,
                  "location": {
                        "address": "3512 Ashby Rue",
                        "country": "CA",
                        "cross_street": "Begin",
                        "formatted_address": "3512 Ashby Rue (Begin), Saint-Laurent QC H4R 2C1",
                        "locality": "Saint-Laurent",
                        "postcode": "H4R 2C1",
                        "region": "QC"
                  },
                  "name": "S & M Coffee Svc",
                  "popularity": 0.30968489780469344
            },
            {
                  "distance": 881,
                  "location": {
                        "address": "3131 de la Cote-Vertu Blvd",
                        "address_extended": "Place Vertu",
                        "country": "CA",
                        "cross_street": "Cavendish",
                        "formatted_address": "3131 de la Cote-Vertu Blvd (Cavendish), Saint-Laurent QC H4R 1Y8",
                        "locality": "Saint-Laurent",
                        "postcode": "H4R 1Y8",
                        "region": "QC"
                  },
                  "name": "Grillades Torino",
                  "popularity": 0.9721801665404997,
                  "price": 2,
                  "store_id": "GT015"
            },
            {
                  "distance": 888,
                  "location": {
                        "address": "5800 Cavendish",
                        "country": "CA",
                        "cross_street": "",
                        "formatted_address": "5800 Cavendish, Roxboro QC",
                        "locality": "Roxboro",
                        "region": "QC"
                  },
                  "name": "MMMuffins",
                  "popularity": 0.08065622634367903,
                  "price": 1
            },
            {
                  "distance": 910,
                  "location": {
                        "address": "3131 Blvd de la Cote-vertu",
                        "address_extended": "Place Vertu",
                        "country": "CA",
                        "cross_street": "",
                        "formatted_address": "3131 Blvd de la Cote-vertu, Saint-Laurent QC H4R 1Y8",
                        "locality": "Saint-Laurent",
                        "postcode": "H4R 1Y8",
                        "region": "QC"
                  },
                  "name": "Tim Hortons",
                  "popularity": 0.37274082134746406,
                  "price": 1
            },
            {
                  "distance": 913,
                  "location": {
                        "address": "3131 Blvd de la C\u00f4te-Vertu",
                        "country": "CA",
                        "cross_street": "",
                        "formatted_address": "3131 Blvd de la C\u00f4te-Vertu, Saint-Laurent QC H4R 1Y8",
                        "locality": "Saint-Laurent",
                        "postcode": "H4R 1Y8",
                        "region": "QC"
                  },
                  "name": "Nickels Deli Express - Place Vertu",
                  "popularity": 0.4921224451173353,
                  "price": 2
            },
            {
                  "distance": 952,
                  "location": {
                        "address": "3131 de la Cote-Vertu Blvd",
                        "address_extended": "Place Vertu",
                        "country": "CA",
                        "cross_street": "",
                        "formatted_address": "3131 de la Cote-Vertu Blvd, Saint-Laurent QC H4R 1Y8",
                        "locality": "Saint-Laurent",
                        "postcode": "H4R 1Y8",
                        "region": "QC"
                  },
                  "name": "Place Tevere",
                  "popularity": 0.7599356548069645,
                  "price": 2
            },
            {
                  "distance": 1129,
                  "location": {
                        "address": "3131 Blvd de la C\u00f4te-Vertu",
                        "address_extended": "Place Vertu",
                        "country": "CA",
                        "cross_street": "Cavendish",
                        "formatted_address": "3131 Blvd de la C\u00f4te-Vertu (Cavendish), Saint-Laurent QC H4R 1Y8",
                        "locality": "Saint-Laurent",
                        "postcode": "H4R 1Y8",
                        "region": "QC"
                  },
                  "name": "Caf\u00e9 D\u00e9p\u00f4t",
                  "popularity": 0.009285105980317942,
                  "price": 1
            },
            {
                  "distance": 1129,
                  "location": {
                        "address": "3131 Blvd C\u00f4te Vertu",
                        "address_extended": "M-8",
                        "country": "CA",
                        "cross_street": "Cavendish",
                        "formatted_address": "3131 Blvd C\u00f4te Vertu (Cavendish), Saint-Laurent QC H4R 1Y8",
                        "locality": "Saint-Laurent",
                        "postcode": "H4R 1Y8",
                        "region": "QC"
                  },
                  "name": "Tiki-Ming",
                  "popularity": 0.9272804693414081,
                  "price": 1
            },
            {
                  "distance": 728,
                  "location": {
                        "address": "2385 Thimens Blvd",
                        "country": "CA",
                        "formatted_address": "2385 Thimens Blvd, Saint-Laurent QC H4R 1T4",
                        "locality": "Saint-Laurent",
                        "postcode": "H4R 1T4",
                        "region": "QC"
                  },
                  "name": "Unigertec Inc"
            },
            {
                  "distance": 752,
                  "location": {
                        "address": "2525 des Nations Rue",
                        "country": "CA",
                        "formatted_address": "2525 des Nations Rue, Saint-Laurent QC H4R 3C8",
                        "locality": "Saint-Laurent",
                        "postcode": "H4R 3C8",
                        "region": "QC"
                  },
                  "name": "Ristorante la Piazza"
            },
            {
                  "distance": 880,
                  "location": {
                        "address": "3205 Blvd de la Cote-Vertu",
                        "country": "CA",
                        "formatted_address": "3205 Blvd de la Cote-Vertu, Saint-Laurent QC H4R 1Y5",
                        "locality": "Saint-Laurent",
                        "postcode": "H4R 1Y5",
                        "region": "QC"
                  },
                  "name": "Caf\u00e9 Tea Time Inc"
            },
            {
                  "distance": 917,
                  "location": {
                        "address": "3131 Blvd de la C\u00f4te-Vertu",
                        "country": "CA",
                        "formatted_address": "3131 Blvd de la C\u00f4te-Vertu, Saint-Laurent QC H4R 1Y8",
                        "locality": "Saint-Laurent",
                        "postcode": "H4R 1Y8",
                        "region": "QC"
                  },
                  "name": "Aqua Massage"
            },
            {
                  "distance": 919,
                  "location": {
                        "address": "3131 Blvd de la C\u00f4te-Vertu",
                        "country": "CA",
                        "formatted_address": "3131 Blvd de la C\u00f4te-Vertu, Saint-Laurent QC H4R 1Y8",
                        "locality": "Saint-Laurent",
                        "postcode": "H4R 1Y8",
                        "region": "QC"
                  },
                  "name": "Teriyaki Experience"
            },
            {
                  "distance": 919,
                  "location": {
                        "address": "3131 de la Cote-Vertu Blvd",
                        "address_extended": "Place Vertu",
                        "country": "CA",
                        "formatted_address": "3131 de la Cote-Vertu Blvd, Saint-Laurent QC H4R 1Y8",
                        "locality": "Saint-Laurent",
                        "postcode": "H4R 1Y8",
                        "region": "QC"
                  },
                  "name": "Creations Chop Crazy"
            },
            {
                  "distance": 920,
                  "location": {
                        "address": "3500 Cotevertu Rd 180",
                        "country": "CA",
                        "formatted_address": "3500 Cotevertu Rd 180, Saint-Laurent QC H4R 1P8",
                        "locality": "Saint-Laurent",
                        "postcode": "H4R 1P8",
                        "region": "QC"
                  },
                  "name": "Subway",
                  "store_id": "44695"
            },
            {
                  "distance": 942,
                  "location": {
                        "address": "6625 Victoria Ave",
                        "country": "CA",
                        "formatted_address": "6625 Victoria Ave, Montreal QC H3W 2T2",
                        "locality": "Montreal",
                        "postcode": "H3W 2T2",
                        "region": "QC"
                  },
                  "name": "Restaurant Pfk"
            },
            {
                  "distance": 954,
                  "location": {
                        "address": "7405 Transcanadienne Rte",
                        "country": "CA",
                        "formatted_address": "7405 Transcanadienne Rte, Saint-Laurent QC H4T 1Z2",
                        "locality": "Saint-Laurent",
                        "postcode": "H4T 1Z2",
                        "region": "QC"
                  },
                  "name": "Cafe T Can"
            }
      ],
      "context": {
            "geo_bounds": {
                  "circle": {
                        "center": {
                              "latitude": 45.50617584,
                              "longitude": -73.71118605
                        },
                        "radius": 1000
                  }
            }
      }
}