{
      "results": [
            {
                  "distance": 534,
                  "location": {
                        "address": "1201 Van Horne Ave",
                        "country": "CA",
                        "cross_street": "",
                        "formatted_address": "1201 Van Horne Ave, Montr\u00e9al QC H2V 1K4",
                        "locality": "Montreal",
                        "postcode": "H2V 1K4",
                        "region": "QC"
                  },
                  "name": "Damas",
                  "popularity": 0.9677446063588191,
                  "price": 4,
                  "rating": 9.4
            },
            {
                  "distance": 723,
                  "location": {
                        "address": "1311 Bernard Ave",
                        "country": "CA",
                        "cross_street": "coin Outremont",
                        "formatted_address": "1311 Bernard Ave (coin Outremont), Montr\u00e9al QC H2V 1W1",
                        "locality": "Montreal",
                        "postcode": "H2V 1W1",
                        "region": "QC"
                  },
                  "name": "Le Glacier Bilboquet",
                  "popularity": 0.9378075321725965,
                  "price": 2,
                  "rating": 9.0
            },
            {
                  "distance": 737,
                  "location": {
                        "address": "1001 Jean-Talon Rue O",
                        "country": "CA",
                        "cross_street": "at Birnam",
                        "formatted_address": "1001 Jean-Talon Rue O (at Birnam), Montr\u00e9al QC H3N 1T2",
                        "locality": "Montreal",
                        "postcode": "H3N 1T2",
                        "region": "QC"
                  },
                  "name": "Restaurant Bombay Mahal",
                  "popularity": 0.9612864307342922,
                  "price": 2,
                  "rating": 8.6
            },
            {
                  "distance": 960,
                  "location": {
                        "address": "1057 Bernard Ave",
                        "country": "CA",
                        "cross_street": "entre Durocher & Querbes",
                        "formatted_address": "1057 Bernard Ave (entre Durocher & Querbes), Outremont QC H2V 1V1",
                        "locality": "Outremont",
                        "postcode": "H2V 1V1",
                        "region": "QC"
                  },
                  "name": "Lester's Aaa Delicatessen",
                  "popularity": 0.9608606169568509,
                  "price": 2,
                  "rating": 8.3
            },
            {
                  "distance": 918,
                  "location": {
                        "address": "654 Jean-Talon Rue O",
                        "country": "CA",
                        "cross_street": "",
                        "formatted_address": "654 Jean-Talon Rue O, Montr\u00e9al QC H3N 1R7",
                        "locality": "Montreal",
                        "postcode": "H3N 1R7",
                        "region": "QC"
                  },
                  "name": "Restaurant Village Grecque Inc",
                  "popularity": 0.9827663701741105,
                  "price": 2,
                  "rating": 8.1
            },
            {
                  "distance": 767,
                  "location": {
                        "address": "11265 Bernard Ave",
                        "country": "CA",
                        "cross_street": "btwn Ave. Champagneur & Ave. Outremont",
                        "formatted_address": "11265 Bernard Ave (btwn Ave. Champagneur & Ave. Outremont), Montr\u00e9al QC H2V 1V8",
                        "locality": "Montreal",
                        "postcode": "H2V 1V8",
                        "region": "QC"
                  },
                  "name": "Restaurant le Petit Italien",
                  "popularity": 0.9217094057532172,
                  "price": 3,
                  "rating": 8.1
            },
            {
                  "distance": 733,
                  "location": {
                        "address": "996 Jean-Talon Rue O",
                        "country": "CA",
                        "cross_street": "Brinam",
                        "formatted_address": "996 Jean-Talon Rue O (Brinam), Montr\u00e9al QC H3N 1S8",
                        "locality": "Montreal",
                        "postcode": "H3N 1S8",
                        "region": "QC"
                  },
                  "name": "Indian Curry House",
                  "popularity": 0.9859244890234671,
                  "price": 1,
                  "rating": 8.1
            },
            {
                  "distance": 264,
                  "location": {
                        "address": "1464 Van Horne Ave",
                        "country": "CA",
                        "cross_street": "entre Stuart & Dollard",
                        "formatted_address": "1464 Van Horne Ave (entre Stuart & Dollard), Outremont QC H2V 1L2",
                        "locality": "Outremont",
                        "postcode": "H2V 1L2",
                        "region": "QC"
                  },
                  "name": "Paltoquet",
                  "popularity": 0.9282503785011355,
                  "price": 1,
                  "rating": 8.0
            },
            {
                  "distance": 953,
                  "location": {
                        "address": "386 Beaumont Ave",
                        "country": "CA",
                        "cross_street": "",
                        "formatted_address": "386 Beaumont Ave, Montr\u00e9al QC H3N 1T4",
                        "locality": "Montreal",
                        "postcode": "H3N 1T4",
                        "region": "QC"
                  },
                  "name": "Denise",
                  "popularity": 0.9686553747161242,
                  "price": 2,
                  "rating": 7.9
            },
            {
                  "distance": 758,
                  "location": {
                        "address": "920 Jean-Talon Rue O",
                        "country": "CA",
                        "cross_street": "",
                        "formatted_address": "920 Jean-Talon Rue O, Montr\u00e9al QC H3N 1S6",
                        "locality": "Montreal",
                        "postcode": "H3N 1S6",
                        "region": "QC"
                  },
                  "name": "Punjab Palace",
                  "popularity": 0.9633563588190764,
                  "price": 2,
                  "rating": 7.8
            },
            {
                  "distance": 586,
                  "location": {
                        "address": "1333 Van Horne Ave",
                        "country": "CA",
                        "cross_street": "",
                        "formatted_address": "1333 Van Horne Ave, Montr\u00e9al QC H2V 1K7",
                        "locality": "Montreal",
                        "postcode": "H2V 1K7",
                        "region": "QC"
                  },
                  "name": "Lescurier Tradition Gourmande",
                  "popularity": 0.8525974640423921,
                  "price": 1,
                  "rating": 7.6
            },
            {
                  "distance": 756,
                  "location": {
                        "address": "1271 Bernard Ave",
                        "country": "CA",
                        "cross_street": "coin Champagneur",
                        "formatted_address": "1271 Bernard Ave (coin Champagneur), Outremont QC H2V 1V8",
                        "locality": "Outremont",
                        "postcode": "H2V 1V8",
                        "region": "QC"
                  },
                  "name": "Boulangerie Premiere Moisson",
                  "popularity": 0.8833861657834974,
                  "price": 1,
                  "rating": 7.4
            },
            {
                  "distance": 813,
                  "location": {
                        "address": "1224 Bernard Ave",
                        "country": "CA",
                        "formatted_address": "1224 Bernard Ave, Outremont QC H2V 1V6",
                        "locality": "Outremont",
                        "postcode": "H2V 1V6",
                        "region": "QC"
                  },
                  "name": "Un Amour des Th\u00e9s",
                  "popularity": 0.4476367335352006,
                  "price": 2,
                  "rating": 7.4
            },
            {
                  "distance": 775,
                  "location": {
                        "address": "1041 Van Horne Ave",
                        "country": "CA",
                        "cross_street": "Durocher",
                        "formatted_address": "1041 Van Horne Ave (Durocher), Montr\u00e9al QC H2V 1J4",
                        "locality": "Montreal",
                        "postcode": "H2V 1J4",
                        "region": "QC"
                  },
                  "name": "Boxermans",
                  "popularity": 0.9236728803936411,
                  "price": 2,
                  "rating": 6.9
            },
            {
                  "distance": 623,
                  "location": {
                        "address": "5660 Cote-Des-Neiges",
                        "country": "CA",
                        "cross_street": "Cote st catherine",
                        "formatted_address": "5660 Cote-Des-Neiges (Cote st catherine), Montr\u00e9al QC H3T 2A8",
                        "locality": "Montreal",
                        "postcode": "H3T 2A8",
                        "region": "QC"
                  },
                  "name": "Thai Express",
                  "popularity": 0.308987036336109,
                  "price": 2,
                  "rating": 6.3
            },
            {
                  "distance": 279,
                  "location": {
                        "address": "1452 Van Horne Ave",
                        "country": "CA",
                        "cross_street": "coin av. Stuart",
                        "formatted_address": "1452 Van Horne Ave (coin av. Stuart), Outremont QC H2V 1L2",
                        "locality": "Outremont",
                        "postcode": "H2V 1L2",
                        "region": "QC"
                  },
                  "name": "Subway",
                  "popularity": 0.32512064723694173,
                  "price": 1,
                  "rating": 6.2,
                  "store_id": "41805"
            },
            {
                  "distance": 739,
                  "location": {
                        "address": "1275 Bernard Ave",
                        "country": "CA",
                        "cross_street": "",
                        "formatted_address": "1275 Bernard Ave, Outremont QC H2V 1V8",
                        "locality": "Outremont",
                        "postcode": "H2V 1V8",
                        "region": "QC"
                  },
                  "name": "Second Cup Coffee Co",
                  "popularity": 0.8932863361090083,
                  "price": 1,
                  "rating": 5.8,
                  "store_id": "3211"
            },
            {
                  "distance": 506,
                  "location": {
                        "address": "1300 Beaumont Ave",
                        "country": "CA",
                        "formatted_address": "1300 Beaumont Ave, Montr\u00e9al QC H3P 3E5",
                        "locality": "Montreal",
                        "postcode": "H3P 3E5",
                        "region": "QC"
                  },
                  "name": "McDonald's",
                  "popularity": 0.9923708364875095,
                  "price": 1,
                  "rating": 4.8,
                  "store_id": "5095"
            },
            {
                  "distance": 231,
                  "location": {
                        "address": "1541 Van Horne Ave",
                        "country": "CA",
                        "cross_street": "Av McEachran",
                        "formatted_address": "1541 Van Horne Ave (Av McEachran), Montr\u00e9al QC H2V 1L4",
                        "locality": "Montreal",
                        "postcode": "H2V 1L4",
                        "region": "QC"
                  },
                  "name": "Roch le Coq",
                  "popularity": 0.9616531037093111,
                  "price": 1
            },
            {
                  "distance": 246,
                  "location": {
                        "address": "1541 Van Horne",
                        "country": "CA",
                        "cross_street": "",
                        "formatted_address": "1541 Van Horne, Montreal QC H3S 2T5",
                        "locality": "Montreal",
                        "postcode": "H3S 2T5",
                        "region": "QC"
                  },
                  "name": "Pendeli's",
                  "popularity": 0.6617500946252839,
                  "price": 1
            },
            {
                  "distance": 258,
                  "location": {
                        "address": "1461 Van Horne Ave",
                        "country": "CA",
                        "cross_street": "",
                        "formatted_address": "1461 Van Horne Ave, Montr\u00e9al QC H2V 1L3",
                        "locality": "Montreal",
                        "postcode": "H2V 1L3",
                        "region": "QC"
                  },
                  "name": "Caf\u00e9 DAX",
                  "popularity": 0.9622090272520818,
                  "price": 1
            },
            {
                  "distance": 374,
                  "location": {
                        "address": "1317 Van Horne Ave",
                        "country": "CA",
                        "cross_street": "",
                        "formatted_address": "1317 Van Horne Ave, Montr\u00e9al QC H2V 1K7",
                        "locality": "Montreal",
                        "postcode": "H2V 1K7",
                        "region": "QC"
                  },
                  "name": "Caf\u00e9 Dante",
                  "popularity": 0.9554314912944739,
                  "price": 1
            },
            {
                  "distance": 504,
                  "location": {
                        "address": "1100 Beaumont Ave",
                        "country": "CA",
                        "cross_street": "Acadie",
                        "formatted_address": "1100 Beaumont Ave (Acadie), Montr\u00e9al QC H3P 3H5",
                        "locality": "Montreal",
                        "postcode": "H3P 3H5",
                        "region": "QC"
                  },
                  "name": "Cartier Caf\u00e9 BIstro",
                  "popularity": 0.9433076267978804,
                  "price": 1
            },
            {
                  "distance": 538,
                  "location": {
                        "address": "950 Beaumont Ave",
                        "address_extended": "Suite 105",
                        "country": "CA",
                        "cross_street": "L'Acadie Boulevard",
                        "formatted_address": "950 Beaumont Ave (L'Acadie Boulevard), Montr\u00e9al QC H3N 1V5",
                        "locality": "Montreal",
                        "postcode": "H3N 1V5",
                        "region": "QC"
                  },
                  "name": "Beau Mont",
                  "popularity": 0.9565433383800152,
                  "price": 3
            },
            {
                  "distance": 637,
                  "location": {
                        "address": "1142 Van Horne Ave",
                        "country": "CA",
                        "cross_street": "",
                        "formatted_address": "1142 Van Horne Ave, Montr\u00e9al QC H2V 1J8",
                        "locality": "Montreal",
                        "postcode": "H2V 1J8",
                        "region": "QC"
                  },
                  "name": "Boucherie Bar \u00e0 vin Provisions",
                  "popularity": 0.9643026116578349
            },
            {
                  "distance": 670,
                  "location": {
                        "address": "250 Graham Blvd",
                        "country": "CA",
                        "cross_street": "",
                        "formatted_address": "250 Graham Blvd, Mont-Royal QC H3P 2C5",
                        "locality": "Mont-Royal",
                        "postcode": "H3P 2C5",
                        "region": "QC"
                  },
                  "name": "Domino's Pizza",
                  "popularity": 0.9223954390613172,
                  "price": 1,
                  "store_id": "10650"
            },
            {
                  "distance": 759,
                  "location": {
                        "address": "975 Jean-Talon Rue O",
                        "country": "CA",
                        "cross_street": "",
                        "formatted_address": "975 Jean-Talon Rue O, Montr\u00e9al QC H3N 1S9",
                        "locality": "Montreal",
                        "postcode": "H3N 1S9",
                        "region": "QC"
                  },
                  "name": "Punjab Sweet",
                  "popularity": 0.9590154239212718,
                  "price": 2
            },
            {
                  "distance": 759,
                  "location": {
                        "address": "931 Jean Talon Rue W",
                        "country": "CA",
                        "cross_street": "Stuart",
                        "formatted_address": "931 Jean Talon Rue W (Stuart), Montr\u00e9al QC H3N 1S9",
                        "locality": "Montreal",
                        "postcode": "H3N 1S9",
                        "region": "QC"
                  },
                  "name": "Cafe C Central",
                  "popularity": 0.20640140045420136,
                  "price": 1
            },
            {
                  "distance": 763,
                  "location": {
                        "address": "650 Beaumont Ave",
                        "country": "CA",
                        "cross_street": "",
                        "formatted_address": "650 Beaumont Ave, Montr\u00e9al QC H3N 1V5",
                        "locality": "Montreal",
                        "postcode": "H3N 1V5",
                        "region": "QC"
                  },
                  "name": "Palmyra",
                  "popularity": 0.47532645722937167,
                  "price": 1
            },
            {
                  "distance": 795,
                  "location": {
                        "address": "901 Jean-Talon Rue O",
                        "country": "CA",
                        "formatted_address": "901 Jean-Talon Rue O, Montr\u00e9al QC H3N 1S7",
                        "locality": "Montreal",
                        "postcode": "H3N 1S7",
                        "region": "QC"
                  },
                  "name": "Miss Jean Talon Restaurant",
                  "popularity": 0.8740300908402725,
                  "price": 2
            },
            {
                  "distance": 813,
                  "location": {
                        "address": "895 Jean-Talon Rue O",
                        "country": "CA",
                        "cross_street": "d'Outremont",
                        "formatted_address": "895 Jean-Talon Rue O (d'Outremont), Montr\u00e9al QC H3N 1S7",
                        "locality": "Montreal",
                        "postcode": "H3N 1S7",
                        "region": "QC"
                  },
                  "name": "Dosa Pointe",
                  "popularity": 0.9385645344436033
            },
            {
                  "distance": 882,
                  "location": {
                        "address": "6512 Ave du Parc",
                        "country": "CA",
                        "cross_street": "Beaubien",
                        "formatted_address": "6512 Ave du Parc (Beaubien), Montr\u00e9al QC",
                        "locality": "Montreal",
                        "region": "QC"
                  },
                  "name": "Taverne Atlantic",
                  "popularity": 0.9683005299015897,
                  "price": 2
            },
            {
                  "distance": 342,
                  "location": {
                        "address": "1368 Van Horne Ave",
                        "country": "CA",
                        "formatted_address": "1368 Van Horne Ave, Outremont QC H2V 1K8",
                        "locality": "Outremont",
                        "postcode": "H2V 1K8",
                        "region": "QC"
                  },
                  "name": "Sushi Time"
            },
            {
                  "distance": 477,
                  "location": {
                        "address": "1244 Beaumont Ave",
                        "country": "CA",
                        "formatted_address": "1244 Beaumont Ave, Mont-Royal QC H3P 3E5",
                        "locality": "Mont-Royal",
                        "postcode": "H3P 3E5",
                        "region": "QC"
                  },
                  "name": "Cage Aux Sports"
            },
            {
                  "distance": 565,
                  "location": {
                        "address": "1199 Van Horne Ave",
                        "country": "CA",
                        "formatted_address": "1199 Van Horne Ave, Outremont QC H2V 1K1",
                        "locality": "Outremont",
                        "postcode": "H2V 1K1",
                        "region": "QC"
                  },
                  "name": "La Grilladerie"
            }
      ],
      "context": {
            "geo_bounds": {
                  "circle": {
                        "center": {
                              "latitude": 45.5200191,
                              "longitude": -73.61890733
                        },
                        "radius": 1000
                  }
            }
      }
}