{
      "results": [
            {
                  "distance": 913,
                  "location": {
                        "address": "1777 Graham Blvd",
                        "country": "CA",
                        "cross_street": "",
                        "formatted_address": "1777 Graham Blvd, Mont-Royal QC H3R 1G7",
                        "locality": "Mont-Royal",
                        "postcode": "H3R 1G7",
                        "region": "QC"
                  },
                  "name": "Leonidas Mont Royal",
                  "popularity": 0.9110167486752461,
                  "price": 1,
                  "rating": 8.2
            },
            {
                  "distance": 835,
                  "location": {
                        "address": "1275 Dunkirk Ch",
                        "country": "CA",
                        "cross_street": "",
                        "formatted_address": "1275 Dunkirk Ch, Montr\u00e9al QC H3R 3L3",
                        "locality": "Montreal",
                        "postcode": "H3R 3L3",
                        "region": "QC"
                  },
                  "name": "Pizzaiolle",
                  "popularity": 0.9038607115821348,
                  "price": 1,
                  "rating": 7.7
            },
            {
                  "distance": 448,
                  "location": {
                        "address": "114 Dresden Ave",
                        "country": "CA",
                        "cross_street": "coin Jean-Talon",
                        "formatted_address": "114 Dresden Ave (coin Jean-Talon), Montr\u00e9al QC H3P 2B6",
                        "locality": "Montreal",
                        "postcode": "H3P 2B6",
                        "region": "QC"
                  },
                  "name": "Poissonnerie la Sirene la Mer",
                  "popularity": 0.9898987509462528,
                  "price": 3,
                  "rating": 7.4
            },
            {
                  "distance": 795,
                  "location": {
                        "address": "2707 Van Horne Ave",
                        "address_extended": "# 2615",
                        "country": "CA",
                        "cross_street": "",
                        "formatted_address": "2707 Van Horne Ave, Montr\u00e9al QC H3S 1P6",
                        "locality": "Montreal",
                        "postcode": "H3S 1P6",
                        "region": "QC"
                  },
                  "name": "Subway",
                  "popularity": 0.8892056207418623,
                  "price": 1,
                  "rating": 6.4
            },
            {
                  "distance": 808,
                  "location": {
                        "address": "1297 Canora Ch",
                        "country": "CA",
                        "cross_street": "Cornwall",
                        "formatted_address": "1297 Canora Ch (Cornwall), Mont-Royal QC H3P 2J4",
                        "locality": "Mont-Royal",
                        "postcode": "H3P 2J4",
                        "region": "QC"
                  },
                  "name": "Dupond & Dupont",
                  "popularity": 0.9386709878879637,
                  "price": 3,
                  "rating": 6.1
            },
            {
                  "distance": 818,
                  "location": {
                        "address": "2659 Van Horne Ave",
                        "country": "CA",
                        "cross_street": "",
                        "formatted_address": "2659 Van Horne Ave, Montr\u00e9al QC H3S 1P6",
                        "locality": "Montreal",
                        "postcode": "H3S 1P6",
                        "region": "QC"
                  },
                  "name": "Domino's Pizza",
                  "popularity": 0.5123840840272521,
                  "price": 1,
                  "store_id": "10727"
            },
            {
                  "distance": 922,
                  "location": {
                        "address": "1081 Caledonia Ch",
                        "address_extended": "# 1001",
                        "country": "CA",
                        "cross_street": "",
                        "formatted_address": "1081 Caledonia Ch, Mont-Royal QC H3R 2V6",
                        "locality": "Mont-Royal",
                        "postcode": "H3R 2V6",
                        "region": "QC"
                  },
                  "name": "Thia Dina's",
                  "popularity": 0.47579958364875097,
                  "price": 2
            },
            {
                  "distance": 954,
                  "location": {
                        "address": "1383 Canora Ch",
                        "country": "CA",
                        "cross_street": "",
                        "formatted_address": "1383 Canora Ch, Mont-Royal QC H3P 2J6",
                        "locality": "Mont-Royal",
                        "postcode": "H3P 2J6",
                        "region": "QC"
                  },
                  "name": "Hinata Sushi",
                  "popularity": 0.6417723315669946,
                  "price": 2
            },
            {
                  "distance": 995,
                  "location": {
                        "address": "250 Graham Blvd",
                        "country": "CA",
                        "cross_street": "",
                        "formatted_address": "250 Graham Blvd, Mont-Royal QC H3P 2C5",
                        "locality": "Mont-Royal",
                        "postcode": "H3P 2C5",
                        "region": "QC"
                  },
                  "name": "Domino's Pizza",
                  "popularity": 0.9223954390613172,
                  "price": 1,
                  "store_id": "10650"
            },
            {
                  "distance": 251,
                  "location": {
                        "address": "6914 Wilderton Ave",
                        "country": "CA",
                        "formatted_address": "6914 Wilderton Ave, Montreal QC H3S 2M5",
                        "locality": "Montreal",
                        "postcode": "H3S 2M5",
                        "region": "QC"
                  },
                  "name": "Sarah Cuisine Cr\u00e9ole"
            },
            {
                  "distance": 445,
                  "location": {
                        "address": "6685 Ave de Darlington",
                        "country": "CA",
                        "formatted_address": "6685 Ave de Darlington, Montreal QC H3S 2J6",
                        "locality": "Montreal",
                        "postcode": "H3S 2J6",
                        "region": "QC"
                  },
                  "name": "Boulangerie Sindidab"
            },
            {
                  "distance": 480,
                  "location": {
                        "address": "6690 Ave de Darlington",
                        "country": "CA",
                        "formatted_address": "6690 Ave de Darlington, Montreal QC H3S 2J5",
                        "locality": "Montreal",
                        "postcode": "H3S 2J5",
                        "region": "QC"
                  },
                  "name": "Restaurant Kim Fay"
            },
            {
                  "distance": 496,
                  "location": {
                        "address": "6675 Wilderton Ave",
                        "country": "CA",
                        "formatted_address": "6675 Wilderton Ave, Montreal QC H3S 2L8",
                        "locality": "Montreal",
                        "postcode": "H3S 2L8",
                        "region": "QC"
                  },
                  "name": "Il Rincontro"
            },
            {
                  "distance": 660,
                  "location": {
                        "address": "2720 Pl de Darlington",
                        "country": "CA",
                        "formatted_address": "2720 Pl de Darlington, Montreal QC H3S 1L5",
                        "locality": "Montreal",
                        "postcode": "H3S 1L5",
                        "region": "QC"
                  },
                  "name": "Joaquin's Cigar Lounge"
            },
            {
                  "distance": 734,
                  "location": {
                        "address": "2660 Ave de Kent",
                        "country": "CA",
                        "formatted_address": "2660 Ave de Kent, Montreal QC H3S 1M7",
                        "locality": "Montreal",
                        "postcode": "H3S 1M7",
                        "region": "QC"
                  },
                  "name": "Saveurs de Damas"
            },
            {
                  "distance": 764,
                  "location": {
                        "address": "3205 Barclay Ave",
                        "country": "CA",
                        "formatted_address": "3205 Barclay Ave, Montreal QC H3S 1K2",
                        "locality": "Montreal",
                        "postcode": "H3S 1K2",
                        "region": "QC"
                  },
                  "name": "Boulangerie Kalina"
            },
            {
                  "distance": 926,
                  "location": {
                        "address": "1777 Graham Blvd",
                        "country": "CA",
                        "formatted_address": "1777 Graham Blvd, Mont-Royal QC H3R 1G7",
                        "locality": "Mont-Royal",
                        "postcode": "H3R 1G7",
                        "region": "QC"
                  },
                  "name": "Mon Royal Chocolat"
            },
            {
                  "distance": 936,
                  "location": {
                        "address": "6100 Ave du Boise",
                        "country": "CA",
                        "formatted_address": "6100 Ave du Boise, Montreal QC H3S 2W1",
                        "locality": "Montreal",
                        "postcode": "H3S 2W1",
                        "region": "QC"
                  },
                  "name": "Cafe Morena"
            },
            {
                  "distance": 995,
                  "location": {
                        "address": "250 Graham Blvd",
                        "country": "CA",
                        "formatted_address": "250 Graham Blvd, Mont-Royal QC H3P 2C5",
                        "locality": "Mont-Royal",
                        "postcode": "H3P 2C5",
                        "region": "QC"
                  },
                  "name": "Pizza Molito"
            },
            {
                  "distance": 995,
                  "location": {
                        "address": "246 Graham Blvd",
                        "country": "CA",
                        "formatted_address": "246 Graham Blvd, Mont-Royal QC H3P 2C5",
                        "locality": "Mont-Royal",
                        "postcode": "H3P 2C5",
                        "region": "QC"
                  },
                  "name": "Dagwoods Sandwichs et Salades"
            },
            {
                  "distance": 998,
                  "location": {
                        "address": "1387 Athlone Ch",
                        "country": "CA",
                        "formatted_address": "1387 Athlone Ch, Mont-Royal QC H3R 3G2",
                        "locality": "Mont-Royal",
                        "postcode": "H3R 3G2",
                        "region": "QC"
                  },
                  "name": "Salade Basil"
            }
      ],
      "context": {
            "geo_bounds": {
                  "circle": {
                        "center": {
                              "latitude": 45.51293324,
                              "longitude": -73.63389015
                        },
                        "radius": 1000
                  }
            }
      }
}