{
      "results": [
            {
                  "distance": 268,
                  "location": {
                        "address": "4006 Sainte-Catherine Rue O",
                        "country": "CA",
                        "cross_street": "coin Atwater",
                        "formatted_address": "4006 Sainte-Catherine Rue O (coin Atwater), Westmount QC H3Z 1P2",
                        "locality": "Westmount",
                        "postcode": "H3Z 1P2",
                        "region": "QC"
                  },
                  "name": "Imadake",
                  "popularity": 0.9621822690638562,
                  "price": 2,
                  "rating": 8.7
            },
            {
                  "distance": 939,
                  "location": {
                        "address": "1441 Saint Mathieu Rue",
                        "country": "CA",
                        "cross_street": "entre De Maisonneuve & Ste-Catherine",
                        "formatted_address": "1441 Saint Mathieu Rue (entre De Maisonneuve & Ste-Catherine), Montr\u00e9al QC H3H 2M4",
                        "locality": "Montreal",
                        "postcode": "H3H 2M4",
                        "region": "QC"
                  },
                  "name": "Otto Yakitori Izakaya",
                  "popularity": 0.9624337623012869,
                  "price": 2,
                  "rating": 8.2
            },
            {
                  "distance": 208,
                  "location": {
                        "address": "4024B Sainte Catherine Rue O",
                        "country": "CA",
                        "cross_street": "",
                        "formatted_address": "4024B Sainte Catherine Rue O, Westmount QC H3Z 1P2",
                        "locality": "Westmount",
                        "postcode": "H3Z 1P2",
                        "region": "QC"
                  },
                  "name": "Sparta Rotisserie&Grill",
                  "popularity": 0.9783013019218847,
                  "price": 2,
                  "rating": 8.1
            },
            {
                  "distance": 762,
                  "location": {
                        "address": "1909 Sainte-Catherine Rue O",
                        "country": "CA",
                        "cross_street": "St-Marc Street",
                        "formatted_address": "1909 Sainte-Catherine Rue O (St-Marc Street), Montr\u00e9al QC H3H 1M3",
                        "locality": "Montreal",
                        "postcode": "H3H 1M3",
                        "region": "QC"
                  },
                  "name": "Sammi & Soupe Dumpling",
                  "popularity": 0.9820921650264951,
                  "price": 1,
                  "rating": 8.0
            },
            {
                  "distance": 973,
                  "location": {
                        "address": "1626 Sainte-Catherine Rue O",
                        "address_extended": "Coin Guy",
                        "country": "CA",
                        "cross_street": "Coin Guy",
                        "formatted_address": "1626 Sainte-Catherine Rue O (Coin Guy), Montr\u00e9al QC H3H 2S7",
                        "locality": "Montreal",
                        "postcode": "H3H 2S7",
                        "region": "QC"
                  },
                  "name": "Juliette & Chocolat",
                  "popularity": 0.9505819454958365,
                  "price": 2,
                  "rating": 8.0
            },
            {
                  "distance": 933,
                  "location": {
                        "address": "1684 Blvd Maisonneuve Ouest",
                        "country": "CA",
                        "cross_street": "St. Mathieu",
                        "formatted_address": "1684 Blvd Maisonneuve Ouest (St. Mathieu), Montr\u00e9al QC H3H 1J7",
                        "locality": "Montreal",
                        "postcode": "H3H 1J7",
                        "region": "QC"
                  },
                  "name": "All\u00f4! Mon Coco",
                  "popularity": 0.9630843111279334,
                  "price": 1,
                  "rating": 7.8
            },
            {
                  "distance": 395,
                  "location": {
                        "address": "1455 Lambert-Closse Rue",
                        "country": "CA",
                        "cross_street": "De Maisonneuve",
                        "formatted_address": "1455 Lambert-Closse Rue (De Maisonneuve), Montr\u00e9al QC H3H 1Z5",
                        "locality": "Montreal",
                        "postcode": "H3H 1Z5",
                        "region": "QC"
                  },
                  "name": "Shaughnessy Caf\u00e9",
                  "popularity": 0.9712575700227101,
                  "price": 1,
                  "rating": 7.7
            },
            {
                  "distance": 969,
                  "location": {
                        "address": "1662 Blvd de Maisonneuve Ouest",
                        "country": "CA",
                        "cross_street": "Saint-Mathieu",
                        "formatted_address": "1662 Blvd de Maisonneuve Ouest (Saint-Mathieu), Montr\u00e9al QC H3H 1J7",
                        "locality": "Montreal",
                        "postcode": "H3H 1J7",
                        "region": "QC"
                  },
                  "name": "Angela Pizzeria & Restaurant",
                  "popularity": 0.9539647993943982,
                  "price": 1,
                  "rating": 7.6
            },
            {
                  "distance": 1000,
                  "location": {
                        "address": "1645 Blvd de Maisonneuve Ouest",
                        "country": "CA",
                        "cross_street": "Rue Pierce",
                        "formatted_address": "1645 Blvd de Maisonneuve Ouest (Rue Pierce), Montr\u00e9al QC H3H 2N3",
                        "locality": "Montreal",
                        "postcode": "H3H 2N3",
                        "region": "QC"
                  },
                  "name": "Cocktail Hawaii",
                  "popularity": 0.9786501703255109,
                  "price": 1,
                  "rating": 7.5
            },
            {
                  "distance": 877,
                  "location": {
                        "address": "1801 Blvd de Maisonneuve Ouest",
                        "country": "CA",
                        "cross_street": "Rue St-Mathieu",
                        "formatted_address": "1801 Blvd de Maisonneuve Ouest (Rue St-Mathieu), Montr\u00e9al QC H3H 1J9",
                        "locality": "Montreal",
                        "postcode": "H3H 1J9",
                        "region": "QC"
                  },
                  "name": "Presse Caf\u00e9",
                  "popularity": 0.9522970287660864,
                  "price": 1,
                  "rating": 6.9
            },
            {
                  "distance": 922,
                  "location": {
                        "address": "2160 Saint-Mathieu Rue",
                        "country": "CA",
                        "cross_street": "",
                        "formatted_address": "2160 Saint-Mathieu Rue, Montr\u00e9al QC H3H 2J4",
                        "locality": "Montreal",
                        "postcode": "H3H 2J4",
                        "region": "QC"
                  },
                  "name": "Zoe Dessert",
                  "popularity": 0.9237201930355791,
                  "price": 1,
                  "rating": 6.7
            },
            {
                  "distance": 308,
                  "location": {
                        "address": "2313 Sainte-Catherine Rue O",
                        "country": "CA",
                        "cross_street": "",
                        "formatted_address": "2313 Sainte-Catherine Rue O, Montr\u00e9al QC H3H 1N2",
                        "locality": "Montreal",
                        "postcode": "H3H 1N2",
                        "region": "QC"
                  },
                  "name": "A&W Restaurant",
                  "popularity": 0.9711629447388342,
                  "price": 1,
                  "rating": 6.7,
                  "store_id": "5587"
            },
            {
                  "distance": 174,
                  "location": {
                        "address": "1232 Greene Ave",
                        "country": "CA",
                        "cross_street": "Ste-Catherine",
                        "formatted_address": "1232 Greene Ave (Ste-Catherine), Montr\u00e9al QC H3Z 2A3",
                        "locality": "Montreal",
                        "postcode": "H3Z 2A3",
                        "region": "QC"
                  },
                  "name": "Restaurant Kashima",
                  "popularity": 0.14135151890886546,
                  "price": 2,
                  "rating": 6.6
            },
            {
                  "distance": 819,
                  "location": {
                        "address": "1846 Sainte-Catherine Rue O",
                        "country": "CA",
                        "formatted_address": "1846 Sainte-Catherine Rue O, Montr\u00e9al QC H3H 1M1",
                        "locality": "Montreal",
                        "postcode": "H3H 1M1",
                        "region": "QC"
                  },
                  "name": "Pizza Pizza",
                  "popularity": 0.9547336298258895,
                  "price": 1,
                  "rating": 6.3,
                  "store_id": "305"
            },
            {
                  "distance": 943,
                  "location": {
                        "address": "1801 Sainte-Catherine Rue O",
                        "country": "CA",
                        "cross_street": "",
                        "formatted_address": "1801 Sainte-Catherine Rue O, Montr\u00e9al QC H3H 1M2",
                        "locality": "Montreal",
                        "postcode": "H3H 1M2",
                        "region": "QC"
                  },
                  "name": "Sushi Ste-Catherine",
                  "popularity": 0.9550529901589705,
                  "price": 2,
                  "rating": 6.3
            },
            {
                  "distance": 890,
                  "location": {
                        "address": "1812 Sainte-Catherine Rue O",
                        "country": "CA",
                        "cross_street": "",
                        "formatted_address": "1812 Sainte-Catherine Rue O, Montr\u00e9al QC H3H 1M1",
                        "locality": "Montreal",
                        "postcode": "H3H 1M1",
                        "region": "QC"
                  },
                  "name": "Kumamoto Ramen",
                  "popularity": 0.9252460257380772,
                  "rating": 6.2
            },
            {
                  "distance": 549,
                  "location": {
                        "address": "2127 Sainte-Catherine Rue O",
                        "country": "CA",
                        "cross_street": "",
                        "formatted_address": "2127 Sainte-Catherine Rue O, Montr\u00e9al QC H3H 1M6",
                        "locality": "Montreal",
                        "postcode": "H3H 1M6",
                        "region": "QC"
                  },
                  "name": "La Maison du Bulgogi",
                  "popularity": 0.9061317183951552,
                  "price": 2,
                  "rating": 5.7
            },
            {
                  "distance": 264,
                  "location": {
                        "address": "1500 Atwater Ave",
                        "address_extended": "# 8810",
                        "country": "CA",
                        "formatted_address": "1500 Atwater Ave, Montr\u00e9al QC H3Z 1X5",
                        "locality": "Montreal",
                        "postcode": "H3Z 1X5",
                        "region": "QC"
                  },
                  "name": "McDonald's",
                  "popularity": 0.9969001859888407,
                  "price": 1,
                  "rating": 5.7
            },
            {
                  "distance": 324,
                  "location": {
                        "address": "2313 Sainte-Catherine Rue O",
                        "country": "CA",
                        "cross_street": "Atwater",
                        "formatted_address": "2313 Sainte-Catherine Rue O (Atwater), Montr\u00e9al QC H3H 1N2",
                        "locality": "Montreal",
                        "postcode": "H3H 1N2",
                        "region": "QC"
                  },
                  "name": "Forum de Montr\u00e9al",
                  "popularity": 0.9844341408024224,
                  "rating": 5.6
            },
            {
                  "distance": 769,
                  "location": {
                        "address": "700 Atwater Ave",
                        "country": "CA",
                        "cross_street": "coin St-Jacques",
                        "formatted_address": "700 Atwater Ave (coin St-Jacques), Montr\u00e9al QC H4C 2G9",
                        "locality": "Montreal",
                        "postcode": "H4C 2G9",
                        "region": "QC"
                  },
                  "name": "Tim Hortons",
                  "popularity": 0.9925955715367146,
                  "price": 1,
                  "rating": 5.6
            },
            {
                  "distance": 123,
                  "location": {
                        "address": "4090 Sainte-Catherine St O",
                        "country": "CA",
                        "cross_street": "",
                        "formatted_address": "4090 Sainte-Catherine St O, Westmount QC H3Z 1P2",
                        "locality": "Westmount",
                        "postcode": "H3Z 1P2",
                        "region": "QC"
                  },
                  "name": "Kinton",
                  "popularity": 0.9504029758214507
            },
            {
                  "distance": 145,
                  "location": {
                        "address": "4050 Ste",
                        "country": "CA",
                        "cross_street": "Wood",
                        "formatted_address": "4050 Ste (Wood), Westmount QC",
                        "locality": "Westmount",
                        "region": "QC"
                  },
                  "name": "Chine Toque",
                  "popularity": 0.9256044637321761,
                  "price": 1
            },
            {
                  "distance": 146,
                  "location": {
                        "address": "4114 Sainte Catherine Rue O",
                        "country": "CA",
                        "cross_street": "",
                        "formatted_address": "4114 Sainte Catherine Rue O, Westmount QC H3Z 1P2",
                        "locality": "Westmount",
                        "postcode": "H3Z 1P2",
                        "region": "QC"
                  },
                  "name": "Balos",
                  "popularity": 0.949163050216987,
                  "price": 2
            },
            {
                  "distance": 183,
                  "location": {
                        "address": "1500 Atwater Ave",
                        "country": "CA",
                        "cross_street": "Atwater",
                        "formatted_address": "1500 Atwater Ave (Atwater), Montreal QC H3Z 1X5",
                        "locality": "Westmount",
                        "postcode": "H3Z 1X5",
                        "region": "QC"
                  },
                  "name": "Shawarma Plus",
                  "popularity": 0.9851208927464352,
                  "price": 2
            },
            {
                  "distance": 334,
                  "location": {
                        "address": "2313 Sainte Catherine Rue O",
                        "address_extended": "Av Atwater",
                        "country": "CA",
                        "cross_street": "Av Atwater",
                        "formatted_address": "2313 Sainte Catherine Rue O (Av Atwater), Montr\u00e9al QC H3H 1N2",
                        "locality": "Montreal",
                        "postcode": "H3H 1N2",
                        "region": "QC"
                  },
                  "name": "Restaurant Boustan",
                  "popularity": 0.9541185654806964,
                  "price": 2
            },
            {
                  "distance": 396,
                  "location": {
                        "address": "1443 Lambert-Closse Rue",
                        "country": "CA",
                        "cross_street": "",
                        "formatted_address": "1443 Lambert-Closse Rue, Montreal QC H3H 1Z5",
                        "locality": "Montreal",
                        "postcode": "H3H 1Z5",
                        "region": "QC"
                  },
                  "name": "Caf\u00e9 Dayzzz's",
                  "popularity": 0.9348741483724451,
                  "price": 1
            },
            {
                  "distance": 714,
                  "location": {
                        "address": "768 Atwater Ave",
                        "country": "CA",
                        "cross_street": "saint jacques",
                        "formatted_address": "768 Atwater Ave (saint jacques), Montr\u00e9al QC H4C 2G9",
                        "locality": "Montreal",
                        "postcode": "H4C 2G9",
                        "region": "QC"
                  },
                  "name": "Restaurant Frida",
                  "popularity": 0.9075984102952309,
                  "price": 1
            },
            {
                  "distance": 770,
                  "location": {
                        "address": "1906 Sainte-Catherine St W",
                        "country": "CA",
                        "cross_street": "Saint-Marc",
                        "formatted_address": "1906 Sainte-Catherine St W (Saint-Marc), Montr\u00e9al QC H3H 1M4",
                        "locality": "Montreal",
                        "postcode": "H3H 1M4",
                        "region": "QC"
                  },
                  "name": "Cafe Lounge",
                  "popularity": 0.5727195306585919,
                  "price": 1
            },
            {
                  "distance": 801,
                  "location": {
                        "address": "1862 Blvd de Maisonneuve O",
                        "country": "CA",
                        "cross_street": "St-Marc",
                        "formatted_address": "1862 Blvd de Maisonneuve O (St-Marc), Montr\u00e9al QC H3H 1J8",
                        "locality": "Montreal",
                        "postcode": "H3H 1J8",
                        "region": "QC"
                  },
                  "name": "Jako",
                  "popularity": 0.9310654806964421,
                  "price": 2
            },
            {
                  "distance": 829,
                  "location": {
                        "address": "1858 Sainte-Catherine Rue O",
                        "country": "CA",
                        "cross_street": "",
                        "formatted_address": "1858 Sainte-Catherine Rue O, Montr\u00e9al QC H3H 1M1",
                        "locality": "Montreal",
                        "postcode": "H3H 1M1",
                        "region": "QC"
                  },
                  "name": "D\u00e9lice Oriental",
                  "popularity": 0.1377625851627555,
                  "price": 2
            },
            {
                  "distance": 1011,
                  "location": {
                        "address": "1418 Pierce Rue",
                        "country": "CA",
                        "cross_street": "",
                        "formatted_address": "1418 Pierce Rue, Montr\u00e9al QC H3H 2K2",
                        "locality": "Montreal",
                        "postcode": "H3H 2K2",
                        "region": "QC"
                  },
                  "name": "Chungchun Kogo Coreen",
                  "popularity": 0.9676026684330054,
                  "price": 2
            },
            {
                  "distance": 151,
                  "location": {
                        "address": "2 Alexis Nihon Pl",
                        "country": "CA",
                        "formatted_address": "2 Alexis Nihon Pl, Westmount QC H3Z 3C1",
                        "locality": "Westmount",
                        "postcode": "H3Z 3C1",
                        "region": "QC"
                  },
                  "name": "Croissant Plus"
            },
            {
                  "distance": 267,
                  "location": {
                        "address": "1500 Atwater Ave",
                        "address_extended": "F4",
                        "country": "CA",
                        "formatted_address": "1500 Atwater Ave, Montreal QC H3Z 1X5",
                        "locality": "Montreal",
                        "postcode": "H3Z 1X5",
                        "region": "QC"
                  },
                  "name": "Salades Arc En Ciel"
            },
            {
                  "distance": 275,
                  "location": {
                        "address": "1500 Atwater Ave",
                        "country": "CA",
                        "formatted_address": "1500 Atwater Ave, Montreal QC H3Z 1X5",
                        "locality": "Montreal",
                        "postcode": "H3Z 1X5",
                        "region": "QC"
                  },
                  "name": "Cremiere-Quebec de Castor-Mooz"
            },
            {
                  "distance": 888,
                  "location": {
                        "address": "1745 Cedar Ave",
                        "country": "CA",
                        "formatted_address": "1745 Cedar Ave, Montreal QC H3G 1A7",
                        "locality": "Montreal",
                        "postcode": "H3G 1A7",
                        "region": "QC"
                  },
                  "name": "Tinamissu"
            }
      ],
      "context": {
            "geo_bounds": {
                  "circle": {
                        "center": {
                              "latitude": 45.48819794,
                              "longitude": -73.58807051
                        },
                        "radius": 1000
                  }
            }
      }
}