{
      "results": [
            {
                  "distance": 811,
                  "location": {
                        "address": "1201 Van Horne Ave",
                        "country": "CA",
                        "cross_street": "",
                        "formatted_address": "1201 Van Horne Ave, Montr\u00e9al QC H2V 1K4",
                        "locality": "Montreal",
                        "postcode": "H2V 1K4",
                        "region": "QC"
                  },
                  "name": "Damas",
                  "popularity": 0.9677446063588191,
                  "price": 4,
                  "rating": 9.4
            },
            {
                  "distance": 744,
                  "location": {
                        "address": "756 Saint-Roch Rue",
                        "country": "CA",
                        "cross_street": "",
                        "formatted_address": "756 Saint-Roch Rue, Montr\u00e9al QC H3N 1L3",
                        "locality": "Montreal",
                        "postcode": "H3N 1L3",
                        "region": "QC"
                  },
                  "name": "Afroditi Bakery",
                  "popularity": 0.8546792202876609,
                  "price": 1,
                  "rating": 8.8
            },
            {
                  "distance": 213,
                  "location": {
                        "address": "1001 Jean-Talon Rue O",
                        "country": "CA",
                        "cross_street": "at Birnam",
                        "formatted_address": "1001 Jean-Talon Rue O (at Birnam), Montr\u00e9al QC H3N 1T2",
                        "locality": "Montreal",
                        "postcode": "H3N 1T2",
                        "region": "QC"
                  },
                  "name": "Restaurant Bombay Mahal",
                  "popularity": 0.9612864307342922,
                  "price": 2,
                  "rating": 8.6
            },
            {
                  "distance": 943,
                  "location": {
                        "address": "237 Jean-Talon Rue O",
                        "country": "CA",
                        "cross_street": "",
                        "formatted_address": "237 Jean-Talon Rue O, Montr\u00e9al QC H2R 2X6",
                        "locality": "Montreal",
                        "postcode": "H2R 2X6",
                        "region": "QC"
                  },
                  "name": "Salon Teashop Inc",
                  "popularity": 0.855519019682059,
                  "price": 2,
                  "rating": 8.2
            },
            {
                  "distance": 435,
                  "location": {
                        "address": "654 Jean-Talon Rue O",
                        "country": "CA",
                        "cross_street": "",
                        "formatted_address": "654 Jean-Talon Rue O, Montr\u00e9al QC H3N 1R7",
                        "locality": "Montreal",
                        "postcode": "H3N 1R7",
                        "region": "QC"
                  },
                  "name": "Restaurant Village Grecque Inc",
                  "popularity": 0.9827663701741105,
                  "price": 2,
                  "rating": 8.1
            },
            {
                  "distance": 205,
                  "location": {
                        "address": "996 Jean-Talon Rue O",
                        "country": "CA",
                        "cross_street": "Brinam",
                        "formatted_address": "996 Jean-Talon Rue O (Brinam), Montr\u00e9al QC H3N 1S8",
                        "locality": "Montreal",
                        "postcode": "H3N 1S8",
                        "region": "QC"
                  },
                  "name": "Indian Curry House",
                  "popularity": 0.9859244890234671,
                  "price": 1,
                  "rating": 8.1
            },
            {
                  "distance": 762,
                  "location": {
                        "address": "1464 Van Horne Ave",
                        "country": "CA",
                        "cross_street": "entre Stuart & Dollard",
                        "formatted_address": "1464 Van Horne Ave (entre Stuart & Dollard), Outremont QC H2V 1L2",
                        "locality": "Outremont",
                        "postcode": "H2V 1L2",
                        "region": "QC"
                  },
                  "name": "Paltoquet",
                  "popularity": 0.9282503785011355,
                  "price": 1,
                  "rating": 8.0
            },
            {
                  "distance": 683,
                  "location": {
                        "address": "386 Beaumont Ave",
                        "country": "CA",
                        "cross_street": "",
                        "formatted_address": "386 Beaumont Ave, Montr\u00e9al QC H3N 1T4",
                        "locality": "Montreal",
                        "postcode": "H3N 1T4",
                        "region": "QC"
                  },
                  "name": "Denise",
                  "popularity": 0.9686553747161242,
                  "price": 2,
                  "rating": 7.9
            },
            {
                  "distance": 229,
                  "location": {
                        "address": "920 Jean-Talon Rue O",
                        "country": "CA",
                        "cross_street": "",
                        "formatted_address": "920 Jean-Talon Rue O, Montr\u00e9al QC H3N 1S6",
                        "locality": "Montreal",
                        "postcode": "H3N 1S6",
                        "region": "QC"
                  },
                  "name": "Punjab Palace",
                  "popularity": 0.9633563588190764,
                  "price": 2,
                  "rating": 7.8
            },
            {
                  "distance": 958,
                  "location": {
                        "address": "7335 Rue du Mile-End",
                        "country": "CA",
                        "cross_street": "Rue de Castelnau",
                        "formatted_address": "7335 Rue du Mile-End (Rue de Castelnau), Montr\u00e9al QC H2R 2Z7",
                        "locality": "Montreal",
                        "postcode": "H2R 2Z7",
                        "region": "QC"
                  },
                  "name": "Caf\u00e9 St-Henri HQ",
                  "popularity": 0.9647993943981832,
                  "price": 1,
                  "rating": 7.7
            },
            {
                  "distance": 773,
                  "location": {
                        "address": "679 Saint-Roch Rue",
                        "country": "CA",
                        "cross_street": "Bloomfield",
                        "formatted_address": "679 Saint-Roch Rue (Bloomfield), Montr\u00e9al QC H3N 1L2",
                        "locality": "Montreal",
                        "postcode": "H3N 1L2",
                        "region": "QC"
                  },
                  "name": "Tripoli Restaurant",
                  "popularity": 0.860676097653293,
                  "price": 2,
                  "rating": 7.2
            },
            {
                  "distance": 638,
                  "location": {
                        "address": "414 Jean-Talon Rue O",
                        "country": "CA",
                        "cross_street": "",
                        "formatted_address": "414 Jean-Talon Rue O, Montr\u00e9al QC H3N 1R2",
                        "locality": "Montreal",
                        "postcode": "H3N 1R2",
                        "region": "QC"
                  },
                  "name": "Pizza Pizza",
                  "popularity": 0.8882120552611658,
                  "price": 1,
                  "rating": 7.0,
                  "store_id": "310"
            },
            {
                  "distance": 947,
                  "location": {
                        "address": "1041 Van Horne Ave",
                        "country": "CA",
                        "cross_street": "Durocher",
                        "formatted_address": "1041 Van Horne Ave (Durocher), Montr\u00e9al QC H2V 1J4",
                        "locality": "Montreal",
                        "postcode": "H2V 1J4",
                        "region": "QC"
                  },
                  "name": "Boxermans",
                  "popularity": 0.9236728803936411,
                  "price": 2,
                  "rating": 6.9
            },
            {
                  "distance": 652,
                  "location": {
                        "address": "431 Jean-Talon Rue O",
                        "country": "CA",
                        "cross_street": "entre Hutchison & Durocher",
                        "formatted_address": "431 Jean-Talon Rue O (entre Hutchison & Durocher), Montr\u00e9al QC H3N 1P9",
                        "locality": "Montreal",
                        "postcode": "H3N 1P9",
                        "region": "QC"
                  },
                  "name": "Restaurant Lyla",
                  "popularity": 0.9708908970476912,
                  "price": 2,
                  "rating": 6.8
            },
            {
                  "distance": 749,
                  "location": {
                        "address": "5660 Cote-Des-Neiges",
                        "country": "CA",
                        "cross_street": "Cote st catherine",
                        "formatted_address": "5660 Cote-Des-Neiges (Cote st catherine), Montr\u00e9al QC H3T 2A8",
                        "locality": "Montreal",
                        "postcode": "H3T 2A8",
                        "region": "QC"
                  },
                  "name": "Thai Express",
                  "popularity": 0.308987036336109,
                  "price": 2,
                  "rating": 6.3
            },
            {
                  "distance": 773,
                  "location": {
                        "address": "1452 Van Horne Ave",
                        "country": "CA",
                        "cross_street": "coin av. Stuart",
                        "formatted_address": "1452 Van Horne Ave (coin av. Stuart), Outremont QC H2V 1L2",
                        "locality": "Outremont",
                        "postcode": "H2V 1L2",
                        "region": "QC"
                  },
                  "name": "Subway",
                  "popularity": 0.32512064723694173,
                  "price": 1,
                  "rating": 6.2,
                  "store_id": "41805"
            },
            {
                  "distance": 381,
                  "location": {
                        "address": "1300 Beaumont Ave",
                        "country": "CA",
                        "formatted_address": "1300 Beaumont Ave, Montr\u00e9al QC H3P 3E5",
                        "locality": "Montreal",
                        "postcode": "H3P 3E5",
                        "region": "QC"
                  },
                  "name": "McDonald's",
                  "popularity": 0.9923708364875095,
                  "price": 1,
                  "rating": 4.8,
                  "store_id": "5095"
            },
            {
                  "distance": 50,
                  "location": {
                        "address": "1100 Beaumont Ave",
                        "country": "CA",
                        "cross_street": "Acadie",
                        "formatted_address": "1100 Beaumont Ave (Acadie), Montr\u00e9al QC H3P 3H5",
                        "locality": "Montreal",
                        "postcode": "H3P 3H5",
                        "region": "QC"
                  },
                  "name": "Cartier Caf\u00e9 BIstro",
                  "popularity": 0.9433076267978804,
                  "price": 1
            },
            {
                  "distance": 125,
                  "location": {
                        "address": "950 Beaumont Ave",
                        "address_extended": "Suite 105",
                        "country": "CA",
                        "cross_street": "L'Acadie Boulevard",
                        "formatted_address": "950 Beaumont Ave (L'Acadie Boulevard), Montr\u00e9al QC H3N 1V5",
                        "locality": "Montreal",
                        "postcode": "H3N 1V5",
                        "region": "QC"
                  },
                  "name": "Beau Mont",
                  "popularity": 0.9565433383800152,
                  "price": 3
            },
            {
                  "distance": 230,
                  "location": {
                        "address": "975 Jean-Talon Rue O",
                        "country": "CA",
                        "cross_street": "",
                        "formatted_address": "975 Jean-Talon Rue O, Montr\u00e9al QC H3N 1S9",
                        "locality": "Montreal",
                        "postcode": "H3N 1S9",
                        "region": "QC"
                  },
                  "name": "Punjab Sweet",
                  "popularity": 0.9590154239212718,
                  "price": 2
            },
            {
                  "distance": 267,
                  "location": {
                        "address": "901 Jean-Talon Rue O",
                        "country": "CA",
                        "formatted_address": "901 Jean-Talon Rue O, Montr\u00e9al QC H3N 1S7",
                        "locality": "Montreal",
                        "postcode": "H3N 1S7",
                        "region": "QC"
                  },
                  "name": "Miss Jean Talon Restaurant",
                  "popularity": 0.8740300908402725,
                  "price": 2
            },
            {
                  "distance": 372,
                  "location": {
                        "address": "650 Beaumont Ave",
                        "country": "CA",
                        "cross_street": "",
                        "formatted_address": "650 Beaumont Ave, Montr\u00e9al QC H3N 1V5",
                        "locality": "Montreal",
                        "postcode": "H3N 1V5",
                        "region": "QC"
                  },
                  "name": "Palmyra",
                  "popularity": 0.47532645722937167,
                  "price": 1
            },
            {
                  "distance": 449,
                  "location": {
                        "address": "250 Graham Blvd",
                        "country": "CA",
                        "cross_street": "",
                        "formatted_address": "250 Graham Blvd, Mont-Royal QC H3P 2C5",
                        "locality": "Mont-Royal",
                        "postcode": "H3P 2C5",
                        "region": "QC"
                  },
                  "name": "Domino's Pizza",
                  "popularity": 0.9223954390613172,
                  "price": 1,
                  "store_id": "10650"
            },
            {
                  "distance": 614,
                  "location": {
                        "address": "520 Ogilvy Ave",
                        "country": "CA",
                        "cross_street": "",
                        "formatted_address": "520 Ogilvy Ave, Montr\u00e9al QC H3N 1M8",
                        "locality": "Montreal",
                        "postcode": "H3N 1M8",
                        "region": "QC"
                  },
                  "name": "Appayon",
                  "popularity": 0.6888247539742619,
                  "price": 2
            },
            {
                  "distance": 705,
                  "location": {
                        "address": "7238 Hutchison Rue",
                        "country": "CA",
                        "cross_street": "",
                        "formatted_address": "7238 Hutchison Rue, Montr\u00e9al QC H3N 1Z1",
                        "locality": "Montreal",
                        "postcode": "H3N 1Z1",
                        "region": "QC"
                  },
                  "name": "Cafe Vesuvio",
                  "popularity": 0.9779404806964421,
                  "price": 1
            },
            {
                  "distance": 734,
                  "location": {
                        "address": "7000 Ave du Parc",
                        "address_extended": "# 104",
                        "country": "CA",
                        "cross_street": "",
                        "formatted_address": "7000 Ave du Parc, Montr\u00e9al QC H3N 1X1",
                        "locality": "Montreal",
                        "postcode": "H3N 1X1",
                        "region": "QC"
                  },
                  "name": "Restaurant Dark Blue",
                  "popularity": 0.09487367524602573,
                  "price": 2
            },
            {
                  "distance": 755,
                  "location": {
                        "address": "690 Saint-Roch Rue",
                        "country": "CA",
                        "cross_street": "Champagneur",
                        "formatted_address": "690 Saint-Roch Rue (Champagneur), Montr\u00e9al QC H3N 1L1",
                        "locality": "Montreal",
                        "postcode": "H3N 1L1",
                        "region": "QC"
                  },
                  "name": "CaffeNeo",
                  "popularity": 0.9985687925813778,
                  "price": 1
            },
            {
                  "distance": 757,
                  "location": {
                        "address": "1461 Van Horne Ave",
                        "country": "CA",
                        "cross_street": "",
                        "formatted_address": "1461 Van Horne Ave, Montr\u00e9al QC H2V 1L3",
                        "locality": "Montreal",
                        "postcode": "H2V 1L3",
                        "region": "QC"
                  },
                  "name": "Caf\u00e9 DAX",
                  "popularity": 0.9622090272520818,
                  "price": 1
            },
            {
                  "distance": 761,
                  "location": {
                        "address": "1541 Van Horne Ave",
                        "country": "CA",
                        "cross_street": "Av McEachran",
                        "formatted_address": "1541 Van Horne Ave (Av McEachran), Montr\u00e9al QC H2V 1L4",
                        "locality": "Montreal",
                        "postcode": "H2V 1L4",
                        "region": "QC"
                  },
                  "name": "Roch le Coq",
                  "popularity": 0.9616531037093111,
                  "price": 1
            },
            {
                  "distance": 769,
                  "location": {
                        "address": "1317 Van Horne Ave",
                        "country": "CA",
                        "cross_street": "",
                        "formatted_address": "1317 Van Horne Ave, Montr\u00e9al QC H2V 1K7",
                        "locality": "Montreal",
                        "postcode": "H2V 1K7",
                        "region": "QC"
                  },
                  "name": "Caf\u00e9 Dante",
                  "popularity": 0.9554314912944739,
                  "price": 1
            },
            {
                  "distance": 775,
                  "location": {
                        "address": "1541 Van Horne",
                        "country": "CA",
                        "cross_street": "",
                        "formatted_address": "1541 Van Horne, Montreal QC H3S 2T5",
                        "locality": "Montreal",
                        "postcode": "H3S 2T5",
                        "region": "QC"
                  },
                  "name": "Pendeli's",
                  "popularity": 0.6617500946252839,
                  "price": 1
            },
            {
                  "distance": 869,
                  "location": {
                        "address": "6512 Ave du Parc",
                        "country": "CA",
                        "cross_street": "Beaubien",
                        "formatted_address": "6512 Ave du Parc (Beaubien), Montr\u00e9al QC",
                        "locality": "Montreal",
                        "region": "QC"
                  },
                  "name": "Taverne Atlantic",
                  "popularity": 0.9683005299015897,
                  "price": 2
            },
            {
                  "distance": 875,
                  "location": {
                        "address": "1142 Van Horne Ave",
                        "country": "CA",
                        "cross_street": "",
                        "formatted_address": "1142 Van Horne Ave, Montr\u00e9al QC H2V 1J8",
                        "locality": "Montreal",
                        "postcode": "H2V 1J8",
                        "region": "QC"
                  },
                  "name": "Boucherie Bar \u00e0 vin Provisions",
                  "popularity": 0.9643026116578349
            },
            {
                  "distance": 186,
                  "location": {
                        "address": "1016 Jean-Talon Rue O",
                        "country": "CA",
                        "formatted_address": "1016 Jean-Talon Rue O, Montreal QC H3N 1T1",
                        "locality": "Montreal",
                        "postcode": "H3N 1T1",
                        "region": "QC"
                  },
                  "name": "Ram Sweet Shop"
            },
            {
                  "distance": 395,
                  "location": {
                        "address": "991 Ogilvy Ave",
                        "country": "CA",
                        "formatted_address": "991 Ogilvy Ave, Montreal QC H3N 1P3",
                        "locality": "Montreal",
                        "postcode": "H3N 1P3",
                        "region": "QC"
                  },
                  "name": "Taverne Portara"
            }
      ],
      "context": {
            "geo_bounds": {
                  "circle": {
                        "center": {
                              "latitude": 45.52357479,
                              "longitude": -73.62344295
                        },
                        "radius": 1000
                  }
            }
      }
}