{
      "results": [
            {
                  "distance": 514,
                  "location": {
                        "address": "2407 Ave du Mont-Royal Est",
                        "country": "CA",
                        "cross_street": "entre Franch\u00e8re & Chapleau",
                        "formatted_address": "2407 Ave du Mont-Royal Est (entre Franch\u00e8re & Chapleau), Montr\u00e9al QC H2H 1L2",
                        "locality": "Montreal",
                        "postcode": "H2H 1L2",
                        "region": "QC"
                  },
                  "name": "Boswell Brasserie Artisanale",
                  "popularity": 0.9548282551097653,
                  "price": 2,
                  "rating": 8.6
            },
            {
                  "distance": 625,
                  "location": {
                        "address": "2296 Ave du Mont Royal Est",
                        "country": "CA",
                        "cross_street": "",
                        "formatted_address": "2296 Ave du Mont Royal Est, Montr\u00e9al QC H2H 1K6",
                        "locality": "Montreal",
                        "postcode": "H2H 1K6",
                        "region": "QC"
                  },
                  "name": "Caf\u00e9 des Bois",
                  "popularity": 0.9125070968962907,
                  "price": 1,
                  "rating": 8.2
            },
            {
                  "distance": 1002,
                  "location": {
                        "address": "2656 Masson Rue",
                        "country": "CA",
                        "cross_street": "coin 2e Avenue",
                        "formatted_address": "2656 Masson Rue (coin 2e Avenue), Montr\u00e9al QC H1Y 1W2",
                        "locality": "Montreal",
                        "postcode": "H1Y 1W2",
                        "region": "QC"
                  },
                  "name": "La Distillerie No 3",
                  "popularity": 0.9212007948523846,
                  "price": 2,
                  "rating": 8.1
            },
            {
                  "distance": 728,
                  "location": {
                        "address": "2202 Ave du Mont-Royal Est",
                        "country": "CA",
                        "cross_street": "",
                        "formatted_address": "2202 Ave du Mont-Royal Est, Montr\u00e9al QC H2H 1K4",
                        "locality": "Montreal",
                        "postcode": "H2H 1K4",
                        "region": "QC"
                  },
                  "name": "Cr\u00e9my P\u00e2tisserie Inc",
                  "popularity": 0.6675932059046177,
                  "price": 1,
                  "rating": 8.1
            },
            {
                  "distance": 925,
                  "location": {
                        "address": "2047 Ave du Mont-Royal Est",
                        "country": "CA",
                        "cross_street": "coin av. de Lorimier",
                        "formatted_address": "2047 Ave du Mont-Royal Est (coin av. de Lorimier), Montr\u00e9al QC H2H 1J7",
                        "locality": "Montreal",
                        "postcode": "H2H 1J7",
                        "region": "QC"
                  },
                  "name": "La Distillerie No2",
                  "popularity": 0.9543669568508706,
                  "price": 2,
                  "rating": 8.0
            },
            {
                  "distance": 119,
                  "location": {
                        "address": "4093 Molson Rue",
                        "country": "CA",
                        "cross_street": "Rue William-Tremblay",
                        "formatted_address": "4093 Molson Rue (Rue William-Tremblay), Montr\u00e9al QC H1Y 3L1",
                        "locality": "Montreal",
                        "postcode": "H1Y 3L1",
                        "region": "QC"
                  },
                  "name": "Mamie Clafoutis",
                  "popularity": 0.9076693792581377,
                  "price": 1,
                  "rating": 7.9
            },
            {
                  "distance": 647,
                  "location": {
                        "address": "2270 Ave du Mont Royal E",
                        "country": "CA",
                        "cross_street": "Messier",
                        "formatted_address": "2270 Ave du Mont Royal E (Messier), Montr\u00e9al QC H2H 1K6",
                        "locality": "Montreal",
                        "postcode": "H2H 1K6",
                        "region": "QC"
                  },
                  "name": "Croissantcroissant",
                  "popularity": 0.9047359954579863,
                  "price": 1,
                  "rating": 7.9
            },
            {
                  "distance": 981,
                  "location": {
                        "address": "2618 Masson Rue",
                        "country": "CA",
                        "cross_street": "",
                        "formatted_address": "2618 Masson Rue, Montr\u00e9al QC H1Y 3E5",
                        "locality": "Montreal",
                        "postcode": "H1Y 3E5",
                        "region": "QC"
                  },
                  "name": "La Cr\u00e9mi\u00e8re",
                  "popularity": 0.8805474072672218,
                  "price": 1,
                  "rating": 7.7
            },
            {
                  "distance": 802,
                  "location": {
                        "address": "3121 Hochelaga Rue",
                        "country": "CA",
                        "cross_street": "",
                        "formatted_address": "3121 Hochelaga Rue, Montr\u00e9al QC H1W 1G3",
                        "locality": "Montreal",
                        "postcode": "H1W 1G3",
                        "region": "QC"
                  },
                  "name": "Maneki Comptoir Asiat'",
                  "popularity": 0.8695235616956851,
                  "price": 2,
                  "rating": 7.2
            },
            {
                  "distance": 977,
                  "location": {
                        "address": "2017 Ave du Mont-Royal Est",
                        "country": "CA",
                        "formatted_address": "2017 Ave du Mont-Royal Est, Montr\u00e9al QC H2H 1J7",
                        "locality": "Montreal",
                        "postcode": "H2H 1J7",
                        "region": "QC"
                  },
                  "name": "L'Oeufrier",
                  "popularity": 0.955360522331567,
                  "price": 1,
                  "rating": 7.2
            },
            {
                  "distance": 561,
                  "location": {
                        "address": "3090 Sherbrooke Rue E",
                        "country": "CA",
                        "cross_street": "coin Moreau",
                        "formatted_address": "3090 Sherbrooke Rue E (coin Moreau), Montr\u00e9al QC H1W 1B5",
                        "locality": "Montreal",
                        "postcode": "H1W 1B5",
                        "region": "QC"
                  },
                  "name": "Deli Miami",
                  "popularity": 0.9861492240726722,
                  "price": 1,
                  "rating": 6.9
            },
            {
                  "distance": 886,
                  "location": {
                        "address": "2112 Ave du Mont-Royal Est",
                        "country": "CA",
                        "cross_street": "entre De Lorimier & Des \u00c9rables",
                        "formatted_address": "2112 Ave du Mont-Royal Est (entre De Lorimier & Des \u00c9rables), Montr\u00e9al QC H2H 1J8",
                        "locality": "Montreal",
                        "postcode": "H2H 1J8",
                        "region": "QC"
                  },
                  "name": "Verre Bouteille",
                  "popularity": 0.9396172407267221,
                  "price": 2,
                  "rating": 6.6
            },
            {
                  "distance": 449,
                  "location": {
                        "address": "2765 Sherbrooke Rue E",
                        "country": "CA",
                        "cross_street": "Montgomery",
                        "formatted_address": "2765 Sherbrooke Rue E (Montgomery), Montr\u00e9al QC H2K 1G9",
                        "locality": "Montreal",
                        "postcode": "H2K 1G9",
                        "region": "QC"
                  },
                  "name": "Subway",
                  "popularity": 0.8906368281604845,
                  "price": 1,
                  "rating": 6.3,
                  "store_id": "27680"
            },
            {
                  "distance": 436,
                  "location": {
                        "address": "2901 Sherbrooke St E",
                        "country": "CA",
                        "cross_street": "",
                        "formatted_address": "2901 Sherbrooke St E, Montr\u00e9al QC H1W 1B2",
                        "locality": "Montreal",
                        "postcode": "H1W 1B2",
                        "region": "QC"
                  },
                  "name": "McDonald's",
                  "popularity": 0.9885621688115064,
                  "price": 1,
                  "rating": 5.3,
                  "store_id": "40472"
            },
            {
                  "distance": 105,
                  "location": {
                        "address": "4091 Molson Rue",
                        "country": "CA",
                        "cross_street": "",
                        "formatted_address": "4091 Molson Rue, Montr\u00e9al QC H1Y 3L1",
                        "locality": "Montreal",
                        "postcode": "H1Y 3L1",
                        "region": "QC"
                  },
                  "name": "Pizzeria Caldo",
                  "popularity": 0.17878264572293717,
                  "price": 1,
                  "rating": 5.3
            },
            {
                  "distance": 992,
                  "location": {
                        "address": "2530 Masson Rue",
                        "country": "CA",
                        "cross_street": "coin Iberville",
                        "formatted_address": "2530 Masson Rue (coin Iberville), Montr\u00e9al QC H1Y 1V8",
                        "locality": "Montreal",
                        "postcode": "H1Y 1V8",
                        "region": "QC"
                  },
                  "name": "McDonald's",
                  "popularity": 0.9850965177895533,
                  "price": 1,
                  "rating": 5.1,
                  "store_id": "5336"
            },
            {
                  "distance": 183,
                  "location": {
                        "address": "2600 William-Tremblay Rue",
                        "country": "CA",
                        "cross_street": "",
                        "formatted_address": "2600 William-Tremblay Rue, Montr\u00e9al QC H1Y 3J2",
                        "locality": "Montreal",
                        "postcode": "H1Y 3J2",
                        "region": "QC"
                  },
                  "name": "Station W",
                  "popularity": 0.9345902725208176,
                  "price": 1
            },
            {
                  "distance": 240,
                  "location": {
                        "address": "4090 Andre-Laurendeau Rue",
                        "country": "CA",
                        "cross_street": "",
                        "formatted_address": "4090 Andre-Laurendeau Rue, Montreal QC H1Y 3N6",
                        "locality": "Montreal",
                        "postcode": "H1Y 3N6",
                        "region": "QC"
                  },
                  "name": "La Caf\u00e9shop",
                  "popularity": 0.8607470666161998,
                  "price": 1
            },
            {
                  "distance": 283,
                  "location": {
                        "address": "4600 Molson Rue",
                        "country": "CA",
                        "cross_street": "",
                        "formatted_address": "4600 Molson Rue, Montr\u00e9al QC H1Y 0A3",
                        "locality": "Montreal",
                        "postcode": "H1Y 0A3",
                        "region": "QC"
                  },
                  "name": "Mito Sushi",
                  "popularity": 0.625981737320212,
                  "price": 2
            },
            {
                  "distance": 595,
                  "location": {
                        "address": "2300 Ave du Mont-Royal Est",
                        "country": "CA",
                        "cross_street": "Fullum",
                        "formatted_address": "2300 Ave du Mont-Royal Est (Fullum), Montr\u00e9al QC H2H 1K8",
                        "locality": "Montreal",
                        "postcode": "H2H 1K8",
                        "region": "QC"
                  },
                  "name": "Le Viet Sandwich",
                  "popularity": 0.8731074943224829,
                  "price": 2
            },
            {
                  "distance": 728,
                  "location": {
                        "address": "2223 Mont Royal E",
                        "country": "CA",
                        "cross_street": "Messier",
                        "formatted_address": "2223 Mont Royal E (Messier), Montr\u00e9al QC H2H 1K5",
                        "locality": "Montreal",
                        "postcode": "H2H 1K5",
                        "region": "QC"
                  },
                  "name": "Haruko Sushi",
                  "popularity": 0.9534916729750189,
                  "price": 2
            },
            {
                  "distance": 761,
                  "location": {
                        "address": "2201 Ave du Mont-Royal Est",
                        "country": "CA",
                        "cross_street": "Parthenais",
                        "formatted_address": "2201 Ave du Mont-Royal Est (Parthenais), Montr\u00e9al QC H2H 1K5",
                        "locality": "Montreal",
                        "postcode": "H2H 1K5",
                        "region": "QC"
                  },
                  "name": "Jono Bar",
                  "popularity": 0.9322364685844058,
                  "price": 2
            },
            {
                  "distance": 777,
                  "location": {
                        "address": "2201 Mont-Royal",
                        "country": "CA",
                        "cross_street": "Partenais",
                        "formatted_address": "2201 Mont-Royal (Partenais), Montr\u00e9al QC",
                        "locality": "Montreal",
                        "region": "QC"
                  },
                  "name": "Taverne Cobra",
                  "popularity": 0.7116531037093111,
                  "price": 2
            },
            {
                  "distance": 911,
                  "location": {
                        "address": "2101 Ave du Mont-Royal E",
                        "country": "CA",
                        "cross_street": "",
                        "formatted_address": "2101 Ave du Mont-Royal E, Montreal QC H2H 1J9",
                        "locality": "Montreal",
                        "postcode": "H2H 1J9",
                        "region": "QC"
                  },
                  "name": "Double Pizza",
                  "popularity": 0.9277062831188494,
                  "price": 1
            },
            {
                  "distance": 969,
                  "location": {
                        "address": "5551 Garnier Rue",
                        "country": "CA",
                        "cross_street": "",
                        "formatted_address": "5551 Garnier Rue, Montr\u00e9al QC H2J 4E2",
                        "locality": "Montreal",
                        "postcode": "H2J 4E2",
                        "region": "QC"
                  },
                  "name": "Igloo's - the One & Only",
                  "popularity": 0.24723221044663135,
                  "price": 3
            },
            {
                  "distance": 418,
                  "location": {
                        "address": "2925 Rachel Rue E",
                        "country": "CA",
                        "formatted_address": "2925 Rachel Rue E, Montreal QC H1W 3Z8",
                        "locality": "Montreal",
                        "postcode": "H1W 3Z8",
                        "region": "QC"
                  },
                  "name": "Starbucks",
                  "store_id": "65587-300003"
            },
            {
                  "distance": 534,
                  "location": {
                        "address": "2755 Sherbrooke Rue E",
                        "country": "CA",
                        "formatted_address": "2755 Sherbrooke Rue E, Montreal QC H2K 1G9",
                        "locality": "Montreal",
                        "postcode": "H2K 1G9",
                        "region": "QC"
                  },
                  "name": "Pizza Hut"
            },
            {
                  "distance": 591,
                  "location": {
                        "address": "4496 Fullum Rue",
                        "country": "CA",
                        "formatted_address": "4496 Fullum Rue, Montreal QC H2H 2J7",
                        "locality": "Montreal",
                        "postcode": "H2H 2J7",
                        "region": "QC"
                  },
                  "name": "Cafe Bois"
            },
            {
                  "distance": 749,
                  "location": {
                        "address": "2201 Ave du Mont-Royal E",
                        "country": "CA",
                        "formatted_address": "2201 Ave du Mont-Royal E, Montreal QC H2H 1K5",
                        "locality": "Montreal",
                        "postcode": "H2H 1K5",
                        "region": "QC"
                  },
                  "name": "Bistro Jono Bar 2201 Mont Royal e"
            },
            {
                  "distance": 894,
                  "location": {
                        "address": "2101 Ave du Mont-Royal Est",
                        "country": "CA",
                        "formatted_address": "2101 Ave du Mont-Royal Est, Montreal QC H2H 1J9",
                        "locality": "Montreal",
                        "postcode": "H2H 1J9",
                        "region": "QC"
                  },
                  "name": "Pizza Hut",
                  "store_id": "R60601"
            },
            {
                  "distance": 978,
                  "location": {
                        "address": "2618 Masson Rue",
                        "country": "CA",
                        "formatted_address": "2618 Masson Rue, Montreal QC H1Y 3E5",
                        "locality": "Montreal",
                        "postcode": "H1Y 3E5",
                        "region": "QC"
                  },
                  "name": "Cremerie Masson"
            }
      ],
      "context": {
            "geo_bounds": {
                  "circle": {
                        "center": {
                              "latitude": 45.5415485,
                              "longitude": -73.56501237
                        },
                        "radius": 1000
                  }
            }
      }
}