{
      "results": [
            {
                  "distance": 510,
                  "location": {
                        "address": "5196 Jarry Rue E",
                        "country": "CA",
                        "formatted_address": "5196 Jarry Rue E, Montr\u00e9al QC H1R 1Y4",
                        "locality": "Montreal",
                        "postcode": "H1R 1Y4",
                        "region": "QC"
                  },
                  "name": "Caf\u00e9 Milano",
                  "popularity": 0.9936009651778955,
                  "price": 2,
                  "rating": 8.9
            },
            {
                  "distance": 539,
                  "location": {
                        "address": "5138 Jarry Rue E",
                        "country": "CA",
                        "cross_street": "",
                        "formatted_address": "5138 Jarry Rue E, Saint-Leonard QC H1R 1Y4",
                        "locality": "Saint-L\u00e9onard",
                        "postcode": "H1R 1Y4",
                        "region": "QC"
                  },
                  "name": "Gallo Nero Restaurant Statoria",
                  "popularity": 0.9087339137017411,
                  "price": 2,
                  "rating": 6.7
            },
            {
                  "distance": 244,
                  "location": {
                        "address": "8460 Lacordaire Blvd",
                        "country": "CA",
                        "formatted_address": "8460 Lacordaire Blvd, Saint-Leonard QC H1R 2A5",
                        "locality": "Saint-Leonard",
                        "postcode": "H1R 2A5",
                        "region": "QC"
                  },
                  "name": "Radikal Dezzertz",
                  "popularity": 0.9048306207418623,
                  "price": 1,
                  "rating": 6.7
            },
            {
                  "distance": 283,
                  "location": {
                        "address": "8492 Lacordaire Blvd",
                        "address_extended": "Place Toulon",
                        "country": "CA",
                        "cross_street": "",
                        "formatted_address": "8492 Lacordaire Blvd, Saint-Leonard QC H1R 2A5",
                        "locality": "Saint-Leonard",
                        "postcode": "H1R 2A5",
                        "region": "QC"
                  },
                  "name": "Subway",
                  "popularity": 0.8626987130961393,
                  "price": 1,
                  "rating": 6.4,
                  "store_id": "57208"
            },
            {
                  "distance": 835,
                  "location": {
                        "address": "8705 Viau Blvd",
                        "country": "CA",
                        "cross_street": "",
                        "formatted_address": "8705 Viau Blvd, Montr\u00e9al QC H1R 2T9",
                        "locality": "Montreal",
                        "postcode": "H1R 2T9",
                        "region": "QC"
                  },
                  "name": "Pizza Pizza",
                  "popularity": 0.9350279144587433,
                  "price": 1,
                  "rating": 6.2,
                  "store_id": "327"
            },
            {
                  "distance": 839,
                  "location": {
                        "address": "5090 Metropolitain Blvd E",
                        "country": "CA",
                        "cross_street": "at Boischatel",
                        "formatted_address": "5090 Metropolitain Blvd E (at Boischatel), Saint-Leonard QC H1S 2V7",
                        "locality": "Saint-L\u00e9onard",
                        "postcode": "H1S 2V7",
                        "region": "QC"
                  },
                  "name": "McDonald's",
                  "popularity": 0.9976816805450416,
                  "price": 1,
                  "rating": 4.9,
                  "store_id": "26046"
            },
            {
                  "distance": 448,
                  "location": {
                        "address": "5250 Jarry Rue E",
                        "country": "CA",
                        "cross_street": "",
                        "formatted_address": "5250 Jarry Rue E, Saint-Leonard QC H1R 3A9",
                        "locality": "Saint-Leonard",
                        "postcode": "H1R 3A9",
                        "region": "QC"
                  },
                  "name": "Restaurant Miramar Express",
                  "popularity": 0.28625331188493564,
                  "price": 2
            },
            {
                  "distance": 503,
                  "location": {
                        "address": "5670 Jarry Rue E",
                        "country": "CA",
                        "cross_street": "",
                        "formatted_address": "5670 Jarry Rue E, Montr\u00e9al QC H1P 1V4",
                        "locality": "Montreal",
                        "postcode": "H1P 1V4",
                        "region": "QC"
                  },
                  "name": "Bretzel & Compagnie",
                  "popularity": 0.8600018925056775,
                  "price": 1
            },
            {
                  "distance": 529,
                  "location": {
                        "address": "5152 Jarry Rue E",
                        "country": "CA",
                        "cross_street": "Lacordaire",
                        "formatted_address": "5152 Jarry Rue E (Lacordaire), Saint-Leonard QC H1R 1Y4",
                        "locality": "Saint-Leonard",
                        "postcode": "H1R 1Y4",
                        "region": "QC"
                  },
                  "name": "Luce Resto Bar",
                  "popularity": 0.894800340651022,
                  "price": 2
            },
            {
                  "distance": 728,
                  "location": {
                        "address": "4919 Jarry Rue E",
                        "country": "CA",
                        "cross_street": "",
                        "formatted_address": "4919 Jarry Rue E, Montr\u00e9al QC H1R 1Y1",
                        "locality": "Montreal",
                        "postcode": "H1R 1Y1",
                        "region": "QC"
                  },
                  "name": "La Grotte des Fromages",
                  "popularity": 0.8822033497350492,
                  "price": 1
            },
            {
                  "distance": 732,
                  "location": {
                        "address": "4919 Jarry Rue E",
                        "country": "CA",
                        "cross_street": "",
                        "formatted_address": "4919 Jarry Rue E, Saint-Leonard QC H1R 1Y1",
                        "locality": "Saint-L\u00e9onard",
                        "postcode": "H1R 1Y1",
                        "region": "QC"
                  },
                  "name": "Du Boucher a la Table",
                  "popularity": 0.9879471044663134,
                  "price": 2
            },
            {
                  "distance": 768,
                  "location": {
                        "address": "4921 Jarry Rue E",
                        "country": "CA",
                        "cross_street": "at rue de Chamilly",
                        "formatted_address": "4921 Jarry Rue E (at rue de Chamilly), Montr\u00e9al QC H1R 1Y1",
                        "locality": "Montreal",
                        "postcode": "H1R 1Y1",
                        "region": "QC"
                  },
                  "name": "Boulangerie P\u00e2tisserie St L\u00e9onard",
                  "popularity": 0.7762585162755489,
                  "price": 1
            },
            {
                  "distance": 834,
                  "location": {
                        "address": "4855 Jarry Rue E",
                        "country": "CA",
                        "cross_street": "",
                        "formatted_address": "4855 Jarry Rue E, Saint-Leonard QC H1R 3G1",
                        "locality": "Saint-Leonard",
                        "postcode": "H1R 3G1",
                        "region": "QC"
                  },
                  "name": "Restaurant Costa Del Sol",
                  "popularity": 0.83382617335352,
                  "price": 2
            },
            {
                  "distance": 846,
                  "location": {
                        "address": "8415 Viau Blvd",
                        "country": "CA",
                        "cross_street": "",
                        "formatted_address": "8415 Viau Blvd, Saint-Leonard QC H1R 2T6",
                        "locality": "Saint-Leonard",
                        "postcode": "H1R 2T6",
                        "region": "QC"
                  },
                  "name": "Boulangerie P\u00e2tisserie Charcuterie Friulano",
                  "popularity": 0.09686080620741862,
                  "price": 1
            },
            {
                  "distance": 510,
                  "location": {
                        "address": "5670 Jarry Rue E",
                        "country": "CA",
                        "formatted_address": "5670 Jarry Rue E, Saint-Leonard QC H1P 1V4",
                        "locality": "Saint-Leonard",
                        "postcode": "H1P 1V4",
                        "region": "QC"
                  },
                  "name": "Dolce Vita"
            },
            {
                  "distance": 537,
                  "location": {
                        "address": "5152 Jarry St E",
                        "country": "CA",
                        "formatted_address": "5152 Jarry St E, Saint-Leonard QC H1R 1Y4",
                        "locality": "Saint-Leonard",
                        "postcode": "H1R 1Y4",
                        "region": "QC"
                  },
                  "name": "La Storia - Service Traiteur"
            },
            {
                  "distance": 676,
                  "location": {
                        "address": "4985 Jarry Rue E",
                        "country": "CA",
                        "formatted_address": "4985 Jarry Rue E, Saint-Leonard QC H1R 1Y1",
                        "locality": "Saint-Leonard",
                        "postcode": "H1R 1Y1",
                        "region": "QC"
                  },
                  "name": "Cr\u00eapinos"
            },
            {
                  "distance": 752,
                  "location": {
                        "address": "6005 Robert Blvd",
                        "country": "CA",
                        "formatted_address": "6005 Robert Blvd, Saint-Leonard QC H1P 1M9",
                        "locality": "Saint-Leonard",
                        "postcode": "H1P 1M9",
                        "region": "QC"
                  },
                  "name": "Vincent Ristorante & Pasteria"
            },
            {
                  "distance": 774,
                  "location": {
                        "address": "8461 Viau Blvd",
                        "country": "CA",
                        "formatted_address": "8461 Viau Blvd, Saint-Leonard QC H1R 2T6",
                        "locality": "Saint-Leonard",
                        "postcode": "H1R 2T6",
                        "region": "QC"
                  },
                  "name": "Au Tacos Plaza Viau"
            },
            {
                  "distance": 798,
                  "location": {
                        "address": "4871 Jarry Rue E",
                        "country": "CA",
                        "formatted_address": "4871 Jarry Rue E, Saint-Leonard QC H1R 1Y1",
                        "locality": "Saint-Leonard",
                        "postcode": "H1R 1Y1",
                        "region": "QC"
                  },
                  "name": "Resto Caf\u00e9 Time Square"
            },
            {
                  "distance": 833,
                  "location": {
                        "address": "5800 Metropolitain Blvd E",
                        "country": "CA",
                        "formatted_address": "5800 Metropolitain Blvd E, Saint-Leonard QC H1S 1A7",
                        "locality": "Saint-Leonard",
                        "postcode": "H1S 1A7",
                        "region": "QC"
                  },
                  "name": "Bar Rencontre le Select Classique"
            },
            {
                  "distance": 846,
                  "location": {
                        "address": "6055 Robert Blvd",
                        "country": "CA",
                        "formatted_address": "6055 Robert Blvd, Saint-Leonard QC H1P 1M9",
                        "locality": "Saint-Leonard",
                        "postcode": "H1P 1M9",
                        "region": "QC"
                  },
                  "name": "Patisserie Laura"
            },
            {
                  "distance": 888,
                  "location": {
                        "address": "7630 Lacordaire Blvd",
                        "country": "CA",
                        "formatted_address": "7630 Lacordaire Blvd, Saint-Leonard QC H1S 0B3",
                        "locality": "Saint-Leonard",
                        "postcode": "H1S 0B3",
                        "region": "QC"
                  },
                  "name": "La Belle Province"
            },
            {
                  "distance": 896,
                  "location": {
                        "address": "8215 Viau Blvd",
                        "country": "CA",
                        "formatted_address": "8215 Viau Blvd, Saint-Leonard QC H1R 2T2",
                        "locality": "Saint-Leonard",
                        "postcode": "H1R 2T2",
                        "region": "QC"
                  },
                  "name": "Yummy Things"
            },
            {
                  "distance": 935,
                  "location": {
                        "address": "4950 Metropolitain Blvd E",
                        "country": "CA",
                        "formatted_address": "4950 Metropolitain Blvd E, Saint-Leonard QC H1S 2Y4",
                        "locality": "Saint-Leonard",
                        "postcode": "H1S 2Y4",
                        "region": "QC"
                  },
                  "name": "Parasol Canada"
            }
      ],
      "context": {
            "geo_bounds": {
                  "circle": {
                        "center": {
                              "latitude": 45.5864002,
                              "longitude": -73.5952181
                        },
                        "radius": 1000
                  }
            }
      }
}