{
      "results": [
            {
                  "distance": 774,
                  "location": {
                        "address": "3974 Pierre de Coubertin Ave",
                        "country": "CA",
                        "cross_street": "",
                        "formatted_address": "3974 Pierre de Coubertin Ave, Montr\u00e9al QC H1W 1E7",
                        "locality": "Montreal",
                        "postcode": "H1W 1E7",
                        "region": "QC"
                  },
                  "name": "Fusion Express",
                  "popularity": 0.9321300151400455,
                  "price": 2,
                  "rating": 8.0
            },
            {
                  "distance": 948,
                  "location": {
                        "address": "3971 Hochelaga Rue",
                        "country": "CA",
                        "cross_street": "",
                        "formatted_address": "3971 Hochelaga Rue, Montr\u00e9al QC H1W 1K2",
                        "locality": "Montreal",
                        "postcode": "H1W 1K2",
                        "region": "QC"
                  },
                  "name": "Poutine Centrale",
                  "popularity": 0.9448807721423165,
                  "price": 2,
                  "rating": 7.9
            },
            {
                  "distance": 895,
                  "location": {
                        "address": "2225 Bennett Ave",
                        "country": "CA",
                        "cross_street": "",
                        "formatted_address": "2225 Bennett Ave, Montr\u00e9al QC H1V 2T4",
                        "locality": "Montreal",
                        "postcode": "H1V 2T4",
                        "region": "QC"
                  },
                  "name": "Hoche Glac\u00e9",
                  "popularity": 0.9444549583648751,
                  "price": 1,
                  "rating": 7.7
            },
            {
                  "distance": 591,
                  "location": {
                        "address": "4101 Sherbrooke Rue E",
                        "country": "CA",
                        "cross_street": "",
                        "formatted_address": "4101 Sherbrooke Rue E, Montr\u00e9al QC H1X 2B2",
                        "locality": "Montreal",
                        "postcode": "H1X 2B2",
                        "region": "QC"
                  },
                  "name": "Restaurant du Jardin Botanique",
                  "popularity": 0.9286880204390613,
                  "price": 2,
                  "rating": 7.4
            },
            {
                  "distance": 780,
                  "location": {
                        "address": "3929 Sherbrooke Rue E",
                        "country": "CA",
                        "cross_street": "Orleans",
                        "formatted_address": "3929 Sherbrooke Rue E (Orleans), Montr\u00e9al QC H1X 3E3",
                        "locality": "Montreal",
                        "postcode": "H1X 3E3",
                        "region": "QC"
                  },
                  "name": "Restaurant la Belle Province",
                  "popularity": 0.9721091975775927,
                  "price": 1,
                  "rating": 6.3
            },
            {
                  "distance": 893,
                  "location": {
                        "address": "3881 Sherbrooke Rue E",
                        "country": "CA",
                        "cross_street": "coin Av. Bourbonni\u00e8re",
                        "formatted_address": "3881 Sherbrooke Rue E (coin Av. Bourbonni\u00e8re), Montr\u00e9al QC H1X 2A5",
                        "locality": "Montreal",
                        "postcode": "H1X 2A5",
                        "region": "QC"
                  },
                  "name": "Tim Hortons",
                  "popularity": 0.9890116389099167,
                  "price": 1,
                  "rating": 6.2
            },
            {
                  "distance": 393,
                  "location": {
                        "address": "4825 Pierre de Coubertin Ave",
                        "country": "CA",
                        "cross_street": "Viau",
                        "formatted_address": "4825 Pierre de Coubertin Ave (Viau), Montr\u00e9al QC",
                        "locality": "Montreal",
                        "region": "QC"
                  },
                  "name": "Pizza Pizza",
                  "popularity": 0.611610522331567,
                  "price": 1,
                  "rating": 6.2
            },
            {
                  "distance": 673,
                  "location": {
                        "address": "5000 Sherbrooke Rue E",
                        "country": "CA",
                        "cross_street": "",
                        "formatted_address": "5000 Sherbrooke Rue E, Montr\u00e9al QC H1V 1A1",
                        "locality": "Montreal",
                        "postcode": "H1V 1A1",
                        "region": "QC"
                  },
                  "name": "Au Toit Rouge",
                  "popularity": 0.8107967448902347,
                  "price": 2,
                  "rating": 5.9
            },
            {
                  "distance": 906,
                  "location": {
                        "address": "5222 Sherbrooke Rue E",
                        "country": "CA",
                        "formatted_address": "5222 Sherbrooke Rue E, Montr\u00e9al QC H1V 1A1",
                        "locality": "Montreal",
                        "postcode": "H1V 1A1",
                        "region": "QC"
                  },
                  "name": "Madisons Restaurant & Bar",
                  "popularity": 0.966171461014383,
                  "price": 2,
                  "rating": 5.8
            },
            {
                  "distance": 724,
                  "location": {
                        "address": "4240 Hochelaga Rue",
                        "country": "CA",
                        "formatted_address": "4240 Hochelaga Rue, Montr\u00e9al QC H1V 1B7",
                        "locality": "Montreal",
                        "postcode": "H1V 1B7",
                        "region": "QC"
                  },
                  "name": "Brasserie 99",
                  "popularity": 0.9025596139288418,
                  "price": 1,
                  "rating": 5.6
            },
            {
                  "distance": 557,
                  "location": {
                        "address": "3055 Viau Rue",
                        "country": "CA",
                        "formatted_address": "3055 Viau Rue, Montr\u00e9al QC H1V 3J5",
                        "locality": "Montreal",
                        "postcode": "H1V 3J5",
                        "region": "QC"
                  },
                  "name": "Mondelez Internationale",
                  "popularity": 0.9218395155185466
            },
            {
                  "distance": 575,
                  "location": {
                        "address": "4743 Hochelaga Rue",
                        "country": "CA",
                        "cross_street": "Leclaire",
                        "formatted_address": "4743 Hochelaga Rue (Leclaire), Montr\u00e9al QC H1V 1E2",
                        "locality": "Montreal",
                        "postcode": "H1V 1E2",
                        "region": "QC"
                  },
                  "name": "Restaurant Pizzeria Hochelaga",
                  "popularity": 0.9084618660105981,
                  "price": 1
            },
            {
                  "distance": 844,
                  "location": {
                        "address": "4535 Rue de Rouen",
                        "country": "CA",
                        "cross_street": "",
                        "formatted_address": "4535 Rue de Rouen, Montr\u00e9al QC H1V 2W4",
                        "locality": "Montreal",
                        "postcode": "H1V 2W4",
                        "region": "QC"
                  },
                  "name": "Bocal",
                  "popularity": 0.9737533118849356,
                  "price": 1
            },
            {
                  "distance": 885,
                  "location": {
                        "address": "3881 Rachel Rue E",
                        "country": "CA",
                        "cross_street": "Bourbonni\u00e8re",
                        "formatted_address": "3881 Rachel Rue E (Bourbonni\u00e8re), Montr\u00e9al QC H1X 1Z2",
                        "locality": "Montreal",
                        "postcode": "H1X 1Z2",
                        "region": "QC"
                  },
                  "name": "Le Botocoin",
                  "popularity": 0.9011757191521574,
                  "price": 1
            },
            {
                  "distance": 68,
                  "location": {
                        "address": "4141 Pierre-De Coubertin Ave",
                        "country": "CA",
                        "formatted_address": "4141 Pierre-De Coubertin Ave, Montreal QC H1V 3N7",
                        "locality": "Montreal",
                        "postcode": "H1V 3N7",
                        "region": "QC"
                  },
                  "name": "Restaurant de la Tour Olympique"
            },
            {
                  "distance": 488,
                  "location": {
                        "address": "4141 Pierre-De Coubertin Ave",
                        "country": "CA",
                        "formatted_address": "4141 Pierre-De Coubertin Ave, Montreal QC H1V 3N7",
                        "locality": "Montreal",
                        "postcode": "H1V 3N7",
                        "region": "QC"
                  },
                  "name": "Les Dimanches Salsa Folie"
            },
            {
                  "distance": 586,
                  "location": {
                        "address": "4115 Pierre de Coubertin",
                        "country": "CA",
                        "formatted_address": "4115 Pierre de Coubertin, Montreal QC",
                        "locality": "Montreal",
                        "region": "QC"
                  },
                  "name": "Hivernale"
            },
            {
                  "distance": 618,
                  "location": {
                        "address": "4740 Hochelaga Rue",
                        "country": "CA",
                        "formatted_address": "4740 Hochelaga Rue, Montreal QC H1V 1E3",
                        "locality": "Montreal",
                        "postcode": "H1V 1E3",
                        "region": "QC"
                  },
                  "name": "Tok\u00e9"
            },
            {
                  "distance": 646,
                  "location": {
                        "address": "3055 Viau Rue",
                        "country": "CA",
                        "formatted_address": "3055 Viau Rue, Montreal QC H1V 3J5",
                        "locality": "Montreal",
                        "postcode": "H1V 3J5",
                        "region": "QC"
                  },
                  "name": "Compagnie Christie Brown"
            },
            {
                  "distance": 682,
                  "location": {
                        "address": "5000 Sherbrooke Rue E",
                        "country": "CA",
                        "formatted_address": "5000 Sherbrooke Rue E, Montreal QC H1V 1A1",
                        "locality": "Montreal",
                        "postcode": "H1V 1A1",
                        "region": "QC"
                  },
                  "name": "Resto Bar le Toit Rouge"
            },
            {
                  "distance": 740,
                  "location": {
                        "address": "4240 Hochelaga Rue",
                        "country": "CA",
                        "formatted_address": "4240 Hochelaga Rue, Montreal QC H1V 1B7",
                        "locality": "Montreal",
                        "postcode": "H1V 1B7",
                        "region": "QC"
                  },
                  "name": "Brasserie Ninety Nine"
            },
            {
                  "distance": 756,
                  "location": {
                        "address": "5100 Sherbrooke Rue E",
                        "country": "CA",
                        "formatted_address": "5100 Sherbrooke Rue E, Montreal QC H1V 3R9",
                        "locality": "Montreal",
                        "postcode": "H1V 3R9",
                        "region": "QC"
                  },
                  "name": "Corporation financi\u00e8re HSBC Centre de Service Canadien"
            },
            {
                  "distance": 795,
                  "location": {
                        "address": "5100 Sherbrooke Rue E",
                        "country": "CA",
                        "formatted_address": "5100 Sherbrooke Rue E, Montreal QC H1V 3R9",
                        "locality": "Montreal",
                        "postcode": "H1V 3R9",
                        "region": "QC"
                  },
                  "name": "Restaurant Au Vieux Duluth"
            },
            {
                  "distance": 809,
                  "location": {
                        "address": "5100 Sherbrooke Rue E",
                        "country": "CA",
                        "formatted_address": "5100 Sherbrooke Rue E, Montreal QC H1V 3R9",
                        "locality": "Montreal",
                        "postcode": "H1V 3R9",
                        "region": "QC"
                  },
                  "name": "Montcaf\u00e9"
            },
            {
                  "distance": 897,
                  "location": {
                        "address": "2190 Aird Ave",
                        "country": "CA",
                        "formatted_address": "2190 Aird Ave, Montreal QC",
                        "locality": "Montreal",
                        "region": "QC"
                  },
                  "name": "Galette Soba"
            },
            {
                  "distance": 913,
                  "location": {
                        "address": "5222 Sherbrooke Rue E",
                        "country": "CA",
                        "formatted_address": "5222 Sherbrooke Rue E, Montreal QC H1V 1A1",
                        "locality": "Montreal",
                        "postcode": "H1V 1A1",
                        "region": "QC"
                  },
                  "name": "BRGR&MAC Village-Olympique"
            },
            {
                  "distance": 913,
                  "location": {
                        "address": "5222 Sherbrooke Rue E",
                        "country": "CA",
                        "formatted_address": "5222 Sherbrooke Rue E, Montreal QC H1V 1A1",
                        "locality": "Montreal",
                        "postcode": "H1V 1A1",
                        "region": "QC"
                  },
                  "name": "Madisons N Y Bar & Grill"
            }
      ],
      "context": {
            "geo_bounds": {
                  "circle": {
                        "center": {
                              "latitude": 45.55970527,
                              "longitude": -73.55155438
                        },
                        "radius": 1000
                  }
            }
      }
}