{
      "results": [
            {
                  "distance": 805,
                  "location": {
                        "address": "2707 Van Horne Ave",
                        "address_extended": "# 2615",
                        "country": "CA",
                        "cross_street": "",
                        "formatted_address": "2707 Van Horne Ave, Montr\u00e9al QC H3S 1P6",
                        "locality": "Montreal",
                        "postcode": "H3S 1P6",
                        "region": "QC"
                  },
                  "name": "Subway",
                  "popularity": 0.8892056207418623,
                  "price": 1,
                  "rating": 6.4
            },
            {
                  "distance": 306,
                  "location": {
                        "address": "2049 Edouard Montpetit",
                        "country": "CA",
                        "cross_street": "Vincent D'indy",
                        "formatted_address": "2049 Edouard Montpetit (Vincent D'indy), Montr\u00e9al QC",
                        "locality": "Montreal",
                        "region": "QC"
                  },
                  "name": "Les Navafr\u00e9es",
                  "popularity": 0.9031391937925813,
                  "price": 3
            },
            {
                  "distance": 440,
                  "location": {
                        "address": "9 Vincent d'Indy Ave",
                        "country": "CA",
                        "cross_street": "",
                        "formatted_address": "9 Vincent d'Indy Ave, Montr\u00e9al QC H2V 4N7",
                        "locality": "Montreal",
                        "postcode": "H2V 4N7",
                        "region": "QC"
                  },
                  "name": "Pizza Tifosi Outremont",
                  "popularity": 0.8951788417865254,
                  "price": 1
            },
            {
                  "distance": 635,
                  "location": {
                        "address": "2920 Ch de la Tour",
                        "country": "CA",
                        "formatted_address": "2920 Ch de la Tour, Montr\u00e9al QC H3T 1J4",
                        "locality": "Montreal",
                        "postcode": "H3T 1J4",
                        "region": "QC"
                  },
                  "name": "Caf\u00e9 Math-Info",
                  "popularity": 0.941012963663891,
                  "price": 1
            },
            {
                  "distance": 826,
                  "location": {
                        "address": "2659 Van Horne Ave",
                        "country": "CA",
                        "cross_street": "",
                        "formatted_address": "2659 Van Horne Ave, Montr\u00e9al QC H3S 1P6",
                        "locality": "Montreal",
                        "postcode": "H3S 1P6",
                        "region": "QC"
                  },
                  "name": "Domino's Pizza",
                  "popularity": 0.5123840840272521,
                  "price": 1,
                  "store_id": "10727"
            },
            {
                  "distance": 230,
                  "location": {
                        "address": "2100 Edouard-Montpetit Blvd",
                        "country": "CA",
                        "formatted_address": "2100 Edouard-Montpetit Blvd, Montreal QC H3T 1J4",
                        "locality": "Montreal",
                        "postcode": "H3T 1J4",
                        "region": "QC"
                  },
                  "name": "Caf\u00e9Kine"
            },
            {
                  "distance": 308,
                  "location": {
                        "address": "2500 Ch de Polytechnique Montr\u00e9al",
                        "country": "CA",
                        "formatted_address": "2500 Ch de Polytechnique Montr\u00e9al, Montreal QC",
                        "locality": "Montreal",
                        "region": "QC"
                  },
                  "name": "J'ai faim POLY MTL"
            },
            {
                  "distance": 308,
                  "location": {
                        "address": "2500 Ch de Polytechnique",
                        "country": "CA",
                        "formatted_address": "2500 Ch de Polytechnique, Montreal QC",
                        "locality": "Montreal",
                        "region": "QC"
                  },
                  "name": "Polybroue"
            },
            {
                  "distance": 502,
                  "location": {
                        "address": "90 Vincent d'Indy Ave",
                        "address_extended": "D-438",
                        "country": "CA",
                        "formatted_address": "90 Vincent d'Indy Ave, Outremont QC",
                        "locality": "Outremont",
                        "region": "QC"
                  },
                  "name": "Le Psychic"
            },
            {
                  "distance": 512,
                  "location": {
                        "address": "200 Vincent d'Indy Ave",
                        "country": "CA",
                        "formatted_address": "200 Vincent d'Indy Ave, Montreal QC",
                        "locality": "Montreal",
                        "region": "QC"
                  },
                  "name": "Caf\u00e9 le Triton"
            },
            {
                  "distance": 515,
                  "location": {
                        "address": "2900 Edouard-Montpetit Blvd",
                        "country": "CA",
                        "formatted_address": "2900 Edouard-Montpetit Blvd, Montreal QC H3T 1J4",
                        "locality": "Montreal",
                        "postcode": "H3T 1J4",
                        "region": "QC"
                  },
                  "name": "Cafe-In"
            },
            {
                  "distance": 574,
                  "location": {
                        "address": "2662 Ave de Soissons",
                        "country": "CA",
                        "formatted_address": "2662 Ave de Soissons, Montreal QC H3S 1V8",
                        "locality": "Montreal",
                        "postcode": "H3S 1V8",
                        "region": "QC"
                  },
                  "name": "Moist Club"
            },
            {
                  "distance": 689,
                  "location": {
                        "address": "6100 Ave du Boise",
                        "country": "CA",
                        "formatted_address": "6100 Ave du Boise, Montreal QC H3S 2W1",
                        "locality": "Montreal",
                        "postcode": "H3S 2W1",
                        "region": "QC"
                  },
                  "name": "Cafe Morena"
            },
            {
                  "distance": 823,
                  "location": {
                        "address": "3175 ch de la cote-Sainte-Catherine",
                        "country": "CA",
                        "formatted_address": "3175 ch de la cote-Sainte-Catherine, Montreal QC H3T 1C5",
                        "locality": "Montreal",
                        "postcode": "H3T 1C5",
                        "region": "QC"
                  },
                  "name": "Van Houtte"
            },
            {
                  "distance": 868,
                  "location": {
                        "address": "2660 Ave de Kent",
                        "country": "CA",
                        "formatted_address": "2660 Ave de Kent, Montreal QC H3S 1M7",
                        "locality": "Montreal",
                        "postcode": "H3S 1M7",
                        "region": "QC"
                  },
                  "name": "Saveurs de Damas"
            },
            {
                  "distance": 935,
                  "location": {
                        "address": "2720 Pl de Darlington",
                        "country": "CA",
                        "formatted_address": "2720 Pl de Darlington, Montreal QC H3S 1L5",
                        "locality": "Montreal",
                        "postcode": "H3S 1L5",
                        "region": "QC"
                  },
                  "name": "Joaquin's Cigar Lounge"
            }
      ],
      "context": {
            "geo_bounds": {
                  "circle": {
                        "center": {
                              "latitude": 45.50723,
                              "longitude": -73.615085
                        },
                        "radius": 1000
                  }
            }
      }
}