{
      "results": [
            {
                  "distance": 677,
                  "location": {
                        "address": "2471 Notre-Dame Rue O",
                        "country": "CA",
                        "cross_street": "entre Vinet & Charlevoix",
                        "formatted_address": "2471 Notre-Dame Rue O (entre Vinet & Charlevoix), Montr\u00e9al QC H3J 1N6",
                        "locality": "Montreal",
                        "postcode": "H3J 1N6",
                        "region": "QC"
                  },
                  "name": "September Surf Caf\u00e9",
                  "popularity": 0.9357139477668432,
                  "price": 1,
                  "rating": 9.0
            },
            {
                  "distance": 817,
                  "location": {
                        "address": "2713 Notre-Dame Rue O",
                        "country": "CA",
                        "cross_street": "Atwater",
                        "formatted_address": "2713 Notre-Dame Rue O (Atwater), Montr\u00e9al QC H3J 1N9",
                        "locality": "Montreal",
                        "postcode": "H3J 1N9",
                        "region": "QC"
                  },
                  "name": "Lili & Oli",
                  "popularity": 0.9507711960635882,
                  "price": 1,
                  "rating": 8.9
            },
            {
                  "distance": 697,
                  "location": {
                        "address": "2501 Notre-Dame Rue O",
                        "country": "CA",
                        "cross_street": "btwn Charlevoix & Vinet",
                        "formatted_address": "2501 Notre-Dame Rue O (btwn Charlevoix & Vinet), Montr\u00e9al QC H3J 1N6",
                        "locality": "Montreal",
                        "postcode": "H3J 1N6",
                        "region": "QC"
                  },
                  "name": "Liverpool House",
                  "popularity": 0.9156888720666162,
                  "price": 3,
                  "rating": 8.9
            },
            {
                  "distance": 607,
                  "location": {
                        "address": "1886 Notre-Dame Rue O",
                        "country": "CA",
                        "cross_street": "coin Des Seigneurs",
                        "formatted_address": "1886 Notre-Dame Rue O (coin Des Seigneurs), Montr\u00e9al QC H3J 1M6",
                        "locality": "Montreal",
                        "postcode": "H3J 1M6",
                        "region": "QC"
                  },
                  "name": "Le Boucan",
                  "popularity": 0.9390494890234671,
                  "price": 3,
                  "rating": 8.8
            },
            {
                  "distance": 702,
                  "location": {
                        "address": "2496 Notre-Dame Rue O",
                        "country": "CA",
                        "cross_street": "entre Charlevoix & Vinet",
                        "formatted_address": "2496 Notre-Dame Rue O (entre Charlevoix & Vinet), Montr\u00e9al QC H3J 1N5",
                        "locality": "Montreal",
                        "postcode": "H3J 1N5",
                        "region": "QC"
                  },
                  "name": "Burgundy Lion",
                  "popularity": 0.956637963663891,
                  "price": 2,
                  "rating": 8.8
            },
            {
                  "distance": 645,
                  "location": {
                        "address": "4006 Sainte-Catherine Rue O",
                        "country": "CA",
                        "cross_street": "coin Atwater",
                        "formatted_address": "4006 Sainte-Catherine Rue O (coin Atwater), Westmount QC H3Z 1P2",
                        "locality": "Westmount",
                        "postcode": "H3Z 1P2",
                        "region": "QC"
                  },
                  "name": "Imadake",
                  "popularity": 0.9621822690638562,
                  "price": 2,
                  "rating": 8.7
            },
            {
                  "distance": 878,
                  "location": {
                        "address": "512 Atwater Ave",
                        "country": "CA",
                        "cross_street": "Notre-Dame",
                        "formatted_address": "512 Atwater Ave (Notre-Dame), Montr\u00e9al QC H4C 2G5",
                        "locality": "Montreal",
                        "postcode": "H4C 2G5",
                        "region": "QC"
                  },
                  "name": "Atwater Cocktail Club",
                  "popularity": 0.969412376987131,
                  "price": 3,
                  "rating": 8.7
            },
            {
                  "distance": 946,
                  "location": {
                        "address": "1504 Sherbrooke Rue O",
                        "country": "CA",
                        "cross_street": "",
                        "formatted_address": "1504 Sherbrooke Rue O, Montr\u00e9al QC H3G 1L3",
                        "locality": "Montreal",
                        "postcode": "H3G 1L3",
                        "region": "QC"
                  },
                  "name": "Ristorante Beatrice",
                  "popularity": 0.9627058099924299,
                  "price": 3,
                  "rating": 8.6
            },
            {
                  "distance": 877,
                  "location": {
                        "address": "1255 Crescent Rue",
                        "country": "CA",
                        "cross_street": "Sainte-Catherine",
                        "formatted_address": "1255 Crescent Rue (Sainte-Catherine), Montr\u00e9al QC H3G 2B1",
                        "locality": "Montreal",
                        "postcode": "H3G 2B1",
                        "region": "QC"
                  },
                  "name": "Gyu-Kaku BBQ",
                  "popularity": 0.9762253974261923,
                  "price": 2,
                  "rating": 8.6,
                  "store_id": "14142"
            },
            {
                  "distance": 689,
                  "location": {
                        "address": "1638 Notre-Dame Rue O",
                        "country": "CA",
                        "cross_street": "entre Guy & Richmond",
                        "formatted_address": "1638 Notre-Dame Rue O (entre Guy & Richmond), Montr\u00e9al QC H3J 1M1",
                        "locality": "Montreal",
                        "postcode": "H3J 1M1",
                        "region": "QC"
                  },
                  "name": "Foxy",
                  "popularity": 0.9481216881150644,
                  "price": 2,
                  "rating": 8.6
            },
            {
                  "distance": 929,
                  "location": {
                        "address": "1485 Ottawa Rue",
                        "country": "CA",
                        "cross_street": "coin Guy",
                        "formatted_address": "1485 Ottawa Rue (coin Guy), Montr\u00e9al QC H3C 1S9",
                        "locality": "Montreal",
                        "postcode": "H3C 1S9",
                        "region": "QC"
                  },
                  "name": "Brasseur de Montr\u00e9al",
                  "popularity": 0.9854750189250567,
                  "price": 2,
                  "rating": 8.5
            },
            {
                  "distance": 954,
                  "location": {
                        "address": "1388 Blvd de Maisonneuve O",
                        "country": "CA",
                        "cross_street": "",
                        "formatted_address": "1388 Blvd de Maisonneuve O, Montr\u00e9al QC H3G 0C8",
                        "locality": "Montreal",
                        "postcode": "H3G 0C8",
                        "region": "QC"
                  },
                  "name": "Notre-Boeuf-de-Gr\u00e2ce",
                  "popularity": 0.9788394208932627,
                  "price": 1,
                  "rating": 8.4
            },
            {
                  "distance": 709,
                  "location": {
                        "address": "1254 MacKay Rue",
                        "country": "CA",
                        "formatted_address": "1254 MacKay Rue, Montr\u00e9al QC H3G 2H4",
                        "locality": "Montreal",
                        "postcode": "H3G 2H4",
                        "region": "QC"
                  },
                  "name": "Upstairs Jazz Bar & Grill",
                  "popularity": 0.9743210635881908,
                  "rating": 8.3
            },
            {
                  "distance": 679,
                  "location": {
                        "address": "1238 MacKay Rue",
                        "country": "CA",
                        "cross_street": "South of Sainte-catherine",
                        "formatted_address": "1238 MacKay Rue (South of Sainte-catherine), Montr\u00e9al QC H3G 2H4",
                        "locality": "Montreal",
                        "postcode": "H3G 2H4",
                        "region": "QC"
                  },
                  "name": "Garage Beirut",
                  "popularity": 0.9214373580620742,
                  "rating": 8.3
            },
            {
                  "distance": 735,
                  "location": {
                        "address": "1626 Blvd de Maisonneuve Ouest",
                        "country": "CA",
                        "cross_street": "",
                        "formatted_address": "1626 Blvd de Maisonneuve Ouest, Montr\u00e9al QC H3H 1J5",
                        "locality": "Montreal",
                        "postcode": "H3H 1J5",
                        "region": "QC"
                  },
                  "name": "Antep Kabab",
                  "popularity": 0.9862201930355791,
                  "price": 1,
                  "rating": 8.3
            },
            {
                  "distance": 905,
                  "location": {
                        "address": "1612 Sherbrooke Rue O",
                        "country": "CA",
                        "cross_street": "",
                        "formatted_address": "1612 Sherbrooke Rue O, Montr\u00e9al QC H3H 1C9",
                        "locality": "Montreal",
                        "postcode": "H3H 1C9",
                        "region": "QC"
                  },
                  "name": "Chez Hailar",
                  "popularity": 0.9650241294473884,
                  "price": 2,
                  "rating": 8.3
            },
            {
                  "distance": 943,
                  "location": {
                        "address": "1189 Rue de la Montagne",
                        "country": "CA",
                        "cross_street": "at Ren\u00e9-Levesque",
                        "formatted_address": "1189 Rue de la Montagne (at Ren\u00e9-Levesque), Montr\u00e9al QC H3G 1Z2",
                        "locality": "Montreal",
                        "postcode": "H3G 1Z2",
                        "region": "QC"
                  },
                  "name": "Ye Olde Orchard Pub & Grill",
                  "popularity": 0.9698855034065103,
                  "price": 2,
                  "rating": 8.3
            },
            {
                  "distance": 807,
                  "location": {
                        "address": "1255 Bishop Rue",
                        "country": "CA",
                        "cross_street": "",
                        "formatted_address": "1255 Bishop Rue, Montr\u00e9al QC H3G 2E2",
                        "locality": "Montreal",
                        "postcode": "H3G 2E2",
                        "region": "QC"
                  },
                  "name": "C'Cho-Colat",
                  "popularity": 0.9571110900832702,
                  "price": 1,
                  "rating": 8.2
            },
            {
                  "distance": 655,
                  "location": {
                        "address": "1441 Saint Mathieu Rue",
                        "country": "CA",
                        "cross_street": "entre De Maisonneuve & Ste-Catherine",
                        "formatted_address": "1441 Saint Mathieu Rue (entre De Maisonneuve & Ste-Catherine), Montr\u00e9al QC H3H 2M4",
                        "locality": "Montreal",
                        "postcode": "H3H 2M4",
                        "region": "QC"
                  },
                  "name": "Otto Yakitori Izakaya",
                  "popularity": 0.9624337623012869,
                  "price": 2,
                  "rating": 8.2
            },
            {
                  "distance": 898,
                  "location": {
                        "address": "1356 Sainte-Catherine Rue O",
                        "country": "CA",
                        "cross_street": "coin Crescent",
                        "formatted_address": "1356 Sainte-Catherine Rue O (coin Crescent), Montr\u00e9al QC H3G 1P6",
                        "locality": "Montreal",
                        "postcode": "H3G 1P6",
                        "region": "QC"
                  },
                  "name": "Les 3 Brasseurs",
                  "popularity": 0.9850728614685844,
                  "price": 2,
                  "rating": 8.2
            },
            {
                  "distance": 705,
                  "location": {
                        "address": "1515 Sainte-Catherine Rue O",
                        "country": "CA",
                        "cross_street": "boul. de Maisonneuve",
                        "formatted_address": "1515 Sainte-Catherine Rue O (boul. de Maisonneuve), Montr\u00e9al QC H3G 2W1",
                        "locality": "Montreal",
                        "postcode": "H3G 2W1",
                        "region": "QC"
                  },
                  "name": "Jugo Juice",
                  "popularity": 0.9863976154428463,
                  "price": 1,
                  "rating": 8.2
            },
            {
                  "distance": 883,
                  "location": {
                        "address": "3001 Notre-Dame Rue O",
                        "country": "CA",
                        "cross_street": "coin Atwater",
                        "formatted_address": "3001 Notre-Dame Rue O (coin Atwater), Montr\u00e9al QC H4C 1N9",
                        "locality": "Montreal",
                        "postcode": "H4C 1N9",
                        "region": "QC"
                  },
                  "name": "Foiegwa",
                  "popularity": 0.9437807532172596,
                  "price": 3,
                  "rating": 8.2
            },
            {
                  "distance": 623,
                  "location": {
                        "address": "1850 Notre-Dame Rue O",
                        "country": "CA",
                        "cross_street": "Rue des Seigneurs",
                        "formatted_address": "1850 Notre-Dame Rue O (Rue des Seigneurs), Montr\u00e9al QC H3J 1M5",
                        "locality": "Montreal",
                        "postcode": "H3J 1M5",
                        "region": "QC"
                  },
                  "name": "Caf\u00e9 Lali",
                  "popularity": 0.9049134178652536,
                  "price": 1,
                  "rating": 8.1
            },
            {
                  "distance": 945,
                  "location": {
                        "address": "1434 Crescent Rue",
                        "country": "CA",
                        "cross_street": "Rue Sainte-Catherine Ouest",
                        "formatted_address": "1434 Crescent Rue (Rue Sainte-Catherine Ouest), Montr\u00e9al QC H3G 2B6",
                        "locality": "Montreal",
                        "postcode": "H3G 2B6",
                        "region": "QC"
                  },
                  "name": "Wienstein & Gavino's",
                  "popularity": 0.974179125662377,
                  "price": 2,
                  "rating": 8.0
            },
            {
                  "distance": 517,
                  "location": {
                        "address": "1909 Sainte-Catherine Rue O",
                        "country": "CA",
                        "cross_street": "St-Marc Street",
                        "formatted_address": "1909 Sainte-Catherine Rue O (St-Marc Street), Montr\u00e9al QC H3H 1M3",
                        "locality": "Montreal",
                        "postcode": "H3H 1M3",
                        "region": "QC"
                  },
                  "name": "Sammi & Soupe Dumpling",
                  "popularity": 0.9820921650264951,
                  "price": 1,
                  "rating": 8.0
            },
            {
                  "distance": 864,
                  "location": {
                        "address": "1325 Blvd Ren\u00e9-L\u00e9vesque O",
                        "country": "CA",
                        "cross_street": "",
                        "formatted_address": "1325 Blvd Ren\u00e9-L\u00e9vesque O, Montr\u00e9al QC H3G 0A1",
                        "locality": "Montreal",
                        "postcode": "H3G 0A1",
                        "region": "QC"
                  },
                  "name": "Siam",
                  "popularity": 0.9710564912944739,
                  "price": 2,
                  "rating": 8.0
            },
            {
                  "distance": 702,
                  "location": {
                        "address": "1244 MacKay Rue",
                        "country": "CA",
                        "cross_street": "entre St-Catherine & Ren\u00e9-L\u00e9vesque",
                        "formatted_address": "1244 MacKay Rue (entre St-Catherine & Ren\u00e9-L\u00e9vesque), Montr\u00e9al QC H3G 2H4",
                        "locality": "Montreal",
                        "postcode": "H3G 2H4",
                        "region": "QC"
                  },
                  "name": "N sur Mackay",
                  "popularity": 0.951208838001514,
                  "price": 3,
                  "rating": 7.9
            },
            {
                  "distance": 763,
                  "location": {
                        "address": "2000 Guy Rue",
                        "country": "CA",
                        "cross_street": "coin de Maisonneuve",
                        "formatted_address": "2000 Guy Rue (coin de Maisonneuve), Montr\u00e9al QC H3H 2L8",
                        "locality": "Montreal",
                        "postcode": "H3H 2L8",
                        "region": "QC"
                  },
                  "name": "Starbucks",
                  "popularity": 0.9943106548069645,
                  "price": 2,
                  "rating": 7.8,
                  "store_id": "4056-140777"
            },
            {
                  "distance": 688,
                  "location": {
                        "address": "1684 Blvd Maisonneuve Ouest",
                        "country": "CA",
                        "cross_street": "St. Mathieu",
                        "formatted_address": "1684 Blvd Maisonneuve Ouest (St. Mathieu), Montr\u00e9al QC H3H 1J7",
                        "locality": "Montreal",
                        "postcode": "H3H 1J7",
                        "region": "QC"
                  },
                  "name": "All\u00f4! Mon Coco",
                  "popularity": 0.9630843111279334,
                  "price": 1,
                  "rating": 7.8
            },
            {
                  "distance": 764,
                  "location": {
                        "address": "2661 Notre-Dame Rue O",
                        "country": "CA",
                        "cross_street": "Petite-Bourgogne",
                        "formatted_address": "2661 Notre-Dame Rue O (Petite-Bourgogne), Montr\u00e9al QC H3J 1N9",
                        "locality": "Montreal",
                        "postcode": "H3J 1N9",
                        "region": "QC"
                  },
                  "name": "Drinkerie Ste-Cun\u00e9gonde",
                  "popularity": 0.9424678274034822,
                  "price": 2,
                  "rating": 7.8
            },
            {
                  "distance": 1009,
                  "location": {
                        "address": "1221 Rene-Levesque Blvd O",
                        "country": "CA",
                        "cross_street": "coin Drummond",
                        "formatted_address": "1221 Rene-Levesque Blvd O (coin Drummond), Montr\u00e9al QC H3G 1T1",
                        "locality": "Montreal",
                        "postcode": "H3G 1T1",
                        "region": "QC"
                  },
                  "name": "Bier Markt",
                  "popularity": 0.9826244322482968,
                  "price": 2,
                  "rating": 7.7,
                  "store_id": "4862"
            },
            {
                  "distance": 846,
                  "location": {
                        "address": "2002 MacKay Rue",
                        "country": "CA",
                        "cross_street": "De Maisonneuve",
                        "formatted_address": "2002 MacKay Rue (De Maisonneuve), Montr\u00e9al QC H3G 2J1",
                        "locality": "Montreal",
                        "postcode": "H3G 2J1",
                        "region": "QC"
                  },
                  "name": "Hinnawi Bros Bagel & Caf\u00e9",
                  "popularity": 0.97194360333081,
                  "price": 1,
                  "rating": 7.7
            },
            {
                  "distance": 965,
                  "location": {
                        "address": "2065A Bishop Rue",
                        "country": "CA",
                        "cross_street": "",
                        "formatted_address": "2065A Bishop Rue, Montr\u00e9al QC H3G 2E8",
                        "locality": "Montreal",
                        "postcode": "H3G 2E8",
                        "region": "QC"
                  },
                  "name": "Ramen Misoya",
                  "popularity": 0.9683360143830432,
                  "price": 2,
                  "rating": 7.7
            },
            {
                  "distance": 670,
                  "location": {
                        "address": "1455 Lambert-Closse Rue",
                        "country": "CA",
                        "cross_street": "De Maisonneuve",
                        "formatted_address": "1455 Lambert-Closse Rue (De Maisonneuve), Montr\u00e9al QC H3H 1Z5",
                        "locality": "Montreal",
                        "postcode": "H3H 1Z5",
                        "region": "QC"
                  },
                  "name": "Shaughnessy Caf\u00e9",
                  "popularity": 0.9712575700227101,
                  "price": 1,
                  "rating": 7.7
            },
            {
                  "distance": 865,
                  "location": {
                        "address": "1225 Crescent Rue",
                        "country": "CA",
                        "cross_street": "btwn Ren\u00e9-L\u00e9vesque O & Sainte-Catherine O",
                        "formatted_address": "1225 Crescent Rue (btwn Ren\u00e9-L\u00e9vesque O & Sainte-Catherine O), Montr\u00e9al QC H3G 2B1",
                        "locality": "Montreal",
                        "postcode": "H3G 2B1",
                        "region": "QC"
                  },
                  "name": "Hurley's Irish Pub",
                  "popularity": 0.9727242619227857,
                  "price": 2,
                  "rating": 7.7
            }
      ],
      "context": {
            "geo_bounds": {
                  "circle": {
                        "center": {
                              "latitude": 45.4891,
                              "longitude": -73.57656
                        },
                        "radius": 1000
                  }
            }
      }
}