{
      "results": [
            {
                  "distance": 824,
                  "location": {
                        "address": "3353 Masson Rue",
                        "country": "CA",
                        "cross_street": "",
                        "formatted_address": "3353 Masson Rue, Montr\u00e9al QC H1X 1R5",
                        "locality": "Montreal",
                        "postcode": "H1X 1R5",
                        "region": "QC"
                  },
                  "name": "Maesmi",
                  "popularity": 0.9623154806964421,
                  "price": 1,
                  "rating": 8.9
            },
            {
                  "distance": 925,
                  "location": {
                        "address": "3188 Masson Rue",
                        "country": "CA",
                        "cross_street": "coin 10e avenue",
                        "formatted_address": "3188 Masson Rue (coin 10e avenue), Montr\u00e9al QC H1Y 1Y1",
                        "locality": "Montreal",
                        "postcode": "H1Y 1Y1",
                        "region": "QC"
                  },
                  "name": "La Succursale",
                  "popularity": 0.9643262679788039,
                  "price": 2,
                  "rating": 8.2
            },
            {
                  "distance": 940,
                  "location": {
                        "address": "5405 9e Ave",
                        "country": "CA",
                        "cross_street": "coin Masson",
                        "formatted_address": "5405 9e Ave (coin Masson), Montr\u00e9al QC H1Y 2J7",
                        "locality": "Montreal",
                        "postcode": "H1Y 2J7",
                        "region": "QC"
                  },
                  "name": "Frite Alors",
                  "popularity": 0.9371096707040121,
                  "price": 1,
                  "rating": 7.5
            },
            {
                  "distance": 812,
                  "location": {
                        "address": "4028 Masson Rue",
                        "country": "CA",
                        "cross_street": "Btw Jean-d'Arc & Pie-IX",
                        "formatted_address": "4028 Masson Rue (Btw Jean-d'Arc & Pie-IX), Montr\u00e9al QC H1X 1T8",
                        "locality": "Montreal",
                        "postcode": "H1X 1T8",
                        "region": "QC"
                  },
                  "name": "Restaurant Chez la M\u00e8re",
                  "popularity": 0.9612036336109009,
                  "price": 1,
                  "rating": 7.4
            },
            {
                  "distance": 492,
                  "location": {
                        "address": "4023 Beaubien Rue E",
                        "country": "CA",
                        "formatted_address": "4023 Beaubien Rue E, Montr\u00e9al QC H1X 1H7",
                        "locality": "Montreal",
                        "postcode": "H1X 1H7",
                        "region": "QC"
                  },
                  "name": "Beaubien Deli",
                  "popularity": 0.9816072104466314,
                  "price": 2,
                  "rating": 7.2
            },
            {
                  "distance": 790,
                  "location": {
                        "address": "3397 Saint-Zotique Rue E",
                        "country": "CA",
                        "cross_street": "",
                        "formatted_address": "3397 Saint-Zotique Rue E, Montr\u00e9al QC H1X 1C7",
                        "locality": "Montreal",
                        "postcode": "H1X 1C7",
                        "region": "QC"
                  },
                  "name": "Au Coq",
                  "popularity": 0.962043433005299,
                  "price": 1,
                  "rating": 6.7
            },
            {
                  "distance": 453,
                  "location": {
                        "address": "3255 Rosemont Blvd",
                        "country": "CA",
                        "formatted_address": "3255 Rosemont Blvd, Montr\u00e9al QC H1X 1K1",
                        "locality": "Montreal",
                        "postcode": "H1X 1K1",
                        "region": "QC"
                  },
                  "name": "Restaurant le Petit Quebec",
                  "popularity": 0.9626703255109765,
                  "price": 1,
                  "rating": 5.2
            },
            {
                  "distance": 448,
                  "location": {
                        "address": "3641A Dandurand Rue",
                        "country": "CA",
                        "cross_street": "16e avenue",
                        "formatted_address": "3641A Dandurand Rue (16e avenue), Montreal QC H1X 1N5",
                        "locality": "Mont\u00e9r\u00e9gie",
                        "postcode": "H1X 1N5",
                        "region": "QC"
                  },
                  "name": "La Bo\u00eete \u00e0 Vins",
                  "popularity": 0.10760077592732778,
                  "price": 1
            },
            {
                  "distance": 538,
                  "location": {
                        "address": "3350 Beaubien Rue E",
                        "country": "CA",
                        "cross_street": "",
                        "formatted_address": "3350 Beaubien Rue E, Montr\u00e9al QC H1X 1G6",
                        "locality": "Montreal",
                        "postcode": "H1X 1G6",
                        "region": "QC"
                  },
                  "name": "Zytynsky's",
                  "popularity": 0.9171555639666918,
                  "price": 2
            },
            {
                  "distance": 540,
                  "location": {
                        "address": "3224 Rosemont Blvd",
                        "country": "CA",
                        "cross_street": "",
                        "formatted_address": "3224 Rosemont Blvd, Montr\u00e9al QC H1Y 1M7",
                        "locality": "Montreal",
                        "postcode": "H1Y 1M7",
                        "region": "QC"
                  },
                  "name": "Poulet 3 Pattes",
                  "popularity": 0.8786430734292203,
                  "price": 2
            },
            {
                  "distance": 586,
                  "location": {
                        "address": "3240 Beaubien Rue E",
                        "country": "CA",
                        "cross_street": "",
                        "formatted_address": "3240 Beaubien Rue E, Montr\u00e9al QC H1Y 1H7",
                        "locality": "Montreal",
                        "postcode": "H1Y 1H7",
                        "region": "QC"
                  },
                  "name": "Caf\u00e9 Hologramme",
                  "popularity": 0.2952663701741105,
                  "price": 1
            },
            {
                  "distance": 610,
                  "location": {
                        "address": "3251 Beaubien Rue E",
                        "country": "CA",
                        "cross_street": "",
                        "formatted_address": "3251 Beaubien Rue E, Montr\u00e9al QC H1X 1G4",
                        "locality": "Montreal",
                        "postcode": "H1X 1G4",
                        "region": "QC"
                  },
                  "name": "A&W Restaurant",
                  "popularity": 0.9718253217259651,
                  "price": 1,
                  "store_id": "5590"
            },
            {
                  "distance": 683,
                  "location": {
                        "address": "3240 Dandurand Rue",
                        "country": "CA",
                        "cross_street": "coin St-Michel",
                        "formatted_address": "3240 Dandurand Rue (coin St-Michel), Montr\u00e9al QC H1Y 1V5",
                        "locality": "Montreal",
                        "postcode": "H1Y 1V5",
                        "region": "QC"
                  },
                  "name": "Gariepy & Fils Fins Gourmets",
                  "popularity": 0.9137372255866768
            },
            {
                  "distance": 699,
                  "location": {
                        "address": "3756 Masson Rue",
                        "country": "CA",
                        "cross_street": "17eme avenue",
                        "formatted_address": "3756 Masson Rue (17eme avenue), Montr\u00e9al QC H1X 1S6",
                        "locality": "Montreal",
                        "postcode": "H1X 1S6",
                        "region": "QC"
                  },
                  "name": "La Tasse Rouge",
                  "popularity": 0.8086321915215746,
                  "price": 1
            },
            {
                  "distance": 712,
                  "location": {
                        "address": "3738 Masson Rue",
                        "country": "CA",
                        "cross_street": "17e",
                        "formatted_address": "3738 Masson Rue (17e), Montr\u00e9al QC H1X 1S6",
                        "locality": "Montreal",
                        "postcode": "H1X 1S6",
                        "region": "QC"
                  },
                  "name": "Les Plats Cuisin\u00e9s B.V.M",
                  "popularity": 0.37813446252838756,
                  "price": 1
            },
            {
                  "distance": 731,
                  "location": {
                        "address": "3560 Masson Rue",
                        "country": "CA",
                        "cross_street": "15e Ave",
                        "formatted_address": "3560 Masson Rue (15e Ave), Montr\u00e9al QC H1X 1R9",
                        "locality": "Montreal",
                        "postcode": "H1X 1R9",
                        "region": "QC"
                  },
                  "name": "Bar U-Turn",
                  "popularity": 0.8883776495079485,
                  "price": 2
            },
            {
                  "distance": 797,
                  "location": {
                        "address": "3124 Beaubien Rue E",
                        "country": "CA",
                        "cross_street": "",
                        "formatted_address": "3124 Beaubien Rue E, Montr\u00e9al QC H1Y 1H3",
                        "locality": "Montreal",
                        "postcode": "H1Y 1H3",
                        "region": "QC"
                  },
                  "name": "Bairrada",
                  "popularity": 0.6641157267221802,
                  "price": 1
            },
            {
                  "distance": 800,
                  "location": {
                        "address": "3222 Beaubien Rue E",
                        "country": "CA",
                        "cross_street": "St-Michel",
                        "formatted_address": "3222 Beaubien Rue E (St-Michel), Montr\u00e9al QC H1Y 1H7",
                        "locality": "Montreal",
                        "postcode": "H1Y 1H7",
                        "region": "QC"
                  },
                  "name": "Pho Hung Restaurant",
                  "popularity": 0.03770817562452687,
                  "price": 2
            },
            {
                  "distance": 854,
                  "location": {
                        "address": "3251 Masson Rue",
                        "country": "CA",
                        "cross_street": "Coin boulevard Saint-Michel",
                        "formatted_address": "3251 Masson Rue (Coin boulevard Saint-Michel), Montr\u00e9al QC H1X 1R3",
                        "locality": "Montreal",
                        "postcode": "H1X 1R3",
                        "region": "QC"
                  },
                  "name": "Bar Monaco",
                  "popularity": 0.6515069076457229,
                  "price": 2
            },
            {
                  "distance": 884,
                  "location": {
                        "address": "3244 Masson Rue",
                        "country": "CA",
                        "cross_street": "",
                        "formatted_address": "3244 Masson Rue, Montr\u00e9al QC H1Y 1Y3",
                        "locality": "Montreal",
                        "postcode": "H1Y 1Y3",
                        "region": "QC"
                  },
                  "name": "A&W Restaurant",
                  "popularity": 0.9042273845571537,
                  "price": 1,
                  "store_id": "5903"
            },
            {
                  "distance": 965,
                  "location": {
                        "address": "3150 Masson Rue",
                        "country": "CA",
                        "cross_street": "coin 9e avenue",
                        "formatted_address": "3150 Masson Rue (coin 9e avenue), Montr\u00e9al QC H1Y 1Y1",
                        "locality": "Montreal",
                        "postcode": "H1Y 1Y1",
                        "region": "QC"
                  },
                  "name": "Restaurant Basha",
                  "popularity": 0.9222298448145344,
                  "price": 1
            },
            {
                  "distance": 966,
                  "location": {
                        "address": "3135 Masson Rue",
                        "country": "CA",
                        "cross_street": "",
                        "formatted_address": "3135 Masson Rue, Montr\u00e9al QC H1Y 1X9",
                        "locality": "Montreal",
                        "postcode": "H1Y 1X9",
                        "region": "QC"
                  },
                  "name": "Billy Buck",
                  "popularity": 0.30010408781226344,
                  "price": 1
            },
            {
                  "distance": 974,
                  "location": {
                        "address": "3127 Masson Rue",
                        "country": "CA",
                        "cross_street": "",
                        "formatted_address": "3127 Masson Rue, Montr\u00e9al QC H1Y 1X9",
                        "locality": "Montreal",
                        "postcode": "H1Y 1X9",
                        "region": "QC"
                  },
                  "name": "Mojito & Margarita",
                  "popularity": 0.880429125662377,
                  "price": 1
            },
            {
                  "distance": 2825,
                  "location": {
                        "address": "2862 Rosemont Blvd",
                        "country": "CA",
                        "cross_street": "5e Avenue",
                        "formatted_address": "2862 Rosemont Blvd (5e Avenue), Montr\u00e9al QC H1Y 1L7",
                        "locality": "Montreal",
                        "postcode": "H1Y 1L7",
                        "region": "QC"
                  },
                  "name": "O Fuzion",
                  "popularity": 0.09026069265707796,
                  "price": 2
            },
            {
                  "distance": 636,
                  "location": {
                        "address": "3231 Beaubien Rue E",
                        "country": "CA",
                        "formatted_address": "3231 Beaubien Rue E, Montreal QC H1Y 1H6",
                        "locality": "Montreal",
                        "postcode": "H1Y 1H6",
                        "region": "QC"
                  },
                  "name": "Restaurant Famili"
            },
            {
                  "distance": 679,
                  "location": {
                        "address": "3234 Beaubien Rue E",
                        "country": "CA",
                        "formatted_address": "3234 Beaubien Rue E, Montreal QC H1Y 1H7",
                        "locality": "Montreal",
                        "postcode": "H1Y 1H7",
                        "region": "QC"
                  },
                  "name": "Taverne"
            },
            {
                  "distance": 682,
                  "location": {
                        "address": "3775 Masson Rue",
                        "country": "CA",
                        "formatted_address": "3775 Masson Rue, Montreal QC H1X 1S7",
                        "locality": "Montreal",
                        "postcode": "H1X 1S7",
                        "region": "QC"
                  },
                  "name": "Banh Mi Ngon"
            },
            {
                  "distance": 717,
                  "location": {
                        "address": "3750 Masson Rue",
                        "country": "CA",
                        "formatted_address": "3750 Masson Rue, Montreal QC H1X 1S6",
                        "locality": "Montreal",
                        "postcode": "H1X 1S6",
                        "region": "QC"
                  },
                  "name": "Sr Vinho"
            },
            {
                  "distance": 751,
                  "location": {
                        "address": "3545 Masson Rue",
                        "country": "CA",
                        "formatted_address": "3545 Masson Rue, Montreal QC H1X 1S1",
                        "locality": "Montreal",
                        "postcode": "H1X 1S1",
                        "region": "QC"
                  },
                  "name": "John Knot"
            },
            {
                  "distance": 894,
                  "location": {
                        "address": "2862 Rosemont Blvd",
                        "country": "CA",
                        "formatted_address": "2862 Rosemont Blvd, Montreal QC H1Y 1L7",
                        "locality": "Montreal",
                        "postcode": "H1Y 1L7",
                        "region": "QC"
                  },
                  "name": "Casse-Cro\u00fbte"
            },
            {
                  "distance": 904,
                  "location": {
                        "address": "3218A Masson Rue",
                        "country": "CA",
                        "formatted_address": "3218A Masson Rue, Montreal QC H1Y 1Y3",
                        "locality": "Montreal",
                        "postcode": "H1Y 1Y3",
                        "region": "QC"
                  },
                  "name": "La Chocolaterie du Vieux Rosemont"
            },
            {
                  "distance": 942,
                  "location": {
                        "address": "3180 Masson Rue",
                        "country": "CA",
                        "formatted_address": "3180 Masson Rue, Montreal QC H1Y 1Y1",
                        "locality": "Montreal",
                        "postcode": "H1Y 1Y1",
                        "region": "QC"
                  },
                  "name": "Restaurant Reveil-Matin Diners"
            }
      ],
      "context": {
            "geo_bounds": {
                  "circle": {
                        "center": {
                              "latitude": 45.557568,
                              "longitude": -73.579191
                        },
                        "radius": 1000
                  }
            }
      }
}