{
      "results": [
            {
                  "distance": 466,
                  "location": {
                        "address": "5456 Sherbrooke Rue O",
                        "country": "CA",
                        "cross_street": "at Addington",
                        "formatted_address": "5456 Sherbrooke Rue O (at Addington), Montr\u00e9al QC H4A 1V9",
                        "locality": "Montreal",
                        "postcode": "H4A 1V9",
                        "region": "QC"
                  },
                  "name": "Chalet Bar B-Q",
                  "popularity": 0.9907385503406511,
                  "price": 2,
                  "rating": 8.8
            },
            {
                  "distance": 912,
                  "location": {
                        "address": "5033 Sherbrooke Rue O",
                        "country": "CA",
                        "cross_street": "Grey Street",
                        "formatted_address": "5033 Sherbrooke Rue O (Grey Street), Montr\u00e9al QC H4A 1S8",
                        "locality": "Montreal",
                        "postcode": "H4A 1S8",
                        "region": "QC"
                  },
                  "name": "Mandy's",
                  "popularity": 0.9639477668433005,
                  "price": 1,
                  "rating": 8.7
            },
            {
                  "distance": 542,
                  "location": {
                        "address": "5732 Sherbrooke Rue O",
                        "address_extended": "Wilson",
                        "country": "CA",
                        "cross_street": "Wilson",
                        "formatted_address": "5732 Sherbrooke Rue O (Wilson), Montr\u00e9al QC H4A 1W8",
                        "locality": "Montreal",
                        "postcode": "H4A 1W8",
                        "region": "QC"
                  },
                  "name": "Notre Boeuf de Gr\u00e2ce",
                  "popularity": 0.9811459121877366,
                  "price": 1,
                  "rating": 8.7
            },
            {
                  "distance": 556,
                  "location": {
                        "address": "5338 Sherbrooke Rue O",
                        "country": "CA",
                        "cross_street": "Decarie",
                        "formatted_address": "5338 Sherbrooke Rue O (Decarie), Montr\u00e9al QC H4A 1V5",
                        "locality": "Montreal",
                        "postcode": "H4A 1V5",
                        "region": "QC"
                  },
                  "name": "Boulangerie Chez Fred",
                  "popularity": 0.9809684897804694,
                  "price": 1,
                  "rating": 8.5
            },
            {
                  "distance": 733,
                  "location": {
                        "address": "5175A Sherbrooke Rue O",
                        "country": "CA",
                        "formatted_address": "5175A Sherbrooke Rue O, Montr\u00e9al QC H4A 1T5",
                        "locality": "Montreal",
                        "postcode": "H4A 1T5",
                        "region": "QC"
                  },
                  "name": "Nextdoor Pub & Grill",
                  "popularity": 0.9476840461771385,
                  "price": 1,
                  "rating": 8.4
            },
            {
                  "distance": 671,
                  "location": {
                        "address": "5227 Sherbrooke Rue O",
                        "country": "CA",
                        "cross_street": "Northcliffe",
                        "formatted_address": "5227 Sherbrooke Rue O (Northcliffe), Montr\u00e9al QC H4A 1T7",
                        "locality": "Montreal",
                        "postcode": "H4A 1T7",
                        "region": "QC"
                  },
                  "name": "Soba et Sushi Bar",
                  "popularity": 0.9569691521574565,
                  "price": 2,
                  "rating": 8.1
            },
            {
                  "distance": 668,
                  "location": {
                        "address": "5837 Sherbrooke Rue O",
                        "country": "CA",
                        "cross_street": "Regent",
                        "formatted_address": "5837 Sherbrooke Rue O (Regent), Montr\u00e9al QC H4A 1X4",
                        "locality": "Montreal",
                        "postcode": "H4A 1X4",
                        "region": "QC"
                  },
                  "name": "Mate Latte",
                  "popularity": 0.9714704769114307,
                  "price": 1,
                  "rating": 7.8
            },
            {
                  "distance": 616,
                  "location": {
                        "address": "5221 Blvd de Maisonneuve Ouest",
                        "country": "CA",
                        "cross_street": "Northcliffe",
                        "formatted_address": "5221 Blvd de Maisonneuve Ouest (Northcliffe), Montr\u00e9al QC H4A 0A4",
                        "locality": "Montreal",
                        "postcode": "H4A 0A4",
                        "region": "QC"
                  },
                  "name": "Pick Thai",
                  "popularity": 0.9863266464799394,
                  "price": 2,
                  "rating": 7.6
            },
            {
                  "distance": 690,
                  "location": {
                        "address": "5860 Sherbrooke Rue W",
                        "country": "CA",
                        "cross_street": "btwn Regent & Clifton",
                        "formatted_address": "5860 Sherbrooke Rue W (btwn Regent & Clifton), Montr\u00e9al QC H4A 1X5",
                        "locality": "Montreal",
                        "postcode": "H4A 1X5",
                        "region": "QC"
                  },
                  "name": "Star of India",
                  "popularity": 0.8855507191521574,
                  "price": 2,
                  "rating": 7.6
            },
            {
                  "distance": 803,
                  "location": {
                        "address": "5127 Sherbrooke Rue O",
                        "country": "CA",
                        "cross_street": "",
                        "formatted_address": "5127 Sherbrooke Rue O, Montr\u00e9al QC H4A 1T3",
                        "locality": "Montreal",
                        "postcode": "H4A 1T3",
                        "region": "QC"
                  },
                  "name": "The Standard",
                  "popularity": 0.9194620552611658,
                  "price": 1,
                  "rating": 7.4
            },
            {
                  "distance": 919,
                  "location": {
                        "address": "6079 Sherbrooke Rue O",
                        "country": "CA",
                        "formatted_address": "6079 Sherbrooke Rue O, Montr\u00e9al QC H4A 1Y2",
                        "locality": "Montreal",
                        "postcode": "H4A 1Y2",
                        "region": "QC"
                  },
                  "name": "Ganges Restaurant",
                  "popularity": 0.866377271006813,
                  "price": 2,
                  "rating": 7.3
            },
            {
                  "distance": 745,
                  "location": {
                        "address": "5916 Sherbrooke Rue O",
                        "country": "CA",
                        "cross_street": "",
                        "formatted_address": "5916 Sherbrooke Rue O, Montr\u00e9al QC H4A 1X7",
                        "locality": "Montreal",
                        "postcode": "H4A 1X7",
                        "region": "QC"
                  },
                  "name": "Honey Martin",
                  "popularity": 0.9609670704012112,
                  "price": 1,
                  "rating": 6.8
            },
            {
                  "distance": 132,
                  "location": {
                        "address": "5563 Upper-Lachine Ch",
                        "country": "CA",
                        "cross_street": "",
                        "formatted_address": "5563 Upper-Lachine Ch, Montr\u00e9al QC H4A 2A6",
                        "locality": "Montreal",
                        "postcode": "H4A 2A6",
                        "region": "QC"
                  },
                  "name": "Restaurant Yas",
                  "popularity": 0.8623202119606359,
                  "rating": 6.7
            },
            {
                  "distance": 646,
                  "location": {
                        "address": "5259 Sherbrooke Rue O",
                        "country": "CA",
                        "cross_street": "",
                        "formatted_address": "5259 Sherbrooke Rue O, Montr\u00e9al QC H4A 1V1",
                        "locality": "Montreal",
                        "postcode": "H4A 1V1",
                        "region": "QC"
                  },
                  "name": "Thai Express",
                  "popularity": 0.9259675435276306,
                  "price": 2,
                  "rating": 6.6,
                  "store_id": "1939"
            },
            {
                  "distance": 666,
                  "location": {
                        "address": "5850 Sherbrooke Rue O",
                        "country": "CA",
                        "cross_street": "Regent",
                        "formatted_address": "5850 Sherbrooke Rue O (Regent), Montr\u00e9al QC H4A 1X5",
                        "locality": "Montreal",
                        "postcode": "H4A 1X5",
                        "region": "QC"
                  },
                  "name": "La Louisiane",
                  "popularity": 0.8622137585162756,
                  "price": 2,
                  "rating": 6.0
            },
            {
                  "distance": 726,
                  "location": {
                        "address": "6180 Saint-Jacques Rue",
                        "country": "CA",
                        "formatted_address": "6180 Saint-Jacques Rue, Montr\u00e9al QC H4B 1T6",
                        "locality": "Montreal",
                        "postcode": "H4B 1T6",
                        "region": "QC"
                  },
                  "name": "Restaurant Shabu Shabu",
                  "popularity": 0.9392623959121877,
                  "price": 2,
                  "rating": 5.9
            },
            {
                  "distance": 576,
                  "location": {
                        "address": "2160 Decarie Blvd",
                        "country": "CA",
                        "cross_street": "Corner Sherbrooke W",
                        "formatted_address": "2160 Decarie Blvd (Corner Sherbrooke W), Montr\u00e9al QC H4A 3J3",
                        "locality": "Montreal",
                        "postcode": "H4A 3J3",
                        "region": "QC"
                  },
                  "name": "Tim Hortons",
                  "popularity": 0.9646574564723694,
                  "price": 1,
                  "rating": 5.9
            },
            {
                  "distance": 962,
                  "location": {
                        "address": "5011 Sherbrooke Rue O",
                        "country": "CA",
                        "formatted_address": "5011 Sherbrooke Rue O, Westmount QC H3Z 1H5",
                        "locality": "Westmount",
                        "postcode": "H3Z 1H5",
                        "region": "QC"
                  },
                  "name": "McDonald's",
                  "popularity": 0.9869807811531308,
                  "price": 1,
                  "rating": 5.0,
                  "store_id": "40002"
            },
            {
                  "distance": 167,
                  "location": {
                        "address": "5545 Upper-Lachine Ch",
                        "country": "CA",
                        "cross_street": "",
                        "formatted_address": "5545 Upper-Lachine Ch, Montr\u00e9al QC H4A 2A5",
                        "locality": "Montreal",
                        "postcode": "H4A 2A5",
                        "region": "QC"
                  },
                  "name": "Trattoria Mario",
                  "popularity": 0.9470689818319455,
                  "price": 2
            },
            {
                  "distance": 461,
                  "location": {
                        "address": "5461 Sherbrooke Rue O",
                        "country": "CA",
                        "cross_street": "",
                        "formatted_address": "5461 Sherbrooke Rue O, Montr\u00e9al QC H4A 1W1",
                        "locality": "Montreal",
                        "postcode": "H4A 1W1",
                        "region": "QC"
                  },
                  "name": "Restaurant Bok",
                  "popularity": 0.9105672785768357,
                  "price": 2
            },
            {
                  "distance": 517,
                  "location": {
                        "address": "5311 Blvd de Maisonneuve O",
                        "address_extended": "# 101",
                        "country": "CA",
                        "cross_street": "Decarie",
                        "formatted_address": "5311 Blvd de Maisonneuve O (Decarie), Montr\u00e9al QC H4A 1Z5",
                        "locality": "Montreal",
                        "postcode": "H4A 1Z5",
                        "region": "QC"
                  },
                  "name": "Caribbean Food Factory",
                  "popularity": 0.9848599545798638,
                  "price": 2
            },
            {
                  "distance": 527,
                  "location": {
                        "address": "5712 Sherbrooke Rue O",
                        "address_extended": "# 5708",
                        "country": "CA",
                        "cross_street": "",
                        "formatted_address": "5712 Sherbrooke Rue O, Montr\u00e9al QC H4A 1W8",
                        "locality": "Montreal",
                        "postcode": "H4A 1W8",
                        "region": "QC"
                  },
                  "name": "Biscuits & Confetti",
                  "popularity": 0.8286454390613172,
                  "price": 1
            },
            {
                  "distance": 591,
                  "location": {
                        "address": "5779 Sherbrooke Rue O",
                        "country": "CA",
                        "cross_street": "",
                        "formatted_address": "5779 Sherbrooke Rue O, Montr\u00e9al QC H4A 1X2",
                        "locality": "Montreal",
                        "postcode": "H4A 1X2",
                        "region": "QC"
                  },
                  "name": "Pizzeria Melrose",
                  "popularity": 0.9676499810749433,
                  "price": 1
            },
            {
                  "distance": 609,
                  "location": {
                        "address": "5800 Sherbrooke Rue O",
                        "country": "CA",
                        "cross_street": "",
                        "formatted_address": "5800 Sherbrooke Rue O, Montr\u00e9al QC H4A 1X3",
                        "locality": "Montreal",
                        "postcode": "H4A 1X3",
                        "region": "QC"
                  },
                  "name": "Bombay Mahal",
                  "popularity": 0.8857399697199092,
                  "price": 2
            },
            {
                  "distance": 618,
                  "location": {
                        "address": "5828 Sherbrooke St W",
                        "country": "CA",
                        "cross_street": "",
                        "formatted_address": "5828 Sherbrooke St W, Montr\u00e9al QC H4A 1X3",
                        "locality": "Montreal",
                        "postcode": "H4A 1X3",
                        "region": "QC"
                  },
                  "name": "Babylon",
                  "popularity": 0.9101296366389099,
                  "price": 1
            },
            {
                  "distance": 627,
                  "location": {
                        "address": "5791 Sherbrooke Rue O",
                        "country": "CA",
                        "cross_street": "Melrose",
                        "formatted_address": "5791 Sherbrooke Rue O (Melrose), Montr\u00e9al QC H4A 1X2",
                        "locality": "Montreal",
                        "postcode": "H4A 1X2",
                        "region": "QC"
                  },
                  "name": "Cafe Toranj",
                  "popularity": 0.9556325700227101,
                  "price": 1
            },
            {
                  "distance": 653,
                  "location": {
                        "address": "4843 Sherbrooke Rue W",
                        "country": "CA",
                        "cross_street": "",
                        "formatted_address": "4843 Sherbrooke Rue W, Westmount QC H3Z 1G6",
                        "locality": "Westmount",
                        "postcode": "H3Z 1G6",
                        "region": "QC"
                  },
                  "name": "Depanneur",
                  "popularity": 0.48824280847842544,
                  "price": 1
            },
            {
                  "distance": 680,
                  "location": {
                        "address": "5223 Sherbrooke Rue O",
                        "country": "CA",
                        "cross_street": "",
                        "formatted_address": "5223 Sherbrooke Rue O, Montr\u00e9al QC H4A 1T7",
                        "locality": "Montreal",
                        "postcode": "H4A 1T7",
                        "region": "QC"
                  },
                  "name": "Labothery",
                  "popularity": 0.8519114307342922
            },
            {
                  "distance": 723,
                  "location": {
                        "address": "5887 Sherbrooke Rue O",
                        "country": "CA",
                        "cross_street": "",
                        "formatted_address": "5887 Sherbrooke Rue O, Montr\u00e9al QC H4A 1X6",
                        "locality": "Montreal",
                        "postcode": "H4A 1X6",
                        "region": "QC"
                  },
                  "name": "Jardin Iwaki",
                  "popularity": 0.6513294852384557,
                  "price": 2
            },
            {
                  "distance": 746,
                  "location": {
                        "address": "5893 Sherbrooke Rue O",
                        "country": "CA",
                        "cross_street": "",
                        "formatted_address": "5893 Sherbrooke Rue O, Montr\u00e9al QC H4A 1X6",
                        "locality": "Montreal",
                        "postcode": "H4A 1X6",
                        "region": "QC"
                  },
                  "name": "East Africa",
                  "popularity": 0.617997728993187,
                  "price": 2
            },
            {
                  "distance": 758,
                  "location": {
                        "address": "5914 Sherbrooke Rue O",
                        "country": "CA",
                        "cross_street": "rue Clifton",
                        "formatted_address": "5914 Sherbrooke Rue O (rue Clifton), Montreal QC H4A 1X7",
                        "locality": "Montreal",
                        "postcode": "H4A 1X7",
                        "region": "QC"
                  },
                  "name": "Jean's Trinidad Foods",
                  "popularity": 0.7059164458743377,
                  "price": 2
            },
            {
                  "distance": 759,
                  "location": {
                        "address": "5942 Sherbrooke Rue O",
                        "address_extended": "Belgrave",
                        "country": "CA",
                        "cross_street": "Belgrave",
                        "formatted_address": "5942 Sherbrooke Rue O (Belgrave), Montr\u00e9al QC H4A 1X7",
                        "locality": "Montreal",
                        "postcode": "H4A 1X7",
                        "region": "QC"
                  },
                  "name": "L'Gros Luxe NDG",
                  "popularity": 0.9426925624526874,
                  "price": 2
            },
            {
                  "distance": 774,
                  "location": {
                        "address": "5899 Sherbrooke Rue O",
                        "country": "CA",
                        "cross_street": "",
                        "formatted_address": "5899 Sherbrooke Rue O, Montr\u00e9al QC H4A 1X6",
                        "locality": "Montreal",
                        "postcode": "H4A 1X6",
                        "region": "QC"
                  },
                  "name": "Crusty's",
                  "popularity": 0.8394090651021953,
                  "price": 1
            },
            {
                  "distance": 774,
                  "location": {
                        "address": "5942 Sherbrooke Rue O",
                        "country": "CA",
                        "cross_street": "",
                        "formatted_address": "5942 Sherbrooke Rue O, Montr\u00e9al QC H4A 1X7",
                        "locality": "Montreal",
                        "postcode": "H4A 1X7",
                        "region": "QC"
                  },
                  "name": "Ashley\u2019s Health Bar",
                  "popularity": 0.8410413512490538,
                  "price": 2
            },
            {
                  "distance": 828,
                  "location": {
                        "address": "5128 Sherbrooke Rue O",
                        "country": "CA",
                        "cross_street": "",
                        "formatted_address": "5128 Sherbrooke Rue O, Montr\u00e9al QC",
                        "locality": "Montreal",
                        "region": "QC"
                  },
                  "name": "Rejuice Nutrition",
                  "popularity": 0.8773774602573807,
                  "price": 1
            }
      ],
      "context": {
            "geo_bounds": {
                  "circle": {
                        "center": {
                              "latitude": 45.46887996,
                              "longitude": -73.60943913
                        },
                        "radius": 1000
                  }
            }
      }
}