{
      "results": [
            {
                  "distance": 664,
                  "location": {
                        "address": "510 Prom du Centropolis",
                        "country": "CA",
                        "cross_street": "at Daniel-Johnson",
                        "formatted_address": "510 Prom du Centropolis (at Daniel-Johnson), Laval QC H7T 3C2",
                        "locality": "Laval",
                        "postcode": "H7T 3C2",
                        "region": "QC"
                  },
                  "name": "La Belle et la Boeuf",
                  "popularity": 0.9310898866375078,
                  "price": 2,
                  "rating": 8.0
            },
            {
                  "distance": 609,
                  "location": {
                        "address": "525 Prom du Centropolis",
                        "country": "CA",
                        "cross_street": "",
                        "formatted_address": "525 Prom du Centropolis, Laval QC H7T 0A3",
                        "locality": "Laval",
                        "postcode": "H7T 0A3",
                        "region": "QC"
                  },
                  "name": "Juliette & Chocolat",
                  "popularity": 0.8844059626885655,
                  "price": 1,
                  "rating": 7.9
            },
            {
                  "distance": 803,
                  "location": {
                        "address": "2900 Pierre-Peladeau Ave",
                        "country": "CA",
                        "cross_street": "au Centropolis",
                        "formatted_address": "2900 Pierre-Peladeau Ave (au Centropolis), Laval QC H7T 3B3",
                        "locality": "Laval",
                        "postcode": "H7T 3B3",
                        "region": "QC"
                  },
                  "name": "Les 3 Brasseurs",
                  "popularity": 0.9557261447826475,
                  "price": 2,
                  "rating": 7.9
            },
            {
                  "distance": 679,
                  "location": {
                        "address": "3455 Saint-Martin Blvd W",
                        "country": "CA",
                        "cross_street": "Boulevard Chomedey",
                        "formatted_address": "3455 Saint-Martin Blvd W (Boulevard Chomedey), Laval QC H7T 1A2",
                        "locality": "Laval",
                        "postcode": "H7T 1A2",
                        "region": "QC"
                  },
                  "name": "Beroya",
                  "popularity": 0.9472462733196465,
                  "price": 2,
                  "rating": 7.8
            },
            {
                  "distance": 685,
                  "location": {
                        "address": "195 Promemade du Centropolis",
                        "country": "CA",
                        "cross_street": "at Daniel-Johnson",
                        "formatted_address": "195 Promemade du Centropolis (at Daniel-Johnson), Laval QC H7T 0B3",
                        "locality": "Laval",
                        "postcode": "H7T 0B3",
                        "region": "QC"
                  },
                  "name": "Le Balthazar",
                  "popularity": 0.9842006605373561,
                  "price": 1,
                  "rating": 7.6
            },
            {
                  "distance": 693,
                  "location": {
                        "address": "200 Prom du Centropolis",
                        "country": "CA",
                        "cross_street": "",
                        "formatted_address": "200 Prom du Centropolis, Laval QC H7T 2Z6",
                        "locality": "Laval",
                        "postcode": "H7T 2Z6",
                        "region": "QC"
                  },
                  "name": "Les Enfants Terribles",
                  "popularity": 0.9160046416138534,
                  "rating": 7.4
            },
            {
                  "distance": 614,
                  "location": {
                        "address": "505 Prom du Centropolis",
                        "country": "CA",
                        "cross_street": "Avenue Pierre P\u00e9ladeau",
                        "formatted_address": "505 Prom du Centropolis (Avenue Pierre P\u00e9ladeau), Laval QC H7T 0A3",
                        "locality": "Laval",
                        "postcode": "H7T 0A3",
                        "region": "QC"
                  },
                  "name": "Enoteca Monza Pizzeria Moderna",
                  "popularity": 0.9159153798089797,
                  "price": 2,
                  "rating": 7.1
            },
            {
                  "distance": 850,
                  "location": {
                        "address": "1820 Pierre-Peladeau Ave",
                        "country": "CA",
                        "cross_street": "",
                        "formatted_address": "1820 Pierre-Peladeau Ave, Laval QC H7T 2Z1",
                        "locality": "Laval",
                        "postcode": "H7T 2Z1",
                        "region": "QC"
                  },
                  "name": "Jack Astor's Bar & Grill",
                  "popularity": 0.9591180933678479,
                  "price": 2,
                  "rating": 6.9
            },
            {
                  "distance": 652,
                  "location": {
                        "address": "3325 Saint-Martin Blvd O",
                        "country": "CA",
                        "cross_street": "",
                        "formatted_address": "3325 Saint-Martin Blvd O, Laval QC H7T 1S2",
                        "locality": "Laval",
                        "postcode": "H7T 1S2",
                        "region": "QC"
                  },
                  "name": "R\u00f4tisserie St-Hubert",
                  "popularity": 0.9357315004909399,
                  "price": 2,
                  "rating": 6.8,
                  "store_id": "100092"
            },
            {
                  "distance": 979,
                  "location": {
                        "address": "3035 le Carref Blvd",
                        "address_extended": "CF Carrefour Laval",
                        "country": "CA",
                        "cross_street": "Quartier Gourmet",
                        "formatted_address": "3035 le Carref Blvd (Quartier Gourmet), Laval QC H7T 1C8",
                        "locality": "Laval",
                        "postcode": "H7T 1C8",
                        "region": "QC"
                  },
                  "name": "Thai Express",
                  "popularity": 0.8030884584486299,
                  "price": 2,
                  "rating": 6.7,
                  "store_id": "8"
            },
            {
                  "distance": 761,
                  "location": {
                        "address": "125 Prom du Centropolis",
                        "country": "CA",
                        "cross_street": "",
                        "formatted_address": "125 Prom du Centropolis, Laval QC H7T 0B3",
                        "locality": "Laval",
                        "postcode": "H7T 0B3",
                        "region": "QC"
                  },
                  "name": "Menchie's",
                  "popularity": 0.8610193698116576,
                  "price": 1,
                  "rating": 6.7
            },
            {
                  "distance": 652,
                  "location": {
                        "address": "3453 Saint-Martin Blvd O",
                        "country": "CA",
                        "formatted_address": "3453 Saint-Martin Blvd O, Laval QC H7T 1A2",
                        "locality": "Laval",
                        "postcode": "H7T 1A2",
                        "region": "QC"
                  },
                  "name": "Cafe Univers",
                  "popularity": 0.9045791305900205,
                  "price": 3,
                  "rating": 6.5
            },
            {
                  "distance": 287,
                  "location": {
                        "address": "2075 Chomedey Blvd",
                        "country": "CA",
                        "cross_street": "",
                        "formatted_address": "2075 Chomedey Blvd, Laval QC H7T 0G5",
                        "locality": "Laval",
                        "postcode": "H7T 0G5",
                        "region": "QC"
                  },
                  "name": "Tim Hortons",
                  "popularity": 0.8470945282513612,
                  "price": 2,
                  "rating": 6.4
            },
            {
                  "distance": 929,
                  "location": {
                        "address": "2600 Daniel Johnson Blvd",
                        "address_extended": "Unit A01011A",
                        "country": "CA",
                        "cross_street": "",
                        "formatted_address": "2600 Daniel Johnson Blvd, Laval QC H7T 2K1",
                        "locality": "Laval",
                        "postcode": "H7T 2K1",
                        "region": "QC"
                  },
                  "name": "Subway",
                  "popularity": 0.9108274569311792,
                  "price": 1,
                  "rating": 6.3,
                  "store_id": "24688"
            },
            {
                  "distance": 726,
                  "location": {
                        "address": "3370 Saint-Martin Blvd O",
                        "country": "CA",
                        "cross_street": "",
                        "formatted_address": "3370 Saint-Martin Blvd O, Laval QC H7T 1A1",
                        "locality": "Laval",
                        "postcode": "H7T 1A1",
                        "region": "QC"
                  },
                  "name": "R\u00f4tisserie Scores",
                  "popularity": 0.9376059983932875,
                  "price": 2,
                  "rating": 6.0,
                  "store_id": "SC_09"
            },
            {
                  "distance": 952,
                  "location": {
                        "address": "1730 Pierre-Peladeau Ave",
                        "country": "CA",
                        "cross_street": "au Centropolis",
                        "formatted_address": "1730 Pierre-Peladeau Ave (au Centropolis), Laval QC H7T 2Z1",
                        "locality": "Laval",
                        "postcode": "H7T 2Z1",
                        "region": "QC"
                  },
                  "name": "L'Academie Restaurant",
                  "popularity": 0.917879139516201,
                  "price": 3,
                  "rating": 5.4
            },
            {
                  "distance": 874,
                  "location": {
                        "address": "1794 Pierre-Peladeau Ave",
                        "country": "CA",
                        "cross_street": "Centropolis",
                        "formatted_address": "1794 Pierre-Peladeau Ave (Centropolis), Laval QC H7T 2Z1",
                        "locality": "Laval",
                        "postcode": "H7T 2Z1",
                        "region": "QC"
                  },
                  "name": "Presse Caf\u00e9",
                  "popularity": 0.9289476033205392,
                  "price": 1,
                  "rating": 5.3
            },
            {
                  "distance": 643,
                  "location": {
                        "address": "505 Prom du Centropolis",
                        "country": "CA",
                        "cross_street": "",
                        "formatted_address": "505 Prom du Centropolis, Laval QC H7T 0A3",
                        "locality": "Laval",
                        "postcode": "H7T 0A3",
                        "region": "QC"
                  },
                  "name": "Monza",
                  "popularity": 0.25680621262161923,
                  "price": 2
            },
            {
                  "distance": 688,
                  "location": {
                        "address": "490 Prom du Centropolis",
                        "country": "CA",
                        "cross_street": "",
                        "formatted_address": "490 Prom du Centropolis, Laval QC H7T 3C2",
                        "locality": "Laval",
                        "postcode": "H7T 3C2",
                        "region": "QC"
                  },
                  "name": "Randolph Pub Ludique Centropolis",
                  "popularity": 0.937159689368919,
                  "price": 1
            },
            {
                  "distance": 725,
                  "location": {
                        "address": "150B du Centropolis Prom",
                        "country": "CA",
                        "cross_street": "",
                        "formatted_address": "150B du Centropolis Prom, Laval QC H7T 2Z6",
                        "locality": "Laval",
                        "postcode": "H7T 2Z6",
                        "region": "QC"
                  },
                  "name": "Caf\u00e9 Ricardo",
                  "popularity": 0.8523609747389093,
                  "price": 2
            },
            {
                  "distance": 742,
                  "location": {
                        "address": "140 Prom du Centropolis",
                        "country": "CA",
                        "cross_street": "",
                        "formatted_address": "140 Prom du Centropolis, Laval QC H7T 2Z6",
                        "locality": "Laval",
                        "postcode": "H7T 2Z6",
                        "region": "QC"
                  },
                  "name": "Lov",
                  "popularity": 0.8920824779077033,
                  "price": 2
            },
            {
                  "distance": 749,
                  "location": {
                        "address": "3352 Saint-Martin Blvd O",
                        "country": "CA",
                        "cross_street": "",
                        "formatted_address": "3352 Saint-Martin Blvd O, Laval QC H7T 1A1",
                        "locality": "Laval",
                        "postcode": "H7T 1A1",
                        "region": "QC"
                  },
                  "name": "Cafe Milano",
                  "popularity": 0.9870570382933143,
                  "price": 1
            },
            {
                  "distance": 769,
                  "location": {
                        "address": "142 Prom du Centropolis",
                        "country": "CA",
                        "cross_street": "",
                        "formatted_address": "142 Prom du Centropolis, Laval QC H7T 2Z6",
                        "locality": "Laval",
                        "postcode": "H7T 2Z6",
                        "region": "QC"
                  },
                  "name": "Mandy's",
                  "popularity": 0.9370704275640453,
                  "price": 1
            },
            {
                  "distance": 773,
                  "location": {
                        "address": "145 Prom du Centropolis",
                        "country": "CA",
                        "cross_street": "",
                        "formatted_address": "145 Prom du Centropolis, Laval QC H7T 0B3",
                        "locality": "Laval",
                        "postcode": "H7T 0B3",
                        "region": "QC"
                  },
                  "name": "Kiyomi",
                  "popularity": 0.7337320360617692,
                  "price": 2
            },
            {
                  "distance": 791,
                  "location": {
                        "address": "3236 Saint-Martin Blvd O",
                        "country": "CA",
                        "cross_street": "",
                        "formatted_address": "3236 Saint-Martin Blvd O, Laval QC H7T 1A1",
                        "locality": "Laval",
                        "postcode": "H7T 1A1",
                        "region": "QC"
                  },
                  "name": "Kojax Souflaki",
                  "popularity": 0.9369811657591717,
                  "price": 2
            },
            {
                  "distance": 815,
                  "location": {
                        "address": "2888 Ave du Cosmod\u00f4me",
                        "country": "CA",
                        "cross_street": "",
                        "formatted_address": "2888 Ave du Cosmod\u00f4me, Laval QC H7T 2X1",
                        "locality": "Laval",
                        "postcode": "H7T 2X1",
                        "region": "QC"
                  },
                  "name": "Pizza Gourmande",
                  "popularity": 0.5411050611443363,
                  "price": 2
            },
            {
                  "distance": 902,
                  "location": {
                        "address": "3035 le Carref Blvd",
                        "address_extended": "Carrefour Laval",
                        "country": "CA",
                        "cross_street": "",
                        "formatted_address": "3035 le Carref Blvd, Laval QC H7T 1C8",
                        "locality": "Laval",
                        "postcode": "H7T 1C8",
                        "region": "QC"
                  },
                  "name": "Copper Branch",
                  "popularity": 0.926359010979202,
                  "price": 2
            },
            {
                  "distance": 942,
                  "location": {
                        "address": "2981 Saint-Martin Blvd O",
                        "country": "CA",
                        "cross_street": "",
                        "formatted_address": "2981 Saint-Martin Blvd O, Laval QC H7T 2Y8",
                        "locality": "Laval",
                        "postcode": "H7T 2Y8",
                        "region": "QC"
                  },
                  "name": "Restaurant Bistro l'Aromate",
                  "popularity": 0.5065607426582166,
                  "price": 2
            },
            {
                  "distance": 975,
                  "location": {
                        "address": "3035 le Carref Blvd",
                        "address_extended": "N-15",
                        "country": "CA",
                        "cross_street": "",
                        "formatted_address": "3035 le Carref Blvd, Laval QC H7T 1C8",
                        "locality": "Laval",
                        "postcode": "H7T 1C8",
                        "region": "QC"
                  },
                  "name": "KFC",
                  "popularity": 0.15477996965098634,
                  "price": 1,
                  "store_id": "1277"
            },
            {
                  "distance": 1008,
                  "location": {
                        "address": "2325 Cure-Labelle Blvd",
                        "country": "CA",
                        "cross_street": "Cure labelle Chomedey",
                        "formatted_address": "2325 Cure-Labelle Blvd (Cure labelle Chomedey), Laval QC H7T 1R3",
                        "locality": "Laval",
                        "postcode": "H7T 1R3",
                        "region": "QC"
                  },
                  "name": "Fritou",
                  "popularity": 0.8789609925912701,
                  "price": 1
            },
            {
                  "distance": 238,
                  "location": {
                        "address": "2284 Chomedey Blvd",
                        "country": "CA",
                        "formatted_address": "2284 Chomedey Blvd, Laval QC H7T 2W3",
                        "locality": "Laval",
                        "postcode": "H7T 2W3",
                        "region": "QC"
                  },
                  "name": "Sushi Shop"
            },
            {
                  "distance": 375,
                  "location": {
                        "address": "3300 le Carref Blvd",
                        "country": "CA",
                        "formatted_address": "3300 le Carref Blvd, Laval QC H7T 0A1",
                        "locality": "Laval",
                        "postcode": "H7T 0A1",
                        "region": "QC"
                  },
                  "name": "Cafe Romy"
            },
            {
                  "distance": 679,
                  "location": {
                        "address": "205 Prom du Centropolis",
                        "country": "CA",
                        "formatted_address": "205 Prom du Centropolis, Laval QC H7T 0B3",
                        "locality": "Laval",
                        "postcode": "H7T 0B3",
                        "region": "QC"
                  },
                  "name": "Divaliva"
            },
            {
                  "distance": 687,
                  "location": {
                        "address": "2572 Daniel-Johnson Blvd",
                        "country": "CA",
                        "formatted_address": "2572 Daniel-Johnson Blvd, Laval QC H7T 2R3",
                        "locality": "Laval",
                        "postcode": "H7T 2R3",
                        "region": "QC"
                  },
                  "name": "Route 7 Distribution"
            },
            {
                  "distance": 732,
                  "location": {
                        "address": "2270 Pierre Peladeau Ave",
                        "country": "CA",
                        "formatted_address": "2270 Pierre Peladeau Ave, Laval QC H7T 2Z1",
                        "locality": "Laval",
                        "postcode": "H7T 2Z1",
                        "region": "QC"
                  },
                  "name": "Sterlings Restaurant"
            }
      ],
      "context": {
            "geo_bounds": {
                  "circle": {
                        "center": {
                              "latitude": 45.56157,
                              "longitude": -73.75448
                        },
                        "radius": 1000
                  }
            }
      }
}