{
      "results": [
            {
                  "distance": 731,
                  "location": {
                        "address": "4662 Notre-Dame Rue O",
                        "country": "CA",
                        "cross_street": "De Courcelles",
                        "formatted_address": "4662 Notre-Dame Rue O (De Courcelles), Montr\u00e9al QC H4C 1S6",
                        "locality": "Montreal",
                        "postcode": "H4C 1S6",
                        "region": "QC"
                  },
                  "name": "Tuck Shop",
                  "popularity": 0.9177469719909159,
                  "price": 3,
                  "rating": 9.2
            },
            {
                  "distance": 389,
                  "location": {
                        "address": "5001 Notre Dame Rue O",
                        "country": "CA",
                        "cross_street": "coin St-R\u00e9mi",
                        "formatted_address": "5001 Notre Dame Rue O (coin St-R\u00e9mi), Montr\u00e9al QC H4C 1T2",
                        "locality": "Montreal",
                        "postcode": "H4C 1T2",
                        "region": "QC"
                  },
                  "name": "Le Bar Loic",
                  "popularity": 0.9594767221801666,
                  "price": 3,
                  "rating": 8.9
            },
            {
                  "distance": 744,
                  "location": {
                        "address": "640 Rue de Courcelle",
                        "country": "CA",
                        "cross_street": "coin St-Jacques",
                        "formatted_address": "640 Rue de Courcelle (coin St-Jacques), Montr\u00e9al QC H4C 3C5",
                        "locality": "Montreal",
                        "postcode": "H4C 3C5",
                        "region": "QC"
                  },
                  "name": "L\u00e9ch\u00e9 Desserts",
                  "popularity": 0.9630961392884179,
                  "price": 1,
                  "rating": 8.7
            },
            {
                  "distance": 276,
                  "location": {
                        "address": "5080 Saint-Ambroise Rue",
                        "address_extended": "b\u00e2tisse \u00e0 c\u00f4t\u00e9 de la Brasserie McAuslan",
                        "country": "CA",
                        "cross_street": "b\u00e2tisse \u00e0 c\u00f4t\u00e9 de la Brasserie McAuslan",
                        "formatted_address": "5080 Saint-Ambroise Rue (b\u00e2tisse \u00e0 c\u00f4t\u00e9 de la Brasserie McAuslan), Montr\u00e9al QC H4C 2G1",
                        "locality": "Montreal",
                        "postcode": "H4C 2G1",
                        "region": "QC"
                  },
                  "name": "L'Annexe St-Ambroise (L\u2019Annexe St-Ambroise)",
                  "popularity": 0.8646267032551098,
                  "price": 1,
                  "rating": 8.6
            },
            {
                  "distance": 289,
                  "location": {
                        "address": "5090 Notre-Dame Rue O",
                        "country": "CA",
                        "cross_street": "d'Yamaska",
                        "formatted_address": "5090 Notre-Dame Rue O (d'Yamaska), Montr\u00e9al QC H4C 1T1",
                        "locality": "Montreal",
                        "postcode": "H4C 1T1",
                        "region": "QC"
                  },
                  "name": "Elena",
                  "popularity": 0.9710919757759273,
                  "price": 1,
                  "rating": 8.4
            },
            {
                  "distance": 450,
                  "location": {
                        "address": "5524 Saint Patrick Rue",
                        "address_extended": "Suite 200",
                        "country": "CA",
                        "cross_street": "",
                        "formatted_address": "5524 Saint Patrick Rue, Montr\u00e9al QC H4E 1A8",
                        "locality": "Montreal",
                        "postcode": "H4E 1A8",
                        "region": "QC"
                  },
                  "name": "McKiernan Luncheonette",
                  "popularity": 0.9810867713853142,
                  "price": 2,
                  "rating": 8.4
            },
            {
                  "distance": 276,
                  "location": {
                        "address": "5080 Saint-Ambroise Rue",
                        "country": "CA",
                        "cross_street": "St-R\u00e9mi & C\u00f4te St-Paul",
                        "formatted_address": "5080 Saint-Ambroise Rue (St-R\u00e9mi & C\u00f4te St-Paul), Montr\u00e9al QC H4C 2G1",
                        "locality": "Montreal",
                        "postcode": "H4C 2G1",
                        "region": "QC"
                  },
                  "name": "Terrasse St-Ambroise",
                  "popularity": 0.9150264950794852,
                  "price": 2,
                  "rating": 8.4
            },
            {
                  "distance": 775,
                  "location": {
                        "address": "4621 Notre-Dame Rue O",
                        "country": "CA",
                        "cross_street": "",
                        "formatted_address": "4621 Notre-Dame Rue O, Montr\u00e9al QC H4C 1S5",
                        "locality": "Montreal",
                        "postcode": "H4C 1S5",
                        "region": "QC"
                  },
                  "name": "Arthurs Nosh Bar",
                  "popularity": 0.9455668054504164,
                  "rating": 8.3
            },
            {
                  "distance": 699,
                  "location": {
                        "address": "511 Rue de Courcelle",
                        "country": "CA",
                        "cross_street": "",
                        "formatted_address": "511 Rue de Courcelle, Montr\u00e9al QC H4C 3C1",
                        "locality": "Montreal",
                        "postcode": "H4C 3C1",
                        "region": "QC"
                  },
                  "name": "Tejano BBQ Burrito",
                  "popularity": 0.8945519492808478,
                  "price": 1,
                  "rating": 8.3
            },
            {
                  "distance": 1030,
                  "location": {
                        "address": "4412 Notre-Dame Rue O",
                        "country": "CA",
                        "cross_street": "",
                        "formatted_address": "4412 Notre-Dame Rue O, Montr\u00e9al QC H4C 1S1",
                        "locality": "Montreal",
                        "postcode": "H4C 1S1",
                        "region": "QC"
                  },
                  "name": "Caf\u00e9 Frida",
                  "popularity": 0.2956566994700984,
                  "price": 1,
                  "rating": 8.3
            },
            {
                  "distance": 697,
                  "location": {
                        "address": "4685 Notre-Dame Rue O",
                        "country": "CA",
                        "cross_street": "Notre-Dame O.",
                        "formatted_address": "4685 Notre-Dame Rue O (Notre-Dame O.), Montr\u00e9al QC H4C 1S7",
                        "locality": "Montreal",
                        "postcode": "H4C 1S7",
                        "region": "QC"
                  },
                  "name": "Bar de Courcelles",
                  "popularity": 0.9457915404996216,
                  "price": 1,
                  "rating": 8.0
            },
            {
                  "distance": 785,
                  "location": {
                        "address": "4615 Notre-Dame Rue O",
                        "country": "CA",
                        "formatted_address": "4615 Notre-Dame Rue O, Montr\u00e9al QC H4C 1S5",
                        "locality": "Montreal",
                        "postcode": "H4C 1S5",
                        "region": "QC"
                  },
                  "name": "Rustique",
                  "popularity": 0.8620599924299773,
                  "price": 1,
                  "rating": 8.0
            },
            {
                  "distance": 994,
                  "location": {
                        "address": "291 Beaudoin Rue",
                        "country": "CA",
                        "cross_street": "entre Notre-Dame & Ste-\u00c9milie",
                        "formatted_address": "291 Beaudoin Rue (entre Notre-Dame & Ste-\u00c9milie), Montr\u00e9al QC H4C 2Y3",
                        "locality": "Montreal",
                        "postcode": "H4C 2Y3",
                        "region": "QC"
                  },
                  "name": "Pops Art",
                  "popularity": 0.841514477668433,
                  "price": 1,
                  "rating": 7.9
            },
            {
                  "distance": 768,
                  "location": {
                        "address": "4629 Notre-Dame Rue O",
                        "country": "CA",
                        "cross_street": "Delinelle",
                        "formatted_address": "4629 Notre-Dame Rue O (Delinelle), Montr\u00e9al QC H4C 1S5",
                        "locality": "Montreal",
                        "postcode": "H4C 1S5",
                        "region": "QC"
                  },
                  "name": "Adamo",
                  "popularity": 0.8417392127176382,
                  "price": 1,
                  "rating": 7.8
            },
            {
                  "distance": 764,
                  "location": {
                        "address": "4634 Notre-Dame Rue O",
                        "country": "CA",
                        "cross_street": "Delinelle",
                        "formatted_address": "4634 Notre-Dame Rue O (Delinelle), Montr\u00e9al QC H4C 1S4",
                        "locality": "Montreal",
                        "postcode": "H4C 1S4",
                        "region": "QC"
                  },
                  "name": "Campanelli",
                  "popularity": 0.8916777062831188,
                  "price": 1,
                  "rating": 7.6
            },
            {
                  "distance": 934,
                  "location": {
                        "address": "4412 Notre-Dame Rue O",
                        "country": "CA",
                        "cross_street": "",
                        "formatted_address": "4412 Notre-Dame Rue O, Montr\u00e9al QC H4C 1S1",
                        "locality": "Montreal",
                        "postcode": "H4C 1S1",
                        "region": "QC"
                  },
                  "name": "Uniburger",
                  "popularity": 0.874384935654807,
                  "price": 1,
                  "rating": 7.4
            },
            {
                  "distance": 989,
                  "location": {
                        "address": "291 Beaudoin Rue",
                        "country": "CA",
                        "cross_street": "entre Notre-Dame & Ste-\u00c9milie",
                        "formatted_address": "291 Beaudoin Rue (entre Notre-Dame & Ste-\u00c9milie), Montr\u00e9al QC H4C 2Y3",
                        "locality": "Montreal",
                        "postcode": "H4C 2Y3",
                        "region": "QC"
                  },
                  "name": "Boulangerie Rustique Sweet Lee's",
                  "popularity": 0.8460210068130204,
                  "price": 1,
                  "rating": 7.4
            },
            {
                  "distance": 794,
                  "location": {
                        "address": "4609 Notre Dame Rue O",
                        "country": "CA",
                        "cross_street": "",
                        "formatted_address": "4609 Notre Dame Rue O, Montr\u00e9al QC H4C 1S5",
                        "locality": "Montreal",
                        "postcode": "H4C 1S5",
                        "region": "QC"
                  },
                  "name": "Dalla Rose",
                  "popularity": 0.9003359197577593,
                  "price": 1,
                  "rating": 7.3
            },
            {
                  "distance": 993,
                  "location": {
                        "address": "4376 Notre-Dame Rue O",
                        "country": "CA",
                        "cross_street": "",
                        "formatted_address": "4376 Notre-Dame Rue O, Montr\u00e9al QC H4C 1R8",
                        "locality": "Montreal",
                        "postcode": "H4C 1R8",
                        "region": "QC"
                  },
                  "name": "Tacos Victor",
                  "popularity": 0.9654499432248297,
                  "price": 1,
                  "rating": 7.3
            },
            {
                  "distance": 964,
                  "location": {
                        "address": "4400 Notre-Dame Rue O",
                        "country": "CA",
                        "cross_street": "",
                        "formatted_address": "4400 Notre-Dame Rue O, Montr\u00e9al QC H4C 1S1",
                        "locality": "Montreal",
                        "postcode": "H4C 1S1",
                        "region": "QC"
                  },
                  "name": "F+F Pizza",
                  "popularity": 0.8892292770628312,
                  "price": 1,
                  "rating": 7.1
            },
            {
                  "distance": 956,
                  "location": {
                        "address": "4401 Notre-Dame Rue O",
                        "country": "CA",
                        "cross_street": "Beaudoin",
                        "formatted_address": "4401 Notre-Dame Rue O (Beaudoin), Montr\u00e9al QC H4C 1S2",
                        "locality": "Montreal",
                        "postcode": "H4C 1S2",
                        "region": "QC"
                  },
                  "name": "Le T\u00e9quila Bar",
                  "popularity": 0.929515991672975,
                  "price": 1,
                  "rating": 5.7
            },
            {
                  "distance": 405,
                  "location": {
                        "address": "5594 Saint Patrick Rue",
                        "country": "CA",
                        "cross_street": "",
                        "formatted_address": "5594 Saint Patrick Rue, Montr\u00e9al QC H4E 4N7",
                        "locality": "Montreal",
                        "postcode": "H4E 4N7",
                        "region": "QC"
                  },
                  "name": "The Wave",
                  "popularity": 0.5488739591218774,
                  "price": 3
            },
            {
                  "distance": 406,
                  "location": {
                        "address": "4945 Notre-Dame Rue O",
                        "country": "CA",
                        "cross_street": "Saint-R\u00e9mi",
                        "formatted_address": "4945 Notre-Dame Rue O (Saint-R\u00e9mi), Montr\u00e9al QC H4C 1S9",
                        "locality": "Montreal",
                        "postcode": "H4C 1S9",
                        "region": "QC"
                  },
                  "name": "Caf\u00e9 Moccacino",
                  "popularity": 0.8637632475397427,
                  "price": 1
            },
            {
                  "distance": 568,
                  "location": {
                        "address": "5544 Saint Patrick Rue",
                        "country": "CA",
                        "cross_street": "Rue Briand",
                        "formatted_address": "5544 Saint Patrick Rue (Rue Briand), Montr\u00e9al QC H4E 1A8",
                        "locality": "Montreal",
                        "postcode": "H4E 1A8",
                        "region": "QC"
                  },
                  "name": "TT Caf\u00e9",
                  "popularity": 0.9790168433005298,
                  "price": 1
            },
            {
                  "distance": 573,
                  "location": {
                        "address": "5530 Saint-Patrick Rue",
                        "address_extended": "Suite 2210",
                        "country": "CA",
                        "formatted_address": "5530 Saint-Patrick Rue, Montr\u00e9al QC H4E 1A8",
                        "locality": "Montreal",
                        "postcode": "H4E 1A8",
                        "region": "QC"
                  },
                  "name": "Caf\u00e9 Dominion",
                  "popularity": 0.8904830620741863,
                  "price": 1
            },
            {
                  "distance": 625,
                  "location": {
                        "address": "4750 Notre-Dame Rue O",
                        "country": "CA",
                        "cross_street": "",
                        "formatted_address": "4750 Notre-Dame Rue O, Montreal QC H4C 1S8",
                        "locality": "Montreal",
                        "postcode": "H4C 1S8",
                        "region": "QC"
                  },
                  "name": "Bar Bistro Notre Dame",
                  "popularity": 0.9074091597274792,
                  "price": 2
            },
            {
                  "distance": 685,
                  "location": {
                        "address": "5523 Laurendeau Rue",
                        "country": "CA",
                        "cross_street": "",
                        "formatted_address": "5523 Laurendeau Rue, Montreal QC H4E 3V9",
                        "locality": "Montreal",
                        "postcode": "H4E 3V9",
                        "region": "QC"
                  },
                  "name": "Bar Laitier Annick",
                  "popularity": 0.7811790310370931,
                  "price": 1
            },
            {
                  "distance": 751,
                  "location": {
                        "address": "5590 Laurendeau Rue",
                        "country": "CA",
                        "cross_street": "Le Caron",
                        "formatted_address": "5590 Laurendeau Rue (Le Caron), Montr\u00e9al QC H4E 3W3",
                        "locality": "Montreal",
                        "postcode": "H4E 3W3",
                        "region": "QC"
                  },
                  "name": "Yo & Co Espresso Bar",
                  "popularity": 0.9572293716881151,
                  "price": 1
            },
            {
                  "distance": 792,
                  "location": {
                        "address": "4609 Notre Dame Rue O",
                        "country": "CA",
                        "cross_street": "",
                        "formatted_address": "4609 Notre Dame Rue O, Montr\u00e9al QC H4C 1S5",
                        "locality": "Montreal",
                        "postcode": "H4C 1S5",
                        "region": "QC"
                  },
                  "name": "Ramen 9000",
                  "popularity": 0.559058005299016
            },
            {
                  "distance": 799,
                  "location": {
                        "address": "4601 Notre-Dame Rue O",
                        "country": "CA",
                        "cross_street": "Therien",
                        "formatted_address": "4601 Notre-Dame Rue O (Therien), Montr\u00e9al QC H4C 1S5",
                        "locality": "Montreal",
                        "postcode": "H4C 1S5",
                        "region": "QC"
                  },
                  "name": "Lloydie\u2019s",
                  "popularity": 0.8455242240726722,
                  "price": 2
            },
            {
                  "distance": 808,
                  "location": {
                        "address": "4600 Notre-Dame Rue O",
                        "country": "CA",
                        "cross_street": "",
                        "formatted_address": "4600 Notre-Dame Rue O, Montreal QC H4C 1S4",
                        "locality": "Montreal",
                        "postcode": "H4C 1S4",
                        "region": "QC"
                  },
                  "name": "La Diperie",
                  "popularity": 0.7827994890234671,
                  "price": 1
            },
            {
                  "distance": 905,
                  "location": {
                        "address": "4450 Notre-Dame Rue O",
                        "country": "CA",
                        "cross_street": "",
                        "formatted_address": "4450 Notre-Dame Rue O, Montr\u00e9al QC H4C 1S1",
                        "locality": "Montreal",
                        "postcode": "H4C 1S1",
                        "region": "QC"
                  },
                  "name": "BarBara",
                  "popularity": 0.9310299962149886,
                  "price": 2
            },
            {
                  "distance": 953,
                  "location": {
                        "address": "4412 Notre-Dame Rue O",
                        "country": "CA",
                        "cross_street": "",
                        "formatted_address": "4412 Notre-Dame Rue O, Montr\u00e9al QC H4C 1S1",
                        "locality": "Montreal",
                        "postcode": "H4C 1S1",
                        "region": "QC"
                  },
                  "name": "Cinco de Mayo",
                  "popularity": 0.17985900832702498,
                  "price": 1
            },
            {
                  "distance": 970,
                  "location": {
                        "address": "5980 Monk Blvd",
                        "country": "CA",
                        "cross_street": "",
                        "formatted_address": "5980 Monk Blvd, Montr\u00e9al QC H4E 3H6",
                        "locality": "Montreal",
                        "postcode": "H4E 3H6",
                        "region": "QC"
                  },
                  "name": "Cinq\u00e0sept",
                  "popularity": 0.9719081188493566,
                  "price": 1
            },
            {
                  "distance": 972,
                  "location": {
                        "address": "5941 Monk Blvd",
                        "country": "CA",
                        "cross_street": "Biencourt",
                        "formatted_address": "5941 Monk Blvd (Biencourt), Montr\u00e9al QC H4E 3H5",
                        "locality": "Montreal",
                        "postcode": "H4E 3H5",
                        "region": "QC"
                  },
                  "name": "Souchi bar \u00e0 sushi",
                  "popularity": 0.7497516086298259,
                  "price": 2
            }
      ],
      "context": {
            "geo_bounds": {
                  "circle": {
                        "center": {
                              "latitude": 45.46766565,
                              "longitude": -73.59391784
                        },
                        "radius": 1000
                  }
            }
      }
}