{
      "results": [
            {
                  "distance": 868,
                  "location": {
                        "address": "3927 Saint-Denis Rue",
                        "country": "CA",
                        "cross_street": "entre Duluth & Roy",
                        "formatted_address": "3927 Saint-Denis Rue (entre Duluth & Roy), Montr\u00e9al QC H2W 2M4",
                        "locality": "Montreal",
                        "postcode": "H2W 2M4",
                        "region": "QC"
                  },
                  "name": "L'Express",
                  "popularity": 0.9460517600302801,
                  "price": 3,
                  "rating": 9.1
            },
            {
                  "distance": 816,
                  "location": {
                        "address": "3801 Saint-Denis Rue",
                        "country": "CA",
                        "cross_street": "",
                        "formatted_address": "3801 Saint-Denis Rue, Montr\u00e9al QC H2W 2M4",
                        "locality": "Montreal",
                        "postcode": "H2W 2M4",
                        "region": "QC"
                  },
                  "name": "Le Club Espresso Bar",
                  "popularity": 0.9342945685087055,
                  "price": 1,
                  "rating": 9.0
            },
            {
                  "distance": 839,
                  "location": {
                        "address": "3660 Saint-Denis Rue",
                        "country": "CA",
                        "cross_street": "coin Cherrier",
                        "formatted_address": "3660 Saint-Denis Rue (coin Cherrier), Montr\u00e9al QC H2X 3L7",
                        "locality": "Montreal",
                        "postcode": "H2X 3L7",
                        "region": "QC"
                  },
                  "name": "Mamie Clafoutis",
                  "popularity": 0.9447151778955337,
                  "price": 2,
                  "rating": 8.9
            },
            {
                  "distance": 471,
                  "location": {
                        "address": "1700 Ontario Rue E",
                        "country": "CA",
                        "cross_street": "coin Papineau",
                        "formatted_address": "1700 Ontario Rue E (coin Papineau), Montr\u00e9al QC H2L 1S7",
                        "locality": "Montreal",
                        "postcode": "H2L 1S7",
                        "region": "QC"
                  },
                  "name": "La Fabrique Arhoma",
                  "popularity": 0.953420704012112,
                  "price": 1,
                  "rating": 8.9
            },
            {
                  "distance": 822,
                  "location": {
                        "address": "865 Rachel Rue E",
                        "country": "CA",
                        "cross_street": "coin St-Andr\u00e9",
                        "formatted_address": "865 Rachel Rue E (coin St-Andr\u00e9), Montr\u00e9al QC H2J 2H9",
                        "locality": "Montreal",
                        "postcode": "H2J 2H9",
                        "region": "QC"
                  },
                  "name": "La Maison des P\u00e2tes Fra\u00eeches",
                  "popularity": 0.938115064345193,
                  "price": 2,
                  "rating": 8.8
            },
            {
                  "distance": 753,
                  "location": {
                        "address": "536 Duluth Ave E",
                        "country": "CA",
                        "cross_street": "at Ave. Duluth Est & Ave. de Chateaubriand",
                        "formatted_address": "536 Duluth Ave E (at Ave. Duluth Est & Ave. de Chateaubriand), Montr\u00e9al QC H2L 1A9",
                        "locality": "Montreal",
                        "postcode": "H2L 1A9",
                        "region": "QC"
                  },
                  "name": "Au Pied de Cochon",
                  "popularity": 0.9154404806964421,
                  "price": 3,
                  "rating": 8.7
            },
            {
                  "distance": 823,
                  "location": {
                        "address": "3609 Saint-Denis Rue",
                        "address_extended": "Square St-Louis",
                        "country": "CA",
                        "cross_street": "Square St-Louis",
                        "formatted_address": "3609 Saint-Denis Rue (Square St-Louis), Montr\u00e9al QC H2X 3L6",
                        "locality": "Montreal",
                        "postcode": "H2X 3L6",
                        "region": "QC"
                  },
                  "name": "La Fabrique Bistrot",
                  "popularity": 0.9323547501892505,
                  "price": 4,
                  "rating": 8.6
            },
            {
                  "distance": 978,
                  "location": {
                        "address": "4115A Saint-Denis Rue",
                        "country": "CA",
                        "cross_street": "coin Duluth",
                        "formatted_address": "4115A Saint-Denis Rue (coin Duluth), Montr\u00e9al QC H2W 2M7",
                        "locality": "Montreal",
                        "postcode": "H2W 2M7",
                        "region": "QC"
                  },
                  "name": "Diese Onze",
                  "popularity": 0.9298944928084785,
                  "rating": 8.6
            },
            {
                  "distance": 951,
                  "location": {
                        "address": "2021 Saint-Denis Rue",
                        "country": "CA",
                        "cross_street": "rue Ontario",
                        "formatted_address": "2021 Saint-Denis Rue (rue Ontario), Montr\u00e9al QC H2X 3K8",
                        "locality": "Montreal",
                        "postcode": "H2X 3K8",
                        "region": "QC"
                  },
                  "name": "Le 4e Mur",
                  "popularity": 0.9381860333080999,
                  "price": 3,
                  "rating": 8.6
            },
            {
                  "distance": 774,
                  "location": {
                        "address": "951 Rachel Rue E",
                        "country": "CA",
                        "cross_street": "",
                        "formatted_address": "951 Rachel Rue E, Montr\u00e9al QC H2J 2J4",
                        "locality": "Montreal",
                        "postcode": "H2J 2J4",
                        "region": "QC"
                  },
                  "name": "Pub Pit Caribou",
                  "popularity": 0.9519658402725208,
                  "rating": 8.6
            },
            {
                  "distance": 862,
                  "location": {
                        "address": "1310 Blvd de Maisonneuve Est",
                        "country": "CA",
                        "cross_street": "Visitation",
                        "formatted_address": "1310 Blvd de Maisonneuve Est (Visitation), Montr\u00e9al QC H2L 2A5",
                        "locality": "Montreal",
                        "postcode": "H2L 2A5",
                        "region": "QC"
                  },
                  "name": "Bistro le Passe Compose",
                  "popularity": 0.9547809424678274,
                  "price": 1,
                  "rating": 8.5
            },
            {
                  "distance": 908,
                  "location": {
                        "address": "1112 Blvd de Maisonneuve Est",
                        "country": "CA",
                        "cross_street": "btwn Amherst & Wolfe St.",
                        "formatted_address": "1112 Blvd de Maisonneuve Est (btwn Amherst & Wolfe St.), Montr\u00e9al QC H2L 1Z5",
                        "locality": "Montreal",
                        "postcode": "H2L 1Z5",
                        "region": "QC"
                  },
                  "name": "O'Thym",
                  "popularity": 0.9423613739591219,
                  "price": 3,
                  "rating": 8.5
            },
            {
                  "distance": 734,
                  "location": {
                        "address": "994 Rachel Rue E",
                        "country": "CA",
                        "cross_street": "entre de Boyer & du Parc-Lafontaine",
                        "formatted_address": "994 Rachel Rue E (entre de Boyer & du Parc-Lafontaine), Montr\u00e9al QC H2J 2J3",
                        "locality": "Montreal",
                        "postcode": "H2J 2J3",
                        "region": "QC"
                  },
                  "name": "La Banquise",
                  "popularity": 0.9872374148372445,
                  "price": 1,
                  "rating": 8.5
            },
            {
                  "distance": 792,
                  "location": {
                        "address": "506 Duluth Ave E",
                        "country": "CA",
                        "cross_street": "coin av. de Chateaubriand",
                        "formatted_address": "506 Duluth Ave E (coin av. de Chateaubriand), Montr\u00e9al QC H2L 1A7",
                        "locality": "Montreal",
                        "postcode": "H2L 1A7",
                        "region": "QC"
                  },
                  "name": "Khyber Pass Restaurant",
                  "popularity": 0.9183738644965935,
                  "price": 2,
                  "rating": 8.4
            },
            {
                  "distance": 813,
                  "location": {
                        "address": "3609 Saint-Denis Rue",
                        "address_extended": "Fl 1ST",
                        "country": "CA",
                        "cross_street": "coin rue du Square-Saint-Louis",
                        "formatted_address": "3609 Saint-Denis Rue (coin rue du Square-Saint-Louis), Montr\u00e9al QC H2X 3L6",
                        "locality": "Montreal",
                        "postcode": "H2X 3L6",
                        "region": "QC"
                  },
                  "name": "Sushi Momo V\u00e9g\u00e9talien",
                  "popularity": 0.8928486941710825,
                  "price": 2,
                  "rating": 8.4
            },
            {
                  "distance": 1004,
                  "location": {
                        "address": "1749 Saint-Denis Rue",
                        "country": "CA",
                        "cross_street": "coin Ontario",
                        "formatted_address": "1749 Saint-Denis Rue (coin Ontario), Montr\u00e9al QC H2X 3K4",
                        "locality": "Montreal",
                        "postcode": "H2X 3K4",
                        "region": "QC"
                  },
                  "name": "Le Saint Bock",
                  "popularity": 0.9721565102195306,
                  "price": 2,
                  "rating": 8.4
            },
            {
                  "distance": 975,
                  "location": {
                        "address": "1301 Sainte-Catherine Rue E",
                        "country": "CA",
                        "cross_street": "coin De la Visitation",
                        "formatted_address": "1301 Sainte-Catherine Rue E (coin De la Visitation), Montr\u00e9al QC H2L 2H4",
                        "locality": "Montreal",
                        "postcode": "H2L 2H4",
                        "region": "QC"
                  },
                  "name": "Starbucks",
                  "popularity": 0.9795254542013626,
                  "price": 2,
                  "rating": 8.3,
                  "store_id": "830"
            },
            {
                  "distance": 884,
                  "location": {
                        "address": "1212 Blvd de Maisonneuve Est",
                        "country": "CA",
                        "cross_street": "",
                        "formatted_address": "1212 Blvd de Maisonneuve Est, Montr\u00e9al QC H2L 1Z9",
                        "locality": "Montreal",
                        "postcode": "H2L 1Z9",
                        "region": "QC"
                  },
                  "name": "En Couleur",
                  "popularity": 0.9447861468584405,
                  "rating": 8.0
            },
            {
                  "distance": 940,
                  "location": {
                        "address": "2049 Saint-Denis Rue",
                        "country": "CA",
                        "cross_street": "entre Ontario & Sherbrooke",
                        "formatted_address": "2049 Saint-Denis Rue (entre Ontario & Sherbrooke), Montr\u00e9al QC H2X 3K8",
                        "locality": "Montreal",
                        "postcode": "H2X 3K8",
                        "region": "QC"
                  },
                  "name": "Brasserie Artisanale l'Am\u00e8re a Boire Inc",
                  "popularity": 0.9146479939439819,
                  "price": 2,
                  "rating": 7.9
            },
            {
                  "distance": 845,
                  "location": {
                        "address": "3845 Saint-Denis Rue",
                        "country": "CA",
                        "cross_street": "",
                        "formatted_address": "3845 Saint-Denis Rue, Montr\u00e9al QC H2W 2M4",
                        "locality": "Montreal",
                        "postcode": "H2W 2M4",
                        "region": "QC"
                  },
                  "name": "Restaurant Au Pres de MA Blonde",
                  "popularity": 0.924110522331567,
                  "rating": 7.9
            },
            {
                  "distance": 466,
                  "location": {
                        "address": "1690 Ontario Rue E",
                        "country": "CA",
                        "cross_street": "entre De Champlain & Papineau",
                        "formatted_address": "1690 Ontario Rue E (entre De Champlain & Papineau), Montr\u00e9al QC H2L 1S7",
                        "locality": "Montreal",
                        "postcode": "H2L 1S7",
                        "region": "QC"
                  },
                  "name": "Au Petit Extra",
                  "popularity": 0.9349924299772899,
                  "price": 4,
                  "rating": 7.9
            },
            {
                  "distance": 981,
                  "location": {
                        "address": "1315 Sainte-Catherine Rue E",
                        "country": "CA",
                        "cross_street": "entre Visitation et Panet",
                        "formatted_address": "1315 Sainte-Catherine Rue E (entre Visitation et Panet), Montr\u00e9al QC H2L 2H4",
                        "locality": "Montreal",
                        "postcode": "H2L 2H4",
                        "region": "QC"
                  },
                  "name": "Bar l'aigle Noir",
                  "popularity": 0.9607778198334594,
                  "price": 2,
                  "rating": 7.9
            },
            {
                  "distance": 377,
                  "location": {
                        "address": "1365 Ontario Rue E",
                        "country": "CA",
                        "formatted_address": "1365 Ontario Rue E, Montr\u00e9al QC H2L 1S2",
                        "locality": "Montreal",
                        "postcode": "H2L 1S2",
                        "region": "QC"
                  },
                  "name": "Poutineville",
                  "popularity": 0.9661241483724451,
                  "price": 2,
                  "rating": 7.9
            },
            {
                  "distance": 818,
                  "location": {
                        "address": "3635 Saint-Denis Rue",
                        "country": "CA",
                        "cross_street": "coin Cherrier",
                        "formatted_address": "3635 Saint-Denis Rue (coin Cherrier), Montr\u00e9al QC H2X 3L6",
                        "locality": "Montreal",
                        "postcode": "H2X 3L6",
                        "region": "QC"
                  },
                  "name": "Caf\u00e9 Cherrier",
                  "popularity": 0.9193082891748675,
                  "price": 3,
                  "rating": 7.7
            },
            {
                  "distance": 853,
                  "location": {
                        "address": "3828 Saint-Denis Rue",
                        "country": "CA",
                        "cross_street": "",
                        "formatted_address": "3828 Saint-Denis Rue, Montr\u00e9al QC H2W 2M2",
                        "locality": "Montreal",
                        "postcode": "H2W 2M2",
                        "region": "QC"
                  },
                  "name": "Tacos Tin Tan",
                  "popularity": 0.9322601249053747,
                  "price": 1,
                  "rating": 7.7
            },
            {
                  "distance": 363,
                  "location": {
                        "address": "1030 Cherrier Rue",
                        "country": "CA",
                        "cross_street": "at Parc-Lafontaine Ave.",
                        "formatted_address": "1030 Cherrier Rue (at Parc-Lafontaine Ave.), Montr\u00e9al QC H2L 1H9",
                        "locality": "Montreal",
                        "postcode": "H2L 1H9",
                        "region": "QC"
                  },
                  "name": "Bistro T\u00f4t ou Tard",
                  "popularity": 0.9615821347464042,
                  "price": 1,
                  "rating": 7.7
            },
            {
                  "distance": 813,
                  "location": {
                        "address": "901 Rachel Rue E",
                        "country": "CA",
                        "cross_street": "Saint-Andr\u00e9",
                        "formatted_address": "901 Rachel Rue E (Saint-Andr\u00e9), Montr\u00e9al QC H2J 2J2",
                        "locality": "Montreal",
                        "postcode": "H2J 2J2",
                        "region": "QC"
                  },
                  "name": "Fen\u00eatre Sur Kaboul",
                  "popularity": 0.8795774981074943,
                  "price": 2,
                  "rating": 7.6
            },
            {
                  "distance": 934,
                  "location": {
                        "address": "2080A Saint-Denis Rue",
                        "country": "CA",
                        "cross_street": "entre Sherbrooke & Ontario",
                        "formatted_address": "2080A Saint-Denis Rue (entre Sherbrooke & Ontario), Montr\u00e9al QC H2X 3K7",
                        "locality": "Montreal",
                        "postcode": "H2X 3K7",
                        "region": "QC"
                  },
                  "name": "Caf\u00e9 Gitana",
                  "popularity": 0.9328397047691143,
                  "price": 2,
                  "rating": 7.5
            },
            {
                  "distance": 690,
                  "location": {
                        "address": "3575 Berri Rue",
                        "country": "CA",
                        "formatted_address": "3575 Berri Rue, Montr\u00e9al QC H2L 4G3",
                        "locality": "Montreal",
                        "postcode": "H2L 4G3",
                        "region": "QC"
                  },
                  "name": "Patisserie St Louis de France",
                  "popularity": 0.9443366767600303,
                  "price": 1,
                  "rating": 7.5
            },
            {
                  "distance": 779,
                  "location": {
                        "address": "521 Duluth Ave E",
                        "country": "CA",
                        "cross_street": "btw Berri & St-Hubert",
                        "formatted_address": "521 Duluth Ave E (btw Berri & St-Hubert), Montreal QC H2L 1A8",
                        "locality": "Montreal",
                        "postcode": "H2L 1A8",
                        "region": "QC"
                  },
                  "name": "Le Jardin de Panos",
                  "popularity": 0.9252341975775927,
                  "price": 2,
                  "rating": 7.5
            },
            {
                  "distance": 819,
                  "location": {
                        "address": "3623 Saint-Denis Rue",
                        "country": "CA",
                        "formatted_address": "3623 Saint-Denis Rue, Montr\u00e9al QC H2X 3L6",
                        "locality": "Montreal",
                        "postcode": "H2X 3L6",
                        "region": "QC"
                  },
                  "name": "O-Taku Manga Lounge",
                  "popularity": 0.9071489401968206,
                  "rating": 7.4
            },
            {
                  "distance": 818,
                  "location": {
                        "address": "3817 Saint-Denis Rue",
                        "country": "CA",
                        "cross_street": "Roy",
                        "formatted_address": "3817 Saint-Denis Rue (Roy), Montr\u00e9al QC H2W 2M4",
                        "locality": "Montreal",
                        "postcode": "H2W 2M4",
                        "region": "QC"
                  },
                  "name": "L'Evidence",
                  "popularity": 0.9519894965934897,
                  "price": 2,
                  "rating": 7.4
            },
            {
                  "distance": 892,
                  "location": {
                        "address": "3967 Saint-Denis Rue",
                        "country": "CA",
                        "cross_street": "Entre rue Duluth et rue Roy",
                        "formatted_address": "3967 Saint-Denis Rue (Entre rue Duluth et rue Roy), Montr\u00e9al QC H2W 2M4",
                        "locality": "Montreal",
                        "postcode": "H2W 2M4",
                        "region": "QC"
                  },
                  "name": "Brulerie St Denis",
                  "popularity": 0.9254234481453444,
                  "price": 1,
                  "rating": 7.4
            },
            {
                  "distance": 982,
                  "location": {
                        "address": "1333 Sainte-Catherine Rue E",
                        "country": "CA",
                        "cross_street": "coin Panet",
                        "formatted_address": "1333 Sainte-Catherine Rue E (coin Panet), Montr\u00e9al QC H2L 2H4",
                        "locality": "Montreal",
                        "postcode": "H2L 2H4",
                        "region": "QC"
                  },
                  "name": "Le Saloon Bistro Bar Inc",
                  "popularity": 0.9465721990915973,
                  "price": 2,
                  "rating": 7.3
            },
            {
                  "distance": 430,
                  "location": {
                        "address": "1652 Ontario Rue E",
                        "country": "CA",
                        "cross_street": "",
                        "formatted_address": "1652 Ontario Rue E, Montr\u00e9al QC H2L 1S7",
                        "locality": "Montreal",
                        "postcode": "H2L 1S7",
                        "region": "QC"
                  },
                  "name": "Dame Tartine D\u00e9jeuner et D\u00eener",
                  "popularity": 0.9304031037093111,
                  "price": 1,
                  "rating": 7.3
            }
      ],
      "context": {
            "geo_bounds": {
                  "circle": {
                        "center": {
                              "latitude": 45.52479,
                              "longitude": -73.56545
                        },
                        "radius": 1000
                  }
            }
      }
}