{
      "results": [
            {
                  "distance": 860,
                  "location": {
                        "address": "809 Laurier Ave E",
                        "country": "CA",
                        "formatted_address": "809 Laurier Ave E, Montr\u00e9al QC H2J 1G2",
                        "locality": "Montreal",
                        "postcode": "H2J 1G2",
                        "region": "QC"
                  },
                  "name": "Fous Desserts",
                  "popularity": 0.9535389856169568,
                  "rating": 9.0
            },
            {
                  "distance": 488,
                  "location": {
                        "address": "1266 Ave du Mont-Royal Est",
                        "country": "CA",
                        "cross_street": "entre Br\u00e9beuf & Chambord",
                        "formatted_address": "1266 Ave du Mont-Royal Est (entre Br\u00e9beuf & Chambord), Montr\u00e9al QC H2J 1Y3",
                        "locality": "Montreal",
                        "postcode": "H2J 1Y3",
                        "region": "QC"
                  },
                  "name": "Point G",
                  "popularity": 0.9041800719152158,
                  "price": 1,
                  "rating": 8.9
            },
            {
                  "distance": 363,
                  "location": {
                        "address": "1810 Ave du MONT-ROYAL Est",
                        "country": "CA",
                        "cross_street": "",
                        "formatted_address": "1810 Ave du MONT-ROYAL Est, Montr\u00e9al QC H2H 1J1",
                        "locality": "Montreal",
                        "postcode": "H2H 1J1",
                        "region": "QC"
                  },
                  "name": "Mr. Puffs",
                  "popularity": 0.9136307721423165,
                  "price": 1,
                  "rating": 8.8
            },
            {
                  "distance": 603,
                  "location": {
                        "address": "1127 Ave du Mont-Royal Est",
                        "country": "CA",
                        "cross_street": "coin Christophe-Colomb",
                        "formatted_address": "1127 Ave du Mont-Royal Est (coin Christophe-Colomb), Montr\u00e9al QC H2J 1X9",
                        "locality": "Montreal",
                        "postcode": "H2J 1X9",
                        "region": "QC"
                  },
                  "name": "St-Viateur Bagel & Cafe",
                  "popularity": 0.9727715745647237,
                  "price": 1,
                  "rating": 8.7
            },
            {
                  "distance": 875,
                  "location": {
                        "address": "2407 Ave du Mont-Royal Est",
                        "country": "CA",
                        "cross_street": "entre Franch\u00e8re & Chapleau",
                        "formatted_address": "2407 Ave du Mont-Royal Est (entre Franch\u00e8re & Chapleau), Montr\u00e9al QC H2H 1L2",
                        "locality": "Montreal",
                        "postcode": "H2H 1L2",
                        "region": "QC"
                  },
                  "name": "Boswell Brasserie Artisanale",
                  "popularity": 0.9548282551097653,
                  "price": 2,
                  "rating": 8.6
            },
            {
                  "distance": 297,
                  "location": {
                        "address": "1650 Laurier Ave E",
                        "country": "CA",
                        "cross_street": "Marquette",
                        "formatted_address": "1650 Laurier Ave E (Marquette), Montr\u00e9al QC H2J 1J2",
                        "locality": "Montreal",
                        "postcode": "H2J 1J2",
                        "region": "QC"
                  },
                  "name": "Sushi Tri Express",
                  "popularity": 0.8795656699470098,
                  "price": 2,
                  "rating": 8.5
            },
            {
                  "distance": 626,
                  "location": {
                        "address": "1995 Masson Rue",
                        "country": "CA",
                        "cross_street": "coin Bordeaux",
                        "formatted_address": "1995 Masson Rue (coin Bordeaux), Montr\u00e9al QC H2H 1A5",
                        "locality": "Montreal",
                        "postcode": "H2H 1A5",
                        "region": "QC"
                  },
                  "name": "L'Entre-Pots",
                  "popularity": 0.955679882664648,
                  "price": 1,
                  "rating": 8.5
            },
            {
                  "distance": 561,
                  "location": {
                        "address": "1059 Gilford Rue",
                        "country": "CA",
                        "cross_street": "Christophe-Colomb",
                        "formatted_address": "1059 Gilford Rue (Christophe-Colomb), Montr\u00e9al QC H2J 1P7",
                        "locality": "Montreal",
                        "postcode": "H2J 1P7",
                        "region": "QC"
                  },
                  "name": "Restaurant la Raclette",
                  "popularity": 0.9396527252081757,
                  "price": 3,
                  "rating": 8.5
            },
            {
                  "distance": 765,
                  "location": {
                        "address": "4449 Rue de Mentana",
                        "country": "CA",
                        "cross_street": "Avenue du Mont-Royal",
                        "formatted_address": "4449 Rue de Mentana (Avenue du Mont-Royal), Montr\u00e9al QC H2J 3B4",
                        "locality": "Montreal",
                        "postcode": "H2J 3B4",
                        "region": "QC"
                  },
                  "name": "Tampopo",
                  "popularity": 0.8850539364118092,
                  "price": 2,
                  "rating": 8.5
            },
            {
                  "distance": 992,
                  "location": {
                        "address": "994 Rachel Rue E",
                        "country": "CA",
                        "cross_street": "entre de Boyer & du Parc-Lafontaine",
                        "formatted_address": "994 Rachel Rue E (entre de Boyer & du Parc-Lafontaine), Montr\u00e9al QC H2J 2J3",
                        "locality": "Montreal",
                        "postcode": "H2J 2J3",
                        "region": "QC"
                  },
                  "name": "La Banquise",
                  "popularity": 0.9872374148372445,
                  "price": 1,
                  "rating": 8.5
            },
            {
                  "distance": 798,
                  "location": {
                        "address": "922 Ave du Mont-Royal Est",
                        "country": "CA",
                        "cross_street": "entre St-Andr\u00e9 & De Mentana",
                        "formatted_address": "922 Ave du Mont-Royal Est (entre St-Andr\u00e9 & De Mentana), Montr\u00e9al QC H2J 1X2",
                        "locality": "Montreal",
                        "postcode": "H2J 1X2",
                        "region": "QC"
                  },
                  "name": "Restaurant l'Avenue",
                  "popularity": 0.9553132096896291,
                  "price": 2,
                  "rating": 8.4
            },
            {
                  "distance": 15,
                  "location": {
                        "address": "4720 Marquette Rue",
                        "country": "CA",
                        "cross_street": "coin Gilford",
                        "formatted_address": "4720 Marquette Rue (coin Gilford), Montr\u00e9al QC H2J 3Y6",
                        "locality": "Montreal",
                        "postcode": "H2J 3Y6",
                        "region": "QC"
                  },
                  "name": "Maison Publique",
                  "popularity": 0.9193674299772899,
                  "price": 3,
                  "rating": 8.4
            },
            {
                  "distance": 773,
                  "location": {
                        "address": "2296 Ave du Mont Royal Est",
                        "country": "CA",
                        "cross_street": "",
                        "formatted_address": "2296 Ave du Mont Royal Est, Montr\u00e9al QC H2H 1K6",
                        "locality": "Montreal",
                        "postcode": "H2H 1K6",
                        "region": "QC"
                  },
                  "name": "Caf\u00e9 des Bois",
                  "popularity": 0.9125070968962907,
                  "price": 1,
                  "rating": 8.2
            },
            {
                  "distance": 256,
                  "location": {
                        "address": "4710 rue de Lanaudi\u00e8re",
                        "country": "CA",
                        "cross_street": "coin Gilford",
                        "formatted_address": "4710 rue de Lanaudi\u00e8re (coin Gilford), Montr\u00e9al QC H2J 3P7",
                        "locality": "Montreal",
                        "postcode": "H2J 3P7",
                        "region": "QC"
                  },
                  "name": "Le Chien Fumant",
                  "popularity": 0.9083435844057532,
                  "price": 3,
                  "rating": 8.2
            },
            {
                  "distance": 294,
                  "location": {
                        "address": "1546 Laurier Ave E",
                        "country": "CA",
                        "cross_street": "Rue Fabre",
                        "formatted_address": "1546 Laurier Ave E (Rue Fabre), Montr\u00e9al QC H2J 1H9",
                        "locality": "Montreal",
                        "postcode": "H2J 1H9",
                        "region": "QC"
                  },
                  "name": "Caf\u00e9 M\u00e9chants Pinsons",
                  "popularity": 0.9265707797123391,
                  "price": 1,
                  "rating": 8.1
            },
            {
                  "distance": 838,
                  "location": {
                        "address": "860 Ave du Mont-Royal Est",
                        "country": "CA",
                        "cross_street": "coin Saint-Andr\u00e9",
                        "formatted_address": "860 Ave du Mont-Royal Est (coin Saint-Andr\u00e9), Montr\u00e9al QC H2J 1X1",
                        "locality": "Montreal",
                        "postcode": "H2J 1X1",
                        "region": "QC"
                  },
                  "name": "Boulangerie Premi\u00e8re Moisson",
                  "popularity": 0.9510787282361847,
                  "price": 1,
                  "rating": 8.0
            },
            {
                  "distance": 311,
                  "location": {
                        "address": "1499 Laurier Ave E",
                        "country": "CA",
                        "cross_street": "coin Fabre",
                        "formatted_address": "1499 Laurier Ave E (coin Fabre), Montr\u00e9al QC H2J 1H8",
                        "locality": "Montreal",
                        "postcode": "H2J 1H8",
                        "region": "QC"
                  },
                  "name": "Byblos le Petit Caf\u00e9",
                  "popularity": 0.8978046934140802,
                  "price": 2,
                  "rating": 7.8
            },
            {
                  "distance": 781,
                  "location": {
                        "address": "929 Ave du Mont Royal Est",
                        "country": "CA",
                        "cross_street": "entre St-Andr\u00e9 & Mentana",
                        "formatted_address": "929 Ave du Mont Royal Est (entre St-Andr\u00e9 & Mentana), Montr\u00e9al QC H2J 1X3",
                        "locality": "Montreal",
                        "postcode": "H2J 1X3",
                        "region": "QC"
                  },
                  "name": "Cacao 70",
                  "popularity": 0.8286336109008327,
                  "price": 1,
                  "rating": 7.7
            },
            {
                  "distance": 903,
                  "location": {
                        "address": "781 Ave du Mont-Royal E",
                        "country": "CA",
                        "cross_street": "",
                        "formatted_address": "781 Ave du Mont-Royal E, Montr\u00e9al QC H2J 1W8",
                        "locality": "Montreal",
                        "postcode": "H2J 1W8",
                        "region": "QC"
                  },
                  "name": "Caf\u00e9 N\u00e9v\u00e9",
                  "popularity": 0.9258847464042392,
                  "price": 1,
                  "rating": 7.7
            },
            {
                  "distance": 938,
                  "location": {
                        "address": "751 Ave du Mont-Royal E",
                        "country": "CA",
                        "cross_street": "coin Resther",
                        "formatted_address": "751 Ave du Mont-Royal E (coin Resther), Montr\u00e9al QC H2J 1W8",
                        "locality": "Montreal",
                        "postcode": "H2J 1W8",
                        "region": "QC"
                  },
                  "name": "Starbucks",
                  "popularity": 0.9651305828917487,
                  "price": 1,
                  "rating": 7.7,
                  "store_id": "16435-170964"
            },
            {
                  "distance": 353,
                  "location": {
                        "address": "1389 Laurier Ave E",
                        "country": "CA",
                        "cross_street": "Garnier",
                        "formatted_address": "1389 Laurier Ave E (Garnier), Montr\u00e9al QC H2J 1H6",
                        "locality": "Montreal",
                        "postcode": "H2J 1H6",
                        "region": "QC"
                  },
                  "name": "Brulerie Saint-Denis",
                  "popularity": 0.9221115632096897,
                  "price": 1,
                  "rating": 7.7
            },
            {
                  "distance": 591,
                  "location": {
                        "address": "5368 Papineau Ave",
                        "country": "CA",
                        "cross_street": "",
                        "formatted_address": "5368 Papineau Ave, Montr\u00e9al QC H2H 1W2",
                        "locality": "Montreal",
                        "postcode": "H2H 1W2",
                        "region": "QC"
                  },
                  "name": "Caf\u00e9 Orr",
                  "popularity": 0.9599853330809992,
                  "price": 1,
                  "rating": 7.6
            },
            {
                  "distance": 808,
                  "location": {
                        "address": "920 Mont Royal E",
                        "country": "CA",
                        "cross_street": "rue Pierce",
                        "formatted_address": "920 Mont Royal E (rue Pierce), Montr\u00e9al QC H2J 1X2",
                        "locality": "Montreal",
                        "postcode": "H2J 1X2",
                        "region": "QC"
                  },
                  "name": "Yeh! Yogourt Glac\u00e9 et Caf\u00e9",
                  "popularity": 0.37741294473883424,
                  "price": 1,
                  "rating": 7.6
            },
            {
                  "distance": 476,
                  "location": {
                        "address": "2017 Ave du Mont-Royal Est",
                        "country": "CA",
                        "formatted_address": "2017 Ave du Mont-Royal Est, Montr\u00e9al QC H2H 1J7",
                        "locality": "Montreal",
                        "postcode": "H2H 1J7",
                        "region": "QC"
                  },
                  "name": "L'Oeufrier",
                  "popularity": 0.955360522331567,
                  "price": 1,
                  "rating": 7.2
            },
            {
                  "distance": 386,
                  "location": {
                        "address": "1875 Ave du Mont-Royal Est",
                        "country": "CA",
                        "cross_street": "coin Cartier",
                        "formatted_address": "1875 Ave du Mont-Royal Est (coin Cartier), Montr\u00e9al QC H2H 1J3",
                        "locality": "Montreal",
                        "postcode": "H2H 1J3",
                        "region": "QC"
                  },
                  "name": "Le Terminal",
                  "popularity": 0.9634036714610144,
                  "price": 2,
                  "rating": 7.1
            },
            {
                  "distance": 908,
                  "location": {
                        "address": "775 Ave du Mont-Royal Est",
                        "country": "CA",
                        "cross_street": "at rue Saint-Hubert",
                        "formatted_address": "775 Ave du Mont-Royal Est (at rue Saint-Hubert), Montr\u00e9al QC H2J 1W8",
                        "locality": "Montreal",
                        "postcode": "H2J 1W8",
                        "region": "QC"
                  },
                  "name": "Taverne St-Sacrement",
                  "popularity": 0.9430828917486752,
                  "price": 2,
                  "rating": 7.1
            },
            {
                  "distance": 373,
                  "location": {
                        "address": "1828 Ave du Mont-Royal Est",
                        "country": "CA",
                        "cross_street": "Papineau",
                        "formatted_address": "1828 Ave du Mont-Royal Est (Papineau), Montr\u00e9al QC H2H 1J1",
                        "locality": "Montreal",
                        "postcode": "H2H 1J1",
                        "region": "QC"
                  },
                  "name": "Caf\u00e9 Asia",
                  "popularity": 0.8551523467070401,
                  "price": 2,
                  "rating": 6.9
            },
            {
                  "distance": 944,
                  "location": {
                        "address": "862 Marie-Anne Rue E",
                        "country": "CA",
                        "cross_street": "rue saint andr\u00e9",
                        "formatted_address": "862 Marie-Anne Rue E (rue saint andr\u00e9), Montr\u00e9al QC H2J 2A9",
                        "locality": "Montreal",
                        "postcode": "H2J 2A9",
                        "region": "QC"
                  },
                  "name": "Restaurant la Selva",
                  "popularity": 0.894137963663891,
                  "price": 2,
                  "rating": 6.8
            },
            {
                  "distance": 546,
                  "location": {
                        "address": "2112 Ave du Mont-Royal Est",
                        "country": "CA",
                        "cross_street": "entre De Lorimier & Des \u00c9rables",
                        "formatted_address": "2112 Ave du Mont-Royal Est (entre De Lorimier & Des \u00c9rables), Montr\u00e9al QC H2H 1J8",
                        "locality": "Montreal",
                        "postcode": "H2H 1J8",
                        "region": "QC"
                  },
                  "name": "Verre Bouteille",
                  "popularity": 0.9396172407267221,
                  "price": 2,
                  "rating": 6.6
            },
            {
                  "distance": 660,
                  "location": {
                        "address": "1045 Ave du Mont-Royal Est",
                        "country": "CA",
                        "cross_street": "coin Christophe-Colomb",
                        "formatted_address": "1045 Ave du Mont-Royal Est (coin Christophe-Colomb), Montr\u00e9al QC H2J 1X7",
                        "locality": "Montreal",
                        "postcode": "H2J 1X7",
                        "region": "QC"
                  },
                  "name": "Brasserie Chez Baptiste",
                  "popularity": 0.9606595382286147,
                  "price": 2,
                  "rating": 6.5
            },
            {
                  "distance": 485,
                  "location": {
                        "address": "1251 Ave Mont-Royal Est",
                        "country": "CA",
                        "cross_street": "Br\u00e9beuf",
                        "formatted_address": "1251 Ave Mont-Royal Est (Br\u00e9beuf), Montr\u00e9al QC H2J 1Y4",
                        "locality": "Montreal",
                        "postcode": "H2J 1Y4",
                        "region": "QC"
                  },
                  "name": "Copper Branch",
                  "popularity": 0.8276873580620742,
                  "price": 2,
                  "rating": 5.9
            },
            {
                  "distance": 719,
                  "location": {
                        "address": "1001 Ave du Mont-Royal Est",
                        "country": "CA",
                        "cross_street": "coin Boyer",
                        "formatted_address": "1001 Ave du Mont-Royal Est (coin Boyer), Montr\u00e9al QC H2J 1X7",
                        "locality": "Montreal",
                        "postcode": "H2J 1X7",
                        "region": "QC"
                  },
                  "name": "Mont-Royal Hot Dog",
                  "popularity": 0.9374053747161242,
                  "price": 1,
                  "rating": 5.9
            },
            {
                  "distance": 1933,
                  "location": {
                        "address": "5228 d'Iberville Rue",
                        "country": "CA",
                        "cross_street": "coin Masson",
                        "formatted_address": "5228 d'Iberville Rue (coin Masson), Montr\u00e9al QC H2G 2A8",
                        "locality": "Montreal",
                        "postcode": "H2G 2A8",
                        "region": "QC"
                  },
                  "name": "Bar Sel et Poivre",
                  "popularity": 0.9735758894776685,
                  "rating": 5.9
            },
            {
                  "distance": 88,
                  "location": {
                        "address": "4780 Papineau Ave",
                        "country": "CA",
                        "cross_street": "Gilford",
                        "formatted_address": "4780 Papineau Ave (Gilford), Montr\u00e9al QC H2H 1V5",
                        "locality": "Montreal",
                        "postcode": "H2H 1V5",
                        "region": "QC"
                  },
                  "name": "Boulangerie Patisserie l'Artisan",
                  "popularity": 0.8731193224829674,
                  "price": 2
            },
            {
                  "distance": 294,
                  "location": {
                        "address": "4526 Papineau Ave",
                        "country": "CA",
                        "cross_street": "Avenue Mont-Royal Est",
                        "formatted_address": "4526 Papineau Ave (Avenue Mont-Royal Est), Montr\u00e9al QC H2H 1V3",
                        "locality": "Montreal",
                        "postcode": "H2H 1V3",
                        "region": "QC"
                  },
                  "name": "Caf\u00e9 Venelle",
                  "popularity": 0.023810087055261164,
                  "price": 1
            }
      ],
      "context": {
            "geo_bounds": {
                  "circle": {
                        "center": {
                              "latitude": 45.53382623,
                              "longitude": -73.57891023
                        },
                        "radius": 1000
                  }
            }
      }
}