{
      "results": [
            {
                  "distance": 149,
                  "location": {
                        "address": "1777 Graham Blvd",
                        "country": "CA",
                        "cross_street": "",
                        "formatted_address": "1777 Graham Blvd, Mont-Royal QC H3R 1G7",
                        "locality": "Mont-Royal",
                        "postcode": "H3R 1G7",
                        "region": "QC"
                  },
                  "name": "Leonidas Mont Royal",
                  "popularity": 0.9110167486752461,
                  "price": 1,
                  "rating": 8.2
            },
            {
                  "distance": 359,
                  "location": {
                        "address": "1275 Dunkirk Ch",
                        "country": "CA",
                        "cross_street": "",
                        "formatted_address": "1275 Dunkirk Ch, Montr\u00e9al QC H3R 3L3",
                        "locality": "Montreal",
                        "postcode": "H3R 3L3",
                        "region": "QC"
                  },
                  "name": "Pizzaiolle",
                  "popularity": 0.9038607115821348,
                  "price": 1,
                  "rating": 7.7
            },
            {
                  "distance": 41,
                  "location": {
                        "address": "1970 Graham Blvd",
                        "country": "CA",
                        "cross_street": "",
                        "formatted_address": "1970 Graham Blvd, Mont-Royal QC H3R 1H3",
                        "locality": "Mont-Royal",
                        "postcode": "H3R 1H3",
                        "region": "QC"
                  },
                  "name": "Grillades Portugaises Galo",
                  "popularity": 0.9300364307342922,
                  "price": 2,
                  "rating": 7.4
            },
            {
                  "distance": 440,
                  "location": {
                        "address": "1297 Canora Ch",
                        "country": "CA",
                        "cross_street": "Cornwall",
                        "formatted_address": "1297 Canora Ch (Cornwall), Mont-Royal QC H3P 2J4",
                        "locality": "Mont-Royal",
                        "postcode": "H3P 2J4",
                        "region": "QC"
                  },
                  "name": "Dupond & Dupont",
                  "popularity": 0.9386709878879637,
                  "price": 3,
                  "rating": 6.1
            },
            {
                  "distance": 782,
                  "location": {
                        "address": "2305 Rockland Ch",
                        "country": "CA",
                        "cross_street": "Centre Rockland",
                        "formatted_address": "2305 Rockland Ch (Centre Rockland), Montr\u00e9al QC",
                        "locality": "Montreal",
                        "region": "QC"
                  },
                  "name": "McDonald's",
                  "popularity": 0.8653009084027252,
                  "price": 1,
                  "rating": 5.8
            },
            {
                  "distance": 40,
                  "location": {
                        "address": "149 Kindersley Ave",
                        "country": "CA",
                        "cross_street": "",
                        "formatted_address": "149 Kindersley Ave, Mont-Royal QC H3R 1R3",
                        "locality": "Mont-Royal",
                        "postcode": "H3R 1R3",
                        "region": "QC"
                  },
                  "name": "Sushi Sakana",
                  "popularity": 0.8809377365632097,
                  "price": 2
            },
            {
                  "distance": 384,
                  "location": {
                        "address": "1383 Canora Ch",
                        "country": "CA",
                        "cross_street": "",
                        "formatted_address": "1383 Canora Ch, Mont-Royal QC H3P 2J6",
                        "locality": "Mont-Royal",
                        "postcode": "H3P 2J6",
                        "region": "QC"
                  },
                  "name": "Hinata Sushi",
                  "popularity": 0.6417723315669946,
                  "price": 2
            },
            {
                  "distance": 490,
                  "location": {
                        "address": "1081 Caledonia Ch",
                        "address_extended": "# 1001",
                        "country": "CA",
                        "cross_street": "",
                        "formatted_address": "1081 Caledonia Ch, Mont-Royal QC H3R 2V6",
                        "locality": "Mont-Royal",
                        "postcode": "H3R 2V6",
                        "region": "QC"
                  },
                  "name": "Thia Dina's",
                  "popularity": 0.47579958364875097,
                  "price": 2
            },
            {
                  "distance": 847,
                  "location": {
                        "address": "3072 Cote de Liesse",
                        "country": "CA",
                        "cross_street": "at Montpellier",
                        "formatted_address": "3072 Cote de Liesse (at Montpellier), Mont-Royal QC H4N 2P3",
                        "locality": "Mont-Royal",
                        "postcode": "H4N 2P3",
                        "region": "QC"
                  },
                  "name": "Frank's",
                  "popularity": 0.15193272142316427,
                  "price": 2
            },
            {
                  "distance": 148,
                  "location": {
                        "address": "1777 Graham Blvd",
                        "country": "CA",
                        "formatted_address": "1777 Graham Blvd, Mont-Royal QC H3R 1G7",
                        "locality": "Mont-Royal",
                        "postcode": "H3R 1G7",
                        "region": "QC"
                  },
                  "name": "Mon Royal Chocolat"
            },
            {
                  "distance": 151,
                  "location": {
                        "address": "1387 Athlone Ch",
                        "country": "CA",
                        "formatted_address": "1387 Athlone Ch, Mont-Royal QC H3R 3G2",
                        "locality": "Mont-Royal",
                        "postcode": "H3R 3G2",
                        "region": "QC"
                  },
                  "name": "Salade Basil"
            },
            {
                  "distance": 240,
                  "location": {
                        "address": "2305 Rockland Ch",
                        "address_extended": "# 10",
                        "country": "CA",
                        "formatted_address": "2305 Rockland Ch, Mont-Royal QC H3P 3E9",
                        "locality": "Mont-Royal",
                        "postcode": "H3P 3E9",
                        "region": "QC"
                  },
                  "name": "9100-8482 Quebec Inc"
            },
            {
                  "distance": 240,
                  "location": {
                        "address": "2305 Rockland Ch",
                        "country": "CA",
                        "formatted_address": "2305 Rockland Ch, Mont-Royal QC H3P 3E9",
                        "locality": "Mont-Royal",
                        "postcode": "H3P 3E9",
                        "region": "QC"
                  },
                  "name": "9272-4897 Quebec Inc"
            },
            {
                  "distance": 240,
                  "location": {
                        "address": "2305 Rockland Ch",
                        "country": "CA",
                        "formatted_address": "2305 Rockland Ch, Mont-Royal QC H3P 3E9",
                        "locality": "Mont-Royal",
                        "postcode": "H3P 3E9",
                        "region": "QC"
                  },
                  "name": "Abouassaly Giz\u00e8lle"
            },
            {
                  "distance": 240,
                  "location": {
                        "address": "2756 Chamberland",
                        "country": "CA",
                        "formatted_address": "2756 Chamberland, Mont-Royal QC",
                        "locality": "Mont-Royal",
                        "region": "QC"
                  },
                  "name": "Subway"
            }
      ],
      "context": {
            "geo_bounds": {
                  "circle": {
                        "center": {
                              "latitude": 45.5140807,
                              "longitude": -73.64694983
                        },
                        "radius": 1000
                  }
            }
      }
}