{
      "results": [
            {
                  "distance": 243,
                  "location": {
                        "address": "1595 des Laurentides Blvd",
                        "country": "CA",
                        "cross_street": "",
                        "formatted_address": "1595 des Laurentides Blvd, Laval QC H7N 4Y6",
                        "locality": "Laval",
                        "postcode": "H7N 4Y6",
                        "region": "QC"
                  },
                  "name": "Tamashi Restaurant",
                  "popularity": 0.8892261001517451,
                  "price": 2,
                  "rating": 8.3
            },
            {
                  "distance": 652,
                  "location": {
                        "address": "525 Saint-Martin Blvd O",
                        "country": "CA",
                        "cross_street": "",
                        "formatted_address": "525 Saint-Martin Blvd O, Laval QC H7M 1Y9",
                        "locality": "Laval",
                        "postcode": "H7M 1Y9",
                        "region": "QC"
                  },
                  "name": "Makoto Sushi",
                  "popularity": 0.8985093278586093,
                  "price": 2,
                  "rating": 8.2
            },
            {
                  "distance": 727,
                  "location": {
                        "address": "579 Saint-Martin Blvd O",
                        "country": "CA",
                        "formatted_address": "579 Saint-Martin Blvd O, Laval QC H7M 1Y9",
                        "locality": "Laval",
                        "postcode": "H7M 1Y9",
                        "region": "QC"
                  },
                  "name": "Le Milsa Restaurant",
                  "popularity": 0.8555743997143622,
                  "price": 2,
                  "rating": 8.1
            },
            {
                  "distance": 669,
                  "location": {
                        "address": "500 Saint-Martin Blvd O",
                        "country": "CA",
                        "cross_street": "",
                        "formatted_address": "500 Saint-Martin Blvd O, Laval QC H7M 3Y2",
                        "locality": "Laval",
                        "postcode": "H7M 3Y2",
                        "region": "QC"
                  },
                  "name": "Ristorante Meridiana",
                  "popularity": 0.9133267874676426,
                  "price": 3,
                  "rating": 7.1
            },
            {
                  "distance": 909,
                  "location": {
                        "address": "802 des Laurentides Blvd",
                        "country": "CA",
                        "cross_street": "",
                        "formatted_address": "802 des Laurentides Blvd, Laval QC H7G 2V9",
                        "locality": "Laval",
                        "postcode": "H7G 2V9",
                        "region": "QC"
                  },
                  "name": "Restaurant le Pirate de Laval",
                  "popularity": 0.9817905918057663,
                  "price": 2,
                  "rating": 7.0
            },
            {
                  "distance": 444,
                  "location": {
                        "address": "350 Saint-Martin Blvd O",
                        "country": "CA",
                        "formatted_address": "350 Saint-Martin Blvd O, Laval QC H7M 3Y8",
                        "locality": "Laval",
                        "postcode": "H7M 3Y8",
                        "region": "QC"
                  },
                  "name": "Casa Grecque",
                  "popularity": 0.964652325270017,
                  "price": 2,
                  "rating": 7.0
            },
            {
                  "distance": 463,
                  "location": {
                        "address": "380 Saint-Martin Blvd O",
                        "country": "CA",
                        "cross_street": "Rue Vallieres",
                        "formatted_address": "380 Saint-Martin Blvd O (Rue Vallieres), Laval QC H7M 3Y8",
                        "locality": "Laval",
                        "postcode": "H7M 3Y8",
                        "region": "QC"
                  },
                  "name": "Towne380",
                  "popularity": 0.9498348656609836,
                  "price": 4,
                  "rating": 7.0
            },
            {
                  "distance": 978,
                  "location": {
                        "address": "661 des Laurentides Blvd",
                        "country": "CA",
                        "cross_street": "",
                        "formatted_address": "661 des Laurentides Blvd, Laval QC H7G 2V8",
                        "locality": "Laval",
                        "postcode": "H7G 2V8",
                        "region": "QC"
                  },
                  "name": "Restaurant Vien Dong",
                  "popularity": 0.8900294563956083,
                  "price": 2,
                  "rating": 6.8
            },
            {
                  "distance": 317,
                  "location": {
                        "address": "1111 des Laurentides Blvd",
                        "country": "CA",
                        "cross_street": "",
                        "formatted_address": "1111 des Laurentides Blvd, Laval QC H7N 5B5",
                        "locality": "Laval",
                        "postcode": "H7N 5B5",
                        "region": "QC"
                  },
                  "name": "R\u00f4tisserie St-Hubert",
                  "popularity": 0.9381415692225297,
                  "price": 2,
                  "rating": 6.8,
                  "store_id": "100094"
            },
            {
                  "distance": 725,
                  "location": {
                        "address": "1031 des Laurentides Blvd",
                        "country": "CA",
                        "cross_street": "coin Gianchetti",
                        "formatted_address": "1031 des Laurentides Blvd (coin Gianchetti), Laval QC H7G 2V8",
                        "locality": "Laval",
                        "postcode": "H7G 2V8",
                        "region": "QC"
                  },
                  "name": "Restaurant Chalutier M l M",
                  "popularity": 0.9672409176113541,
                  "price": 3,
                  "rating": 6.4
            },
            {
                  "distance": 319,
                  "location": {
                        "address": "1700 des Laurentides Blvd",
                        "country": "CA",
                        "cross_street": "Des laurentides",
                        "formatted_address": "1700 des Laurentides Blvd (Des laurentides), Laval QC H7M 2Y4",
                        "locality": "Laval",
                        "postcode": "H7M 2Y4",
                        "region": "QC"
                  },
                  "name": "Pizza Hut",
                  "popularity": 0.867624743372311,
                  "price": 1,
                  "rating": 6.2,
                  "store_id": "R29601"
            },
            {
                  "distance": 250,
                  "location": {
                        "address": "122 St Martin Blvd O",
                        "country": "CA",
                        "cross_street": "",
                        "formatted_address": "122 St Martin Blvd O, Laval QC H7M 3Y8",
                        "locality": "Laval",
                        "postcode": "H7M 3Y8",
                        "region": "QC"
                  },
                  "name": "Wendy's",
                  "popularity": 0.9743818620012497,
                  "price": 1,
                  "rating": 5.6,
                  "store_id": "6628"
            },
            {
                  "distance": 368,
                  "location": {
                        "address": "1135 des Laurentides Blvd",
                        "country": "CA",
                        "cross_street": "",
                        "formatted_address": "1135 des Laurentides Blvd, Laval QC H7M 2X9",
                        "locality": "Laval",
                        "postcode": "H7M 2X9",
                        "region": "QC"
                  },
                  "name": "R\u00f4tisserie Scores",
                  "popularity": 0.9378737838079086,
                  "price": 2,
                  "rating": 5.4,
                  "store_id": "SC_10"
            },
            {
                  "distance": 208,
                  "location": {
                        "address": "1521 des Laurentides Blvd",
                        "country": "CA",
                        "cross_street": "",
                        "formatted_address": "1521 des Laurentides Blvd, Laval QC H7N 4Y6",
                        "locality": "Laval",
                        "postcode": "H7N 4Y6",
                        "region": "QC"
                  },
                  "name": "Subway",
                  "popularity": 0.9139516201017585,
                  "price": 1,
                  "store_id": "25584"
            },
            {
                  "distance": 402,
                  "location": {
                        "address": "327 Saint-Martin Blvd O",
                        "country": "CA",
                        "cross_street": "",
                        "formatted_address": "327 Saint-Martin Blvd O, Laval QC H7M 1Y7",
                        "locality": "Laval",
                        "postcode": "H7M 1Y7",
                        "region": "QC"
                  },
                  "name": "Restaurant Chanchhaya",
                  "popularity": 0.00392751941444256,
                  "price": 2
            },
            {
                  "distance": 427,
                  "location": {
                        "address": "1093 des Laurentides Blvd",
                        "country": "CA",
                        "formatted_address": "1093 des Laurentides Blvd, Laval QC H7G 2W2",
                        "locality": "Laval",
                        "postcode": "H7G 2W2",
                        "region": "QC"
                  },
                  "name": "Quiznos",
                  "popularity": 0.8954744264929037,
                  "price": 1,
                  "store_id": "6836"
            },
            {
                  "distance": 429,
                  "location": {
                        "address": "1091 des Laurentides Blvd",
                        "country": "CA",
                        "cross_street": "",
                        "formatted_address": "1091 des Laurentides Blvd, Laval QC H7G 2W2",
                        "locality": "Laval",
                        "postcode": "H7G 2W2",
                        "region": "QC"
                  },
                  "name": "LongJ Sushi",
                  "popularity": 0.5665446755333393,
                  "price": 2
            },
            {
                  "distance": 477,
                  "location": {
                        "address": "1760 des Laurentides Blvd",
                        "country": "CA",
                        "cross_street": "Boul St Martin",
                        "formatted_address": "1760 des Laurentides Blvd (Boul St Martin), Laval QC H7M 2Y4",
                        "locality": "Laval",
                        "postcode": "H7M 2Y4",
                        "region": "QC"
                  },
                  "name": "Restaurant Eggsquis",
                  "popularity": 0.9012764438096939,
                  "price": 1
            },
            {
                  "distance": 505,
                  "location": {
                        "address": "1746 des Laurentides Blvd",
                        "country": "CA",
                        "formatted_address": "1746 des Laurentides Blvd, Montr\u00e9al QC",
                        "locality": "Montreal",
                        "region": "QC"
                  },
                  "name": "Pizza Vimont",
                  "popularity": 0.4413996251004195,
                  "price": 1
            },
            {
                  "distance": 693,
                  "location": {
                        "address": "1039 des Laurentides Blvd",
                        "country": "CA",
                        "cross_street": "",
                        "formatted_address": "1039 des Laurentides Blvd, Laval QC H7G 2W2",
                        "locality": "Laval",
                        "postcode": "H7G 2W2",
                        "region": "QC"
                  },
                  "name": "Restaurant Lavita",
                  "popularity": 0.9453717754172989,
                  "price": 2
            },
            {
                  "distance": 699,
                  "location": {
                        "address": "565 Saint-Martin Blvd O",
                        "country": "CA",
                        "cross_street": "",
                        "formatted_address": "565 Saint-Martin Blvd O, Laval QC H7M 1Y9",
                        "locality": "Laval",
                        "postcode": "H7M 1Y9",
                        "region": "QC"
                  },
                  "name": "Allons Burger",
                  "popularity": 0.2257431045255735,
                  "price": 1
            },
            {
                  "distance": 708,
                  "location": {
                        "address": "3000 Saint-Martin Blvd O",
                        "country": "CA",
                        "cross_street": "Entre boul. Industriel et des Laurentides",
                        "formatted_address": "3000 Saint-Martin Blvd O (Entre boul. Industriel et des Laurentides), Laval QC H7T 2J2",
                        "locality": "Laval",
                        "postcode": "H7T 2J2",
                        "region": "QC"
                  },
                  "name": "Ceramic Caf\u00e9-Studio",
                  "popularity": 0.8666428635187003,
                  "price": 1
            },
            {
                  "distance": 748,
                  "location": {
                        "address": "1040 des Laurentides Blvd",
                        "country": "CA",
                        "cross_street": "",
                        "formatted_address": "1040 des Laurentides Blvd, Laval QC H7G 2W1",
                        "locality": "Laval",
                        "postcode": "H7G 2W1",
                        "region": "QC"
                  },
                  "name": "Restaurant Basha",
                  "popularity": 0.8654824600553424,
                  "price": 1
            },
            {
                  "distance": 762,
                  "location": {
                        "address": "615 Saint-Martin Blvd O",
                        "country": "CA",
                        "cross_street": "",
                        "formatted_address": "615 Saint-Martin Blvd O, Laval QC H7M 1Y9",
                        "locality": "Laval",
                        "postcode": "H7M 1Y9",
                        "region": "QC"
                  },
                  "name": "L'eggspress",
                  "popularity": 0.9645630634651433,
                  "price": 1
            },
            {
                  "distance": 232,
                  "location": {
                        "address": "1555 des Laurentides Blvd",
                        "country": "CA",
                        "formatted_address": "1555 des Laurentides Blvd, Laval QC H7N 4Y6",
                        "locality": "Laval",
                        "postcode": "H7N 4Y6",
                        "region": "QC"
                  },
                  "name": "Restaurant la Belle Province"
            },
            {
                  "distance": 262,
                  "location": {
                        "address": "1441 des Laurentides Blvd",
                        "country": "CA",
                        "formatted_address": "1441 des Laurentides Blvd, Laval QC H7N 4Y5",
                        "locality": "Laval",
                        "postcode": "H7N 4Y5",
                        "region": "QC"
                  },
                  "name": "Maison de la Pizza"
            },
            {
                  "distance": 264,
                  "location": {
                        "address": "1585 des Laurentides Blvd",
                        "country": "CA",
                        "formatted_address": "1585 des Laurentides Blvd, Laval QC",
                        "locality": "Laval",
                        "region": "QC"
                  },
                  "name": "Restaurant Palace Minh"
            },
            {
                  "distance": 264,
                  "location": {
                        "address": "1585 des Laurentides Blvd",
                        "country": "CA",
                        "formatted_address": "1585 des Laurentides Blvd, Laval QC H7N 0H9",
                        "locality": "Laval",
                        "postcode": "H7N 0H9",
                        "region": "QC"
                  },
                  "name": "Nok Khao"
            },
            {
                  "distance": 355,
                  "location": {
                        "address": "269 Rte Ouest RR 2",
                        "address_extended": "# 76",
                        "country": "CA",
                        "formatted_address": "269 Rte Ouest RR 2, Laval QC G0M 1B0",
                        "locality": "Laval",
                        "postcode": "G0M 1B0",
                        "region": "QC"
                  },
                  "name": "Casse-Cro\u00fbte Chez Marie"
            },
            {
                  "distance": 379,
                  "location": {
                        "address": "1098 des Laurentides Blvd",
                        "country": "CA",
                        "formatted_address": "1098 des Laurentides Blvd, Laval QC H7G 2W3",
                        "locality": "Laval",
                        "postcode": "H7G 2W3",
                        "region": "QC"
                  },
                  "name": "Bistro 1098"
            },
            {
                  "distance": 425,
                  "location": {
                        "address": "327 Saint-Martin Blvd O",
                        "country": "CA",
                        "formatted_address": "327 Saint-Martin Blvd O, Laval QC H7M 1Y7",
                        "locality": "Laval",
                        "postcode": "H7M 1Y7",
                        "region": "QC"
                  },
                  "name": "Restaurant Kantora"
            },
            {
                  "distance": 443,
                  "location": {
                        "address": "1091 des Laurentides Blvd",
                        "country": "CA",
                        "formatted_address": "1091 des Laurentides Blvd, Laval QC H7G 2W2",
                        "locality": "Laval",
                        "postcode": "H7G 2W2",
                        "region": "QC"
                  },
                  "name": "Restaurant Japanese"
            },
            {
                  "distance": 502,
                  "location": {
                        "address": "1790 des Laurentides Blvd",
                        "country": "CA",
                        "formatted_address": "1790 des Laurentides Blvd, Laval QC H7M 2Y4",
                        "locality": "Laval",
                        "postcode": "H7M 2Y4",
                        "region": "QC"
                  },
                  "name": "BrasseRires"
            },
            {
                  "distance": 613,
                  "location": {
                        "address": "1216 Normont Rue",
                        "address_extended": "# 3",
                        "country": "CA",
                        "formatted_address": "1216 Normont Rue, Laval QC H7G 3H5",
                        "locality": "Laval",
                        "postcode": "H7G 3H5",
                        "region": "QC"
                  },
                  "name": "Greg's Patisserie"
            },
            {
                  "distance": 681,
                  "location": {
                        "address": "559 Saint-Martin Blvd O",
                        "country": "CA",
                        "formatted_address": "559 Saint-Martin Blvd O, Laval QC H7M 1Y9",
                        "locality": "Laval",
                        "postcode": "H7M 1Y9",
                        "region": "QC"
                  },
                  "name": "Boucherie et Grillades Farhat Laval"
            }
      ],
      "context": {
            "geo_bounds": {
                  "circle": {
                        "center": {
                              "latitude": 45.5788972,
                              "longitude": -73.70492712
                        },
                        "radius": 1000
                  }
            }
      }
}