{
      "results": [
            {
                  "distance": 794,
                  "location": {
                        "address": "2471 Notre-Dame Rue O",
                        "country": "CA",
                        "cross_street": "entre Vinet & Charlevoix",
                        "formatted_address": "2471 Notre-Dame Rue O (entre Vinet & Charlevoix), Montr\u00e9al QC H3J 1N6",
                        "locality": "Montreal",
                        "postcode": "H3J 1N6",
                        "region": "QC"
                  },
                  "name": "September Surf Caf\u00e9",
                  "popularity": 0.9357139477668432,
                  "price": 1,
                  "rating": 9.0
            },
            {
                  "distance": 411,
                  "location": {
                        "address": "1940 rue du Ctr",
                        "country": "CA",
                        "cross_street": "rue Jardin",
                        "formatted_address": "1940 rue du Ctr (rue Jardin), Montr\u00e9al QC H3K 1J2",
                        "locality": "Montreal",
                        "postcode": "H3K 1J2",
                        "region": "QC"
                  },
                  "name": "Le Caf\u00e9 Bloom",
                  "popularity": 0.9499195685087055,
                  "price": 2,
                  "rating": 9.0
            },
            {
                  "distance": 903,
                  "location": {
                        "address": "2713 Notre-Dame Rue O",
                        "country": "CA",
                        "cross_street": "Atwater",
                        "formatted_address": "2713 Notre-Dame Rue O (Atwater), Montr\u00e9al QC H3J 1N9",
                        "locality": "Montreal",
                        "postcode": "H3J 1N9",
                        "region": "QC"
                  },
                  "name": "Lili & Oli",
                  "popularity": 0.9507711960635882,
                  "price": 1,
                  "rating": 8.9
            },
            {
                  "distance": 804,
                  "location": {
                        "address": "2501 Notre-Dame Rue O",
                        "country": "CA",
                        "cross_street": "btwn Charlevoix & Vinet",
                        "formatted_address": "2501 Notre-Dame Rue O (btwn Charlevoix & Vinet), Montr\u00e9al QC H3J 1N6",
                        "locality": "Montreal",
                        "postcode": "H3J 1N6",
                        "region": "QC"
                  },
                  "name": "Liverpool House",
                  "popularity": 0.9156888720666162,
                  "price": 3,
                  "rating": 8.9
            },
            {
                  "distance": 814,
                  "location": {
                        "address": "2519 Notre-Dame Rue O",
                        "country": "CA",
                        "cross_street": "",
                        "formatted_address": "2519 Notre-Dame Rue O, Montr\u00e9al QC H3J 1N6",
                        "locality": "Montreal",
                        "postcode": "H3J 1N6",
                        "region": "QC"
                  },
                  "name": "Le Vin Papillon",
                  "popularity": 0.9172383610900833,
                  "price": 3,
                  "rating": 8.9
            },
            {
                  "distance": 788,
                  "location": {
                        "address": "2490 Notre-Dame Rue O",
                        "country": "CA",
                        "formatted_address": "2490 Notre-Dame Rue O, Montreal QC H3J 1N5",
                        "locality": "Montreal",
                        "postcode": "H3J 1N5",
                        "region": "QC"
                  },
                  "name": "Th\u00e9\u00e2tre Corona",
                  "popularity": 0.9053274034822104,
                  "rating": 8.8
            },
            {
                  "distance": 926,
                  "location": {
                        "address": "1886 Notre-Dame Rue O",
                        "country": "CA",
                        "cross_street": "coin Des Seigneurs",
                        "formatted_address": "1886 Notre-Dame Rue O (coin Des Seigneurs), Montr\u00e9al QC H3J 1M6",
                        "locality": "Montreal",
                        "postcode": "H3J 1M6",
                        "region": "QC"
                  },
                  "name": "Le Boucan",
                  "popularity": 0.9390494890234671,
                  "price": 3,
                  "rating": 8.8
            },
            {
                  "distance": 801,
                  "location": {
                        "address": "2496 Notre-Dame Rue O",
                        "country": "CA",
                        "cross_street": "entre Charlevoix & Vinet",
                        "formatted_address": "2496 Notre-Dame Rue O (entre Charlevoix & Vinet), Montr\u00e9al QC H3J 1N5",
                        "locality": "Montreal",
                        "postcode": "H3J 1N5",
                        "region": "QC"
                  },
                  "name": "Burgundy Lion",
                  "popularity": 0.956637963663891,
                  "price": 2,
                  "rating": 8.8
            },
            {
                  "distance": 942,
                  "location": {
                        "address": "512 Atwater Ave",
                        "country": "CA",
                        "cross_street": "Notre-Dame",
                        "formatted_address": "512 Atwater Ave (Notre-Dame), Montr\u00e9al QC H4C 2G5",
                        "locality": "Montreal",
                        "postcode": "H4C 2G5",
                        "region": "QC"
                  },
                  "name": "Atwater Cocktail Club",
                  "popularity": 0.969412376987131,
                  "price": 3,
                  "rating": 8.7
            },
            {
                  "distance": 914,
                  "location": {
                        "address": "403 des Seigneurs Rue",
                        "country": "CA",
                        "cross_street": "Notre Dame",
                        "formatted_address": "403 des Seigneurs Rue (Notre Dame), Montr\u00e9al QC H3J 1X7",
                        "locality": "Montreal",
                        "postcode": "H3J 1X7",
                        "region": "QC"
                  },
                  "name": "Perles et Paddock",
                  "popularity": 0.9152394019682059,
                  "price": 4,
                  "rating": 8.6
            },
            {
                  "distance": 846,
                  "location": {
                        "address": "1974 Notre-Dame Rue O",
                        "country": "CA",
                        "cross_street": "entre Canning & Chatham",
                        "formatted_address": "1974 Notre-Dame Rue O (entre Canning & Chatham), Montr\u00e9al QC H3J 1M8",
                        "locality": "Montreal",
                        "postcode": "H3J 1M8",
                        "region": "QC"
                  },
                  "name": "Chez Sophie",
                  "popularity": 0.927304125662377,
                  "price": 3,
                  "rating": 8.6
            },
            {
                  "distance": 868,
                  "location": {
                        "address": "138 Atwater Ave",
                        "country": "CA",
                        "formatted_address": "138 Atwater Ave, Montr\u00e9al QC H4C 2G3",
                        "locality": "Montreal",
                        "postcode": "H4C 2G3",
                        "region": "QC"
                  },
                  "name": "Satay Brothers",
                  "popularity": 0.882025927327782,
                  "price": 2,
                  "rating": 8.4
            },
            {
                  "distance": 521,
                  "location": {
                        "address": "1871 Rue du Ctr",
                        "country": "CA",
                        "cross_street": "Shearer",
                        "formatted_address": "1871 Rue du Ctr (Shearer), Montr\u00e9al QC H3K 1J1",
                        "locality": "Montreal",
                        "postcode": "H3K 1J1",
                        "region": "QC"
                  },
                  "name": "Knox Taverne",
                  "popularity": 0.9547572861468584,
                  "price": 2,
                  "rating": 8.3
            },
            {
                  "distance": 467,
                  "location": {
                        "address": "760 Charlevoix Rue",
                        "country": "CA",
                        "cross_street": "at Rue de Coleraine",
                        "formatted_address": "760 Charlevoix Rue (at Rue de Coleraine), Montr\u00e9al QC H3K 2Y2",
                        "locality": "Montreal",
                        "postcode": "H3K 2Y2",
                        "region": "QC"
                  },
                  "name": "Paul Patates Frites",
                  "popularity": 0.9733866389099167,
                  "price": 1,
                  "rating": 8.3
            },
            {
                  "distance": 940,
                  "location": {
                        "address": "3001 Notre-Dame Rue O",
                        "country": "CA",
                        "cross_street": "coin Atwater",
                        "formatted_address": "3001 Notre-Dame Rue O (coin Atwater), Montr\u00e9al QC H4C 1N9",
                        "locality": "Montreal",
                        "postcode": "H4C 1N9",
                        "region": "QC"
                  },
                  "name": "Foiegwa",
                  "popularity": 0.9437807532172596,
                  "price": 3,
                  "rating": 8.2
            },
            {
                  "distance": 970,
                  "location": {
                        "address": "1850 Notre-Dame Rue O",
                        "country": "CA",
                        "cross_street": "Rue des Seigneurs",
                        "formatted_address": "1850 Notre-Dame Rue O (Rue des Seigneurs), Montr\u00e9al QC H3J 1M5",
                        "locality": "Montreal",
                        "postcode": "H3J 1M5",
                        "region": "QC"
                  },
                  "name": "Caf\u00e9 Lali",
                  "popularity": 0.9049134178652536,
                  "price": 1,
                  "rating": 8.1
            },
            {
                  "distance": 508,
                  "location": {
                        "address": "1870 rue du Ctr",
                        "country": "CA",
                        "cross_street": "",
                        "formatted_address": "1870 rue du Ctr, Montr\u00e9al QC H3K 1H9",
                        "locality": "Montreal",
                        "postcode": "H3K 1H9",
                        "region": "QC"
                  },
                  "name": "Le Petit Sao",
                  "popularity": 0.8894894965934897,
                  "price": 2,
                  "rating": 8.0
            },
            {
                  "distance": 731,
                  "location": {
                        "address": "138 Atwater Ave",
                        "country": "CA",
                        "formatted_address": "138 Atwater Ave, Montr\u00e9al QC H4C 2G3",
                        "locality": "Montreal",
                        "postcode": "H4C 2G3",
                        "region": "QC"
                  },
                  "name": "Havre-aux-Glaces",
                  "popularity": 0.9121049394398183,
                  "price": 1,
                  "rating": 7.9
            },
            {
                  "distance": 855,
                  "location": {
                        "address": "2661 Notre-Dame Rue O",
                        "country": "CA",
                        "cross_street": "Petite-Bourgogne",
                        "formatted_address": "2661 Notre-Dame Rue O (Petite-Bourgogne), Montr\u00e9al QC H3J 1N9",
                        "locality": "Montreal",
                        "postcode": "H3J 1N9",
                        "region": "QC"
                  },
                  "name": "Drinkerie Ste-Cun\u00e9gonde",
                  "popularity": 0.9424678274034822,
                  "price": 2,
                  "rating": 7.8
            },
            {
                  "distance": 153,
                  "location": {
                        "address": "2483 rue du Ctr",
                        "country": "CA",
                        "cross_street": "",
                        "formatted_address": "2483 rue du Ctr, Montr\u00e9al QC H3K 1J9",
                        "locality": "Montreal",
                        "postcode": "H3K 1J9",
                        "region": "QC"
                  },
                  "name": "Clarke Caf\u00e9",
                  "popularity": 0.9593111279333838,
                  "price": 1,
                  "rating": 7.6
            },
            {
                  "distance": 997,
                  "location": {
                        "address": "3041 Notre-Dame Rue O",
                        "country": "CA",
                        "cross_street": "coin Greene",
                        "formatted_address": "3041 Notre-Dame Rue O (coin Greene), Montr\u00e9al QC H4C 1N9",
                        "locality": "Montreal",
                        "postcode": "H4C 1N9",
                        "region": "QC"
                  },
                  "name": "Green Spot",
                  "popularity": 0.9889998107494322,
                  "price": 1,
                  "rating": 7.6
            },
            {
                  "distance": 924,
                  "location": {
                        "address": "2745 Notre-Dame Rue O",
                        "country": "CA",
                        "cross_street": "avenue Atwater",
                        "formatted_address": "2745 Notre-Dame Rue O (avenue Atwater), Montr\u00e9al QC H3J 1N9",
                        "locality": "Montreal",
                        "postcode": "H3J 1N9",
                        "region": "QC"
                  },
                  "name": "Resto Cafe Quoi de N'Oeuf",
                  "popularity": 0.9520959500378501,
                  "price": 2,
                  "rating": 7.4
            },
            {
                  "distance": 855,
                  "location": {
                        "address": "265 des Seigneurs Rue",
                        "country": "CA",
                        "cross_street": "entre William & Basin",
                        "formatted_address": "265 des Seigneurs Rue (entre William & Basin), Montr\u00e9al QC H3J 0B3",
                        "locality": "Montreal",
                        "postcode": "H3J 0B3",
                        "region": "QC"
                  },
                  "name": "Lord William Pub",
                  "popularity": 0.9671058856926571,
                  "price": 1,
                  "rating": 7.1
            },
            {
                  "distance": 809,
                  "location": {
                        "address": "2518 Notre-Dame Rue O",
                        "country": "CA",
                        "cross_street": "",
                        "formatted_address": "2518 Notre-Dame Rue O, Montr\u00e9al QC H3J 1N5",
                        "locality": "Montreal",
                        "postcode": "H3J 1N5",
                        "region": "QC"
                  },
                  "name": "El Gordo",
                  "popularity": 0.9153695117335352,
                  "price": 2,
                  "rating": 7.1
            },
            {
                  "distance": 972,
                  "location": {
                        "address": "3009 Notre Dame Rue O",
                        "country": "CA",
                        "cross_street": "Atwater",
                        "formatted_address": "3009 Notre Dame Rue O (Atwater), Montr\u00e9al QC H4C 1N9",
                        "locality": "Montreal",
                        "postcode": "H4C 1N9",
                        "region": "QC"
                  },
                  "name": "Thai Express",
                  "popularity": 0.9009391559424679,
                  "price": 2,
                  "rating": 6.0,
                  "store_id": "68"
            },
            {
                  "distance": 969,
                  "location": {
                        "address": "3026 Notre-Dame Rue O",
                        "country": "CA",
                        "cross_street": "Greene",
                        "formatted_address": "3026 Notre-Dame Rue O (Greene), Montr\u00e9al QC H4C 1P1",
                        "locality": "Montreal",
                        "postcode": "H4C 1P1",
                        "region": "QC"
                  },
                  "name": "McDonald's",
                  "popularity": 0.9893073429220288,
                  "price": 1,
                  "rating": 4.8,
                  "store_id": "26035"
            },
            {
                  "distance": 254,
                  "location": {
                        "address": "2567 Centre St",
                        "country": "CA",
                        "cross_street": "",
                        "formatted_address": "2567 Centre St, Montr\u00e9al QC H3K 1J9",
                        "locality": "Montreal",
                        "postcode": "H3K 1J9",
                        "region": "QC"
                  },
                  "name": "LaChicR\u00e9gal",
                  "popularity": 0.8318272142316427,
                  "price": 2
            },
            {
                  "distance": 268,
                  "location": {
                        "address": "2601 Rue Ctr",
                        "country": "CA",
                        "cross_street": "",
                        "formatted_address": "2601 Rue Ctr, Montr\u00e9al QC H3K 1K2",
                        "locality": "Montreal",
                        "postcode": "H3K 1K2",
                        "region": "QC"
                  },
                  "name": "Sep Lai",
                  "popularity": 0.945484008327025,
                  "price": 2
            },
            {
                  "distance": 438,
                  "location": {
                        "address": "2604 Saint-Patrick Rue",
                        "country": "CA",
                        "cross_street": "",
                        "formatted_address": "2604 Saint-Patrick Rue, Montr\u00e9al QC H3K 1B8",
                        "locality": "Montreal",
                        "postcode": "H3K 1B8",
                        "region": "QC"
                  },
                  "name": "Caf\u00e9 Redwood",
                  "popularity": 0.9289127554882665,
                  "price": 1
            },
            {
                  "distance": 440,
                  "location": {
                        "address": "2606 Saint-Patrick Rue",
                        "country": "CA",
                        "cross_street": "",
                        "formatted_address": "2606 Saint-Patrick Rue, Montr\u00e9al QC H3K 1B8",
                        "locality": "Montreal",
                        "postcode": "H3K 1B8",
                        "region": "QC"
                  },
                  "name": "Restaurant Krood",
                  "popularity": 0.8481973883421651
            },
            {
                  "distance": 470,
                  "location": {
                        "address": "1886 Rue Ctr",
                        "country": "CA",
                        "cross_street": "",
                        "formatted_address": "1886 Rue Ctr, Montr\u00e9al QC H3K 1H9",
                        "locality": "Montreal",
                        "postcode": "H3K 1H9",
                        "region": "QC"
                  },
                  "name": "Fugazzi Pizza",
                  "popularity": 0.9187168811506434,
                  "price": 1
            },
            {
                  "distance": 564,
                  "location": {
                        "address": "2069 Wellington Rue",
                        "country": "CA",
                        "cross_street": "Fortune",
                        "formatted_address": "2069 Wellington Rue (Fortune), Montr\u00e9al QC H3K 1W7",
                        "locality": "Montreal",
                        "postcode": "H3K 1W7",
                        "region": "QC"
                  },
                  "name": "Mollo",
                  "popularity": 0.9784609197577593,
                  "price": 1
            },
            {
                  "distance": 754,
                  "location": {
                        "address": "2687 Wellington Rue",
                        "country": "CA",
                        "cross_street": "",
                        "formatted_address": "2687 Wellington Rue, Montreal QC H3K 1X8",
                        "locality": "Montreal",
                        "postcode": "H3K 1X8",
                        "region": "QC"
                  },
                  "name": "Pub St Charles",
                  "popularity": 0.9495055828917487,
                  "price": 2
            },
            {
                  "distance": 802,
                  "location": {
                        "address": "2455 Notre-Dame Rue O",
                        "country": "CA",
                        "cross_street": "Vinet",
                        "formatted_address": "2455 Notre-Dame Rue O (Vinet), Montr\u00e9al QC H3J 1N6",
                        "locality": "Montreal",
                        "postcode": "H3J 1N6",
                        "region": "QC"
                  },
                  "name": "Shushu Bar \u00c0 Pok\u00e9 + Sushi",
                  "popularity": 0.8745741862225587,
                  "price": 2
            },
            {
                  "distance": 824,
                  "location": {
                        "address": "2523 Notre-Dame Rue O",
                        "country": "CA",
                        "cross_street": "",
                        "formatted_address": "2523 Notre-Dame Rue O, Montr\u00e9al QC H3J 1N6",
                        "locality": "Montreal",
                        "postcode": "H3J 1N6",
                        "region": "QC"
                  },
                  "name": "Mignon Steak",
                  "popularity": 0.8599782361847086,
                  "price": 4
            }
      ],
      "context": {
            "geo_bounds": {
                  "circle": {
                        "center": {
                              "latitude": 45.47930107,
                              "longitude": -73.56629446
                        },
                        "radius": 1000
                  }
            }
      }
}