{
      "results": [
            {
                  "distance": 713,
                  "location": {
                        "address": "Lasalle Blvd",
                        "country": "CA",
                        "cross_street": "",
                        "formatted_address": "Lasalle Blvd, Lachine QC",
                        "locality": "Lachine",
                        "region": "QC"
                  },
                  "name": "Dairy Queen",
                  "popularity": 0.8709547691143074,
                  "price": 1,
                  "rating": 6.6
            },
            {
                  "distance": 614,
                  "location": {
                        "address": "78 Centrale Rue",
                        "country": "CA",
                        "cross_street": "",
                        "formatted_address": "78 Centrale Rue, Lasalle QC H8R 2J3",
                        "locality": "Lasalle",
                        "postcode": "H8R 2J3",
                        "region": "QC"
                  },
                  "name": "Restaurant Habanos",
                  "popularity": 0.8980057721423165,
                  "price": 2
            },
            {
                  "distance": 639,
                  "location": {
                        "address": "85 Lafleur Ave",
                        "country": "CA",
                        "formatted_address": "85 Lafleur Ave, Lasalle QC H8R 3G8",
                        "locality": "Lasalle",
                        "postcode": "H8R 3G8",
                        "region": "QC"
                  },
                  "name": "Culinaria Lasalle"
            },
            {
                  "distance": 889,
                  "location": {
                        "address": "9550 Jean-Milot Rue",
                        "country": "CA",
                        "formatted_address": "9550 Jean-Milot Rue, Lasalle QC H8R 1X7",
                        "locality": "Lasalle",
                        "postcode": "H8R 1X7",
                        "region": "QC"
                  },
                  "name": "Carib Patties"
            },
            {
                  "distance": 996,
                  "location": {
                        "address": "390 Lafleur Ave",
                        "country": "CA",
                        "formatted_address": "390 Lafleur Ave, Lasalle QC H8R 3H6",
                        "locality": "Lasalle",
                        "postcode": "H8R 3H6",
                        "region": "QC"
                  },
                  "name": "Patisserie Gordana"
            }
      ],
      "context": {
            "geo_bounds": {
                  "circle": {
                        "center": {
                              "latitude": 45.42612352,
                              "longitude": -73.65741581
                        },
                        "radius": 1000
                  }
            }
      }
}