{
      "results": [
            {
                  "distance": 541,
                  "location": {
                        "address": "4023 Beaubien Rue E",
                        "country": "CA",
                        "formatted_address": "4023 Beaubien Rue E, Montr\u00e9al QC H1X 1H7",
                        "locality": "Montreal",
                        "postcode": "H1X 1H7",
                        "region": "QC"
                  },
                  "name": "Beaubien Deli",
                  "popularity": 0.9816072104466314,
                  "price": 2,
                  "rating": 7.2
            },
            {
                  "distance": 895,
                  "location": {
                        "address": "3131 Belanger Rue",
                        "country": "CA",
                        "cross_street": "9\u00e8me avenue",
                        "formatted_address": "3131 Belanger Rue (9\u00e8me avenue), Montr\u00e9al QC H1Y 1B4",
                        "locality": "Montreal",
                        "postcode": "H1Y 1B4",
                        "region": "QC"
                  },
                  "name": "Caf\u00e9 le Carrefour",
                  "popularity": 0.9582229371688115,
                  "price": 1,
                  "rating": 6.7
            },
            {
                  "distance": 432,
                  "location": {
                        "address": "3397 Saint-Zotique Rue E",
                        "country": "CA",
                        "cross_street": "",
                        "formatted_address": "3397 Saint-Zotique Rue E, Montr\u00e9al QC H1X 1C7",
                        "locality": "Montreal",
                        "postcode": "H1X 1C7",
                        "region": "QC"
                  },
                  "name": "Au Coq",
                  "popularity": 0.962043433005299,
                  "price": 1,
                  "rating": 6.7
            },
            {
                  "distance": 713,
                  "location": {
                        "address": "3410 Belanger Rue",
                        "country": "CA",
                        "cross_street": "13th Avenue",
                        "formatted_address": "3410 Belanger Rue (13th Avenue), Montr\u00e9al QC H1X 1A6",
                        "locality": "Montreal",
                        "postcode": "H1X 1A6",
                        "region": "QC"
                  },
                  "name": "Merson's Patisserie",
                  "popularity": 0.8872776305828918,
                  "price": 2,
                  "rating": 5.9
            },
            {
                  "distance": 532,
                  "location": {
                        "address": "3255 Rosemont Blvd",
                        "country": "CA",
                        "formatted_address": "3255 Rosemont Blvd, Montr\u00e9al QC H1X 1K1",
                        "locality": "Montreal",
                        "postcode": "H1X 1K1",
                        "region": "QC"
                  },
                  "name": "Restaurant le Petit Quebec",
                  "popularity": 0.9626703255109765,
                  "price": 1,
                  "rating": 5.2
            },
            {
                  "distance": 264,
                  "location": {
                        "address": "3350 Beaubien Rue E",
                        "country": "CA",
                        "cross_street": "",
                        "formatted_address": "3350 Beaubien Rue E, Montr\u00e9al QC H1X 1G6",
                        "locality": "Montreal",
                        "postcode": "H1X 1G6",
                        "region": "QC"
                  },
                  "name": "Zytynsky's",
                  "popularity": 0.9171555639666918,
                  "price": 2
            },
            {
                  "distance": 287,
                  "location": {
                        "address": "3240 Beaubien Rue E",
                        "country": "CA",
                        "cross_street": "",
                        "formatted_address": "3240 Beaubien Rue E, Montr\u00e9al QC H1Y 1H7",
                        "locality": "Montreal",
                        "postcode": "H1Y 1H7",
                        "region": "QC"
                  },
                  "name": "Caf\u00e9 Hologramme",
                  "popularity": 0.2952663701741105,
                  "price": 1
            },
            {
                  "distance": 339,
                  "location": {
                        "address": "3251 Beaubien Rue E",
                        "country": "CA",
                        "cross_street": "",
                        "formatted_address": "3251 Beaubien Rue E, Montr\u00e9al QC H1X 1G4",
                        "locality": "Montreal",
                        "postcode": "H1X 1G4",
                        "region": "QC"
                  },
                  "name": "A&W Restaurant",
                  "popularity": 0.9718253217259651,
                  "price": 1,
                  "store_id": "5590"
            },
            {
                  "distance": 504,
                  "location": {
                        "address": "3222 Beaubien Rue E",
                        "country": "CA",
                        "cross_street": "St-Michel",
                        "formatted_address": "3222 Beaubien Rue E (St-Michel), Montr\u00e9al QC H1Y 1H7",
                        "locality": "Montreal",
                        "postcode": "H1Y 1H7",
                        "region": "QC"
                  },
                  "name": "Pho Hung Restaurant",
                  "popularity": 0.03770817562452687,
                  "price": 2
            },
            {
                  "distance": 559,
                  "location": {
                        "address": "3124 Beaubien Rue E",
                        "country": "CA",
                        "cross_street": "",
                        "formatted_address": "3124 Beaubien Rue E, Montr\u00e9al QC H1Y 1H3",
                        "locality": "Montreal",
                        "postcode": "H1Y 1H3",
                        "region": "QC"
                  },
                  "name": "Bairrada",
                  "popularity": 0.6641157267221802,
                  "price": 1
            },
            {
                  "distance": 602,
                  "location": {
                        "address": "3224 Rosemont Blvd",
                        "country": "CA",
                        "cross_street": "",
                        "formatted_address": "3224 Rosemont Blvd, Montr\u00e9al QC H1Y 1M7",
                        "locality": "Montreal",
                        "postcode": "H1Y 1M7",
                        "region": "QC"
                  },
                  "name": "Poulet 3 Pattes",
                  "popularity": 0.8786430734292203,
                  "price": 2
            },
            {
                  "distance": 782,
                  "location": {
                        "address": "3641A Dandurand Rue",
                        "country": "CA",
                        "cross_street": "16e avenue",
                        "formatted_address": "3641A Dandurand Rue (16e avenue), Montreal QC H1X 1N5",
                        "locality": "Mont\u00e9r\u00e9gie",
                        "postcode": "H1X 1N5",
                        "region": "QC"
                  },
                  "name": "La Bo\u00eete \u00e0 Vins",
                  "popularity": 0.10760077592732778,
                  "price": 1
            },
            {
                  "distance": 840,
                  "location": {
                        "address": "3391 Belair Rue",
                        "country": "CA",
                        "cross_street": "13e avenue",
                        "formatted_address": "3391 Belair Rue (13e avenue), Montr\u00e9al QC H2A 2A6",
                        "locality": "Montreal",
                        "postcode": "H2A 2A6",
                        "region": "QC"
                  },
                  "name": "Montr\u00e9al Caf\u00e9 Restaurent Carthage",
                  "popularity": 0.8973788796366389,
                  "price": 1
            },
            {
                  "distance": 884,
                  "location": {
                        "address": "3240 Dandurand Rue",
                        "country": "CA",
                        "cross_street": "coin St-Michel",
                        "formatted_address": "3240 Dandurand Rue (coin St-Michel), Montr\u00e9al QC H1Y 1V5",
                        "locality": "Montreal",
                        "postcode": "H1Y 1V5",
                        "region": "QC"
                  },
                  "name": "Gariepy & Fils Fins Gourmets",
                  "popularity": 0.9137372255866768
            },
            {
                  "distance": 916,
                  "location": {
                        "address": "7001 Pie-Ix Blvd",
                        "country": "CA",
                        "cross_street": "",
                        "formatted_address": "7001 Pie-Ix Blvd, Montr\u00e9al QC H2A 2G3",
                        "locality": "Montreal",
                        "postcode": "H2A 2G3",
                        "region": "QC"
                  },
                  "name": "All\u00f4! Mon Coco",
                  "popularity": 0.992335352006056,
                  "price": 2
            },
            {
                  "distance": 2830,
                  "location": {
                        "address": "2862 Rosemont Blvd",
                        "country": "CA",
                        "cross_street": "5e Avenue",
                        "formatted_address": "2862 Rosemont Blvd (5e Avenue), Montr\u00e9al QC H1Y 1L7",
                        "locality": "Montreal",
                        "postcode": "H1Y 1L7",
                        "region": "QC"
                  },
                  "name": "O Fuzion",
                  "popularity": 0.09026069265707796,
                  "price": 2
            },
            {
                  "distance": 367,
                  "location": {
                        "address": "3231 Beaubien Rue E",
                        "country": "CA",
                        "formatted_address": "3231 Beaubien Rue E, Montreal QC H1Y 1H6",
                        "locality": "Montreal",
                        "postcode": "H1Y 1H6",
                        "region": "QC"
                  },
                  "name": "Restaurant Famili"
            },
            {
                  "distance": 418,
                  "location": {
                        "address": "3234 Beaubien Rue E",
                        "country": "CA",
                        "formatted_address": "3234 Beaubien Rue E, Montreal QC H1Y 1H7",
                        "locality": "Montreal",
                        "postcode": "H1Y 1H7",
                        "region": "QC"
                  },
                  "name": "Taverne"
            },
            {
                  "distance": 858,
                  "location": {
                        "address": "3181 Belanger Rue",
                        "country": "CA",
                        "formatted_address": "3181 Belanger Rue, Montreal QC H1Y 1B6",
                        "locality": "Montreal",
                        "postcode": "H1Y 1B6",
                        "region": "QC"
                  },
                  "name": "Restaurant Pnt Inc"
            },
            {
                  "distance": 868,
                  "location": {
                        "address": "2862 Rosemont Blvd",
                        "country": "CA",
                        "formatted_address": "2862 Rosemont Blvd, Montreal QC H1Y 1L7",
                        "locality": "Montreal",
                        "postcode": "H1Y 1L7",
                        "region": "QC"
                  },
                  "name": "Casse-Cro\u00fbte"
            },
            {
                  "distance": 968,
                  "location": {
                        "address": "7167 15e Ave",
                        "country": "CA",
                        "formatted_address": "7167 15e Ave, Montreal QC H2A 2T9",
                        "locality": "Montreal",
                        "postcode": "H2A 2T9",
                        "region": "QC"
                  },
                  "name": "La Boulangerie Salem"
            }
      ],
      "context": {
            "geo_bounds": {
                  "circle": {
                        "center": {
                              "latitude": 45.55774991,
                              "longitude": -73.58380124
                        },
                        "radius": 1000
                  }
            }
      }
}