{
      "results": [
            {
                  "distance": 959,
                  "location": {
                        "address": "351 Saint-Paul Rue O",
                        "country": "CA",
                        "cross_street": "Coin St-Pierre",
                        "formatted_address": "351 Saint-Paul Rue O (Coin St-Pierre), Montr\u00e9al QC H2Y 2A7",
                        "locality": "Montreal",
                        "postcode": "H2Y 2A7",
                        "region": "QC"
                  },
                  "name": "Olive & Gourmando",
                  "popularity": 0.9503217259651779,
                  "price": 2,
                  "rating": 9.2
            },
            {
                  "distance": 894,
                  "location": {
                        "address": "200 Saint-Paul Rue O",
                        "country": "CA",
                        "cross_street": "",
                        "formatted_address": "200 Saint-Paul Rue O, Montr\u00e9al QC H2Y 1Z9",
                        "locality": "Montreal",
                        "postcode": "H2Y 1Z9",
                        "region": "QC"
                  },
                  "name": "Stash Caf\u00e9",
                  "popularity": 0.945140991672975,
                  "price": 2,
                  "rating": 9.1
            },
            {
                  "distance": 949,
                  "location": {
                        "address": "312 Saint-Paul Rue O",
                        "country": "CA",
                        "cross_street": "Saint-Pierre",
                        "formatted_address": "312 Saint-Paul Rue O (Saint-Pierre), Montr\u00e9al QC H2Y 2A3",
                        "locality": "Montreal",
                        "postcode": "H2Y 2A3",
                        "region": "QC"
                  },
                  "name": "Barroco",
                  "popularity": 0.9301901968205905,
                  "price": 4,
                  "rating": 9.0
            },
            {
                  "distance": 968,
                  "location": {
                        "address": "425 Saint Nicolas Rue",
                        "country": "CA",
                        "cross_street": "",
                        "formatted_address": "425 Saint Nicolas Rue, Montr\u00e9al QC H2Y 2P4",
                        "locality": "Montreal",
                        "postcode": "H2Y 2P4",
                        "region": "QC"
                  },
                  "name": "Mandy's",
                  "popularity": 0.9572175435276306,
                  "price": 1,
                  "rating": 9.0
            },
            {
                  "distance": 912,
                  "location": {
                        "address": "155 Saint-Paul Rue E",
                        "country": "CA",
                        "formatted_address": "155 Saint-Paul Rue E, Montr\u00e9al QC H2Y 1G8",
                        "locality": "Montreal",
                        "postcode": "H2Y 1G8",
                        "region": "QC"
                  },
                  "name": "Cold Room",
                  "popularity": 0.9257782929598789,
                  "price": 3,
                  "rating": 8.9
            },
            {
                  "distance": 926,
                  "location": {
                        "address": "419 Saint-Vincent Rue",
                        "country": "CA",
                        "cross_street": "Rue Saint-Amable",
                        "formatted_address": "419 Saint-Vincent Rue (Rue Saint-Amable), Montr\u00e9al QC H2Y 3A6",
                        "locality": "Montreal",
                        "postcode": "H2Y 3A6",
                        "region": "QC"
                  },
                  "name": "Caf\u00e9 Olimpico",
                  "popularity": 0.9666682437547313,
                  "price": 1,
                  "rating": 8.9
            },
            {
                  "distance": 935,
                  "location": {
                        "address": "363 d'Youville Pl",
                        "country": "CA",
                        "cross_street": "St Pierre et McGill",
                        "formatted_address": "363 d'Youville Pl (St Pierre et McGill), Montr\u00e9al QC H2Y 2B7",
                        "locality": "Montreal",
                        "postcode": "H2Y 2B7",
                        "region": "QC"
                  },
                  "name": "Deli Italien Bello",
                  "popularity": 0.9035058667676003,
                  "price": 2,
                  "rating": 8.9
            },
            {
                  "distance": 948,
                  "location": {
                        "address": "273 Saint-Paul Rue E",
                        "country": "CA",
                        "cross_street": "at rue du March\u00e9-Bonsecours",
                        "formatted_address": "273 Saint-Paul Rue E (at rue du March\u00e9-Bonsecours), Montr\u00e9al QC H2Y 1H1",
                        "locality": "Montreal",
                        "postcode": "H2Y 1H1",
                        "region": "QC"
                  },
                  "name": "L'Usine de Spaghetti",
                  "popularity": 0.9515400264950795,
                  "price": 2,
                  "rating": 8.8
            },
            {
                  "distance": 862,
                  "location": {
                        "address": "139 Saint-Paul Rue O",
                        "country": "CA",
                        "cross_street": "",
                        "formatted_address": "139 Saint-Paul Rue O, Montr\u00e9al QC H2Y 1Z5",
                        "locality": "Montreal",
                        "postcode": "H2Y 1Z5",
                        "region": "QC"
                  },
                  "name": "Pub Wolf & Workman",
                  "popularity": 0.9454485238455715,
                  "price": 2,
                  "rating": 8.7
            },
            {
                  "distance": 875,
                  "location": {
                        "address": "151 Saint-Paul Rue O",
                        "country": "CA",
                        "cross_street": "",
                        "formatted_address": "151 Saint-Paul Rue O, Montr\u00e9al QC H2Y 1Z5",
                        "locality": "Montreal",
                        "postcode": "H2Y 1Z5",
                        "region": "QC"
                  },
                  "name": "Tommy Caf\u00e9",
                  "popularity": 0.9337741294473884,
                  "price": 1,
                  "rating": 8.6
            },
            {
                  "distance": 948,
                  "location": {
                        "address": "426 Saint-Gabriel Rue",
                        "country": "CA",
                        "formatted_address": "426 Saint-Gabriel Rue, Montr\u00e9al QC H2Y 2Z9",
                        "locality": "Montreal",
                        "postcode": "H2Y 2Z9",
                        "region": "QC"
                  },
                  "name": "L'Auberge Saint-Gabriel",
                  "popularity": 0.9457087433762301,
                  "price": 3,
                  "rating": 8.6
            },
            {
                  "distance": 879,
                  "location": {
                        "address": "25 Saint Paul St E",
                        "country": "CA",
                        "formatted_address": "25 Saint Paul St E, Montr\u00e9al QC H2Y 1G2",
                        "locality": "Montreal",
                        "postcode": "H2Y 1G2",
                        "region": "QC"
                  },
                  "name": "The Keg Steakhouse + Bar",
                  "popularity": 0.957205715367146,
                  "price": 2,
                  "rating": 8.6,
                  "store_id": "108"
            },
            {
                  "distance": 231172,
                  "location": {
                        "address": "363 d'Youville Pl",
                        "country": "CA",
                        "cross_street": "",
                        "formatted_address": "363 d'Youville Pl, Montreal QC H2Y 2B7",
                        "locality": "Qu\u00e9bec",
                        "postcode": "H2Y 2B7",
                        "region": "QC"
                  },
                  "name": "Bello Deli",
                  "popularity": 0.9531404375441073,
                  "price": 2,
                  "rating": 8.5
            },
            {
                  "distance": 986,
                  "location": {
                        "address": "453 Saint-Sulpice Rue",
                        "country": "CA",
                        "cross_street": "Notre-Dame O.",
                        "formatted_address": "453 Saint-Sulpice Rue (Notre-Dame O.), Montr\u00e9al QC H2Y 2V8",
                        "locality": "Montreal",
                        "postcode": "H2Y 2V8",
                        "region": "QC"
                  },
                  "name": "Les Glaceurs",
                  "popularity": 0.9073145344436033,
                  "price": 3,
                  "rating": 8.5
            },
            {
                  "distance": 877,
                  "location": {
                        "address": "298 d'Youville Pl",
                        "country": "CA",
                        "formatted_address": "298 d'Youville Pl, Montr\u00e9al QC H2Y 2B6",
                        "locality": "Montreal",
                        "postcode": "H2Y 2B6",
                        "region": "QC"
                  },
                  "name": "Gibby's",
                  "popularity": 0.9558927895533686,
                  "price": 2,
                  "rating": 8.5
            },
            {
                  "distance": 886,
                  "location": {
                        "address": "179 Saint-Paul Rue O",
                        "country": "CA",
                        "cross_street": "Place Royale",
                        "formatted_address": "179 Saint-Paul Rue O (Place Royale), Montr\u00e9al QC H2Y 1Z5",
                        "locality": "Montreal",
                        "postcode": "H2Y 1Z5",
                        "region": "QC"
                  },
                  "name": "Le Petit Dep",
                  "popularity": 0.9530540310370931,
                  "rating": 8.5
            },
            {
                  "distance": 964,
                  "location": {
                        "address": "369 d'Youville Pl",
                        "country": "CA",
                        "cross_street": "",
                        "formatted_address": "369 d'Youville Pl, Montr\u00e9al QC H2Y 2B7",
                        "locality": "Montreal",
                        "postcode": "H2Y 2B7",
                        "region": "QC"
                  },
                  "name": "L'Amour du Pain - Vieux-Montr\u00e9al",
                  "popularity": 0.9404925246025738,
                  "price": 1,
                  "rating": 8.4
            },
            {
                  "distance": 870,
                  "location": {
                        "address": "1 Saint-Paul Rue O",
                        "country": "CA",
                        "cross_street": "St-Laurent",
                        "formatted_address": "1 Saint-Paul Rue O (St-Laurent), Montr\u00e9al QC H2Y 1Y6",
                        "locality": "Montreal",
                        "postcode": "H2Y 1Y6",
                        "region": "QC"
                  },
                  "name": "Modavie",
                  "popularity": 0.9749006434519304,
                  "price": 2,
                  "rating": 8.3
            },
            {
                  "distance": 957,
                  "location": {
                        "address": "447 Saint-Francois-Xavier Rue",
                        "country": "CA",
                        "formatted_address": "447 Saint-Francois-Xavier Rue, Montr\u00e9al QC H2Y 2T1",
                        "locality": "Montreal",
                        "postcode": "H2Y 2T1",
                        "region": "QC"
                  },
                  "name": "Restaurant Bonaparte",
                  "popularity": 0.9485711582134746,
                  "price": 4,
                  "rating": 8.3
            },
            {
                  "distance": 871,
                  "location": {
                        "address": "3 Saint-Paul Rue E",
                        "country": "CA",
                        "formatted_address": "3 Saint-Paul Rue E, Montr\u00e9al QC H2Y 1E9",
                        "locality": "Montreal",
                        "postcode": "H2Y 1E9",
                        "region": "QC"
                  },
                  "name": "Creperie Chez Suzette",
                  "popularity": 0.9561530090840272,
                  "price": 2,
                  "rating": 8.3
            },
            {
                  "distance": 879,
                  "location": {
                        "address": "39 Saint-Paul Rue E",
                        "country": "CA",
                        "cross_street": "St-Gabriel",
                        "formatted_address": "39 Saint-Paul Rue E (St-Gabriel), Montreal QC H2Y 1G2",
                        "locality": "Montreal",
                        "postcode": "H2Y 1G2",
                        "region": "QC"
                  },
                  "name": "Vieux-Port Steakhouse",
                  "popularity": 0.9651542392127176,
                  "price": 2,
                  "rating": 8.2
            },
            {
                  "distance": 958,
                  "location": {
                        "address": "426 Jacques-Cartier Pl",
                        "country": "CA",
                        "cross_street": "",
                        "formatted_address": "426 Jacques-Cartier Pl, Montr\u00e9al QC H2Y 3B3",
                        "locality": "Montreal",
                        "postcode": "H2Y 3B3",
                        "region": "QC"
                  },
                  "name": "Maggie Oakes",
                  "popularity": 0.9443603330809992,
                  "price": 4,
                  "rating": 8.2
            },
            {
                  "distance": 810,
                  "location": {
                        "address": "15 Rue de la Commune Ouest",
                        "country": "CA",
                        "cross_street": "",
                        "formatted_address": "15 Rue de la Commune Ouest, Montr\u00e9al QC H2Y 2C6",
                        "locality": "Montreal",
                        "postcode": "H2Y 2C6",
                        "region": "QC"
                  },
                  "name": "Lattuca Barbecue",
                  "popularity": 0.9148372445117335,
                  "price": 2,
                  "rating": 8.1
            },
            {
                  "distance": 957,
                  "location": {
                        "address": "320 Saint-Paul Rue O",
                        "country": "CA",
                        "cross_street": "rue Saint-Pierre",
                        "formatted_address": "320 Saint-Paul Rue O (rue Saint-Pierre), Montr\u00e9al QC H2Y 2A3",
                        "locality": "Montreal",
                        "postcode": "H2Y 2A3",
                        "region": "QC"
                  },
                  "name": "Les Pyr\u00e9n\u00e9es",
                  "popularity": 0.9086866010598031,
                  "price": 4,
                  "rating": 8.1
            },
            {
                  "distance": 880,
                  "location": {
                        "address": "626 Marguerite d'Youville Rue",
                        "country": "CA",
                        "cross_street": "",
                        "formatted_address": "626 Marguerite d'Youville Rue, Montr\u00e9al QC H3C 1W7",
                        "locality": "Montreal",
                        "postcode": "H3C 1W7",
                        "region": "QC"
                  },
                  "name": "Jellyfish Crudo+Charbon",
                  "popularity": 0.9344601627554883,
                  "price": 3,
                  "rating": 8.1
            },
            {
                  "distance": 855,
                  "location": {
                        "address": "84 Saint-Paul Rue E",
                        "country": "CA",
                        "cross_street": "coin Saint-Gabriel",
                        "formatted_address": "84 Saint-Paul Rue E (coin Saint-Gabriel), Montreal QC H2Y 1G6",
                        "locality": "Montreal",
                        "postcode": "H2Y 1G6",
                        "region": "QC"
                  },
                  "name": "Les D\u00e9lices de l'\u00c9rable",
                  "popularity": 0.890648656320969,
                  "price": 1,
                  "rating": 8.0
            },
            {
                  "distance": 860,
                  "location": {
                        "address": "124 Saint-Paul Rue O",
                        "country": "CA",
                        "cross_street": "Place Royale",
                        "formatted_address": "124 Saint-Paul Rue O (Place Royale), Montr\u00e9al QC H2Y 1Z3",
                        "locality": "Montreal",
                        "postcode": "H2Y 1Z3",
                        "region": "QC"
                  },
                  "name": "M\u00e9chant B\u0153uf Bar & Brasserie",
                  "popularity": 0.922537376987131,
                  "price": 2,
                  "rating": 8.0
            },
            {
                  "distance": 957,
                  "location": {
                        "address": "124 McGill Rue",
                        "country": "CA",
                        "cross_street": "",
                        "formatted_address": "124 McGill Rue, Montr\u00e9al QC H2Y 2E5",
                        "locality": "Montreal",
                        "postcode": "H2Y 2E5",
                        "region": "QC"
                  },
                  "name": "Pastel",
                  "popularity": 0.8942917297501892,
                  "price": 2,
                  "rating": 7.9
            },
            {
                  "distance": 899,
                  "location": {
                        "address": "230 Saint-Paul Rue O",
                        "country": "CA",
                        "cross_street": "Rue St-Nicolas",
                        "formatted_address": "230 Saint-Paul Rue O (Rue St-Nicolas), Montr\u00e9al QC H2Y 1Z9",
                        "locality": "Montreal",
                        "postcode": "H2Y 1Z9",
                        "region": "QC"
                  },
                  "name": "Restaurant Gandhi (restaurant Gandhi)",
                  "popularity": 0.9266299205147616,
                  "price": 3,
                  "rating": 7.9
            },
            {
                  "distance": 862,
                  "location": {
                        "address": "123 Rue de la Commune E",
                        "country": "CA",
                        "cross_street": "",
                        "formatted_address": "123 Rue de la Commune E, Montr\u00e9al QC H2Y 1J1",
                        "locality": "Montreal",
                        "postcode": "H2Y 1J1",
                        "region": "QC"
                  },
                  "name": "Queues de Castor",
                  "popularity": 0.8508350681302044,
                  "price": 1,
                  "rating": 7.9
            },
            {
                  "distance": 944,
                  "location": {
                        "address": "421 Saint Vincent Rue",
                        "country": "CA",
                        "cross_street": "",
                        "formatted_address": "421 Saint Vincent Rue, Montr\u00e9al QC H2Y 3A6",
                        "locality": "Montreal",
                        "postcode": "H2Y 3A6",
                        "region": "QC"
                  },
                  "name": "Terrasse William Gray",
                  "popularity": 0.9524981074943225,
                  "price": 2,
                  "rating": 7.7
            },
            {
                  "distance": 887,
                  "location": {
                        "address": "105 Saint-Paul Rue E",
                        "country": "CA",
                        "cross_street": "coin De Vaudreuil",
                        "formatted_address": "105 Saint-Paul Rue E (coin De Vaudreuil), Montr\u00e9al QC H2Y 1G7",
                        "locality": "Montreal",
                        "postcode": "H2Y 1G7",
                        "region": "QC"
                  },
                  "name": "Les 3 Brasseurs",
                  "popularity": 0.9654972558667676,
                  "price": 2,
                  "rating": 7.6
            },
            {
                  "distance": 754,
                  "location": {
                        "address": "357 Rue de la Commune O",
                        "country": "CA",
                        "cross_street": "",
                        "formatted_address": "357 Rue de la Commune O, Montr\u00e9al QC",
                        "locality": "Montreal",
                        "region": "QC"
                  },
                  "name": "357C",
                  "popularity": 0.5329295987887964,
                  "price": 3,
                  "rating": 7.6
            },
            {
                  "distance": 982,
                  "location": {
                        "address": "436 Saint-Francois-Xavier Rue",
                        "country": "CA",
                        "cross_street": "",
                        "formatted_address": "436 Saint-Francois-Xavier Rue, Montr\u00e9al QC H2Y 2T3",
                        "locality": "Montreal",
                        "postcode": "H2Y 2T3",
                        "region": "QC"
                  },
                  "name": "Clandestino",
                  "popularity": 0.919320117335352,
                  "price": 3,
                  "rating": 7.6
            },
            {
                  "distance": 856,
                  "location": {
                        "address": "89 Rue de la Commune Est",
                        "country": "CA",
                        "cross_street": "St-Gabriel",
                        "formatted_address": "89 Rue de la Commune Est (St-Gabriel), Montr\u00e9al QC H2Y 1J1",
                        "locality": "Montreal",
                        "postcode": "H2Y 1J1",
                        "region": "QC"
                  },
                  "name": "Taverne Gaspar",
                  "popularity": 0.9400312263436791,
                  "price": 2,
                  "rating": 7.5
            }
      ],
      "context": {
            "geo_bounds": {
                  "circle": {
                        "center": {
                              "latitude": 45.50186346,
                              "longitude": -73.54396105
                        },
                        "radius": 1000
                  }
            }
      }
}