{
      "results": [
            {
                  "distance": 850,
                  "location": {
                        "address": "1625 Marcel-Laurin Blvd",
                        "country": "CA",
                        "cross_street": "",
                        "formatted_address": "1625 Marcel-Laurin Blvd, Saint-Laurent QC H4R 0B7",
                        "locality": "Saint-Laurent",
                        "postcode": "H4R 0B7",
                        "region": "QC"
                  },
                  "name": "Lylac",
                  "popularity": 0.9968182248296745,
                  "price": 1,
                  "rating": 8.5
            },
            {
                  "distance": 530,
                  "location": {
                        "address": "1928 Thimens Blvd",
                        "country": "CA",
                        "cross_street": "Marcel-Laurin",
                        "formatted_address": "1928 Thimens Blvd (Marcel-Laurin), Montr\u00e9al QC H4R 1K2",
                        "locality": "Montreal",
                        "postcode": "H4R 1K2",
                        "region": "QC"
                  },
                  "name": "Ben & Florentine",
                  "popularity": 0.9675908402725208,
                  "price": 1,
                  "rating": 7.3,
                  "store_id": "004"
            },
            {
                  "distance": 747,
                  "location": {
                        "address": "1134 Marcel-Laurin Blvd",
                        "country": "CA",
                        "cross_street": "coin C\u00f4te-Vertu",
                        "formatted_address": "1134 Marcel-Laurin Blvd (coin C\u00f4te-Vertu), Montr\u00e9al QC H4R 1J7",
                        "locality": "Montreal",
                        "postcode": "H4R 1J7",
                        "region": "QC"
                  },
                  "name": "Ottavio",
                  "popularity": 0.9827308856926571,
                  "price": 2,
                  "rating": 7.3
            },
            {
                  "distance": 791,
                  "location": {
                        "address": "1555 Marcel-Laurin Blvd",
                        "country": "CA",
                        "formatted_address": "1555 Marcel-Laurin Blvd, Saint-Laurent QC H4R 0B7",
                        "locality": "Saint-Laurent",
                        "postcode": "H4R 0B7",
                        "region": "QC"
                  },
                  "name": "Second Cup CAF\u00c9 & Cie",
                  "popularity": 0.9503690386071159,
                  "price": 1,
                  "rating": 7.2
            },
            {
                  "distance": 936,
                  "location": {
                        "address": "1800 Blvd de la cote-Vertu",
                        "country": "CA",
                        "cross_street": "",
                        "formatted_address": "1800 Blvd de la cote-Vertu, Montr\u00e9al QC H4L 2A6",
                        "locality": "Montreal",
                        "postcode": "H4L 2A6",
                        "region": "QC"
                  },
                  "name": "Bistro Sawadika",
                  "popularity": 0.9861728803936411,
                  "price": 2,
                  "rating": 7.1
            },
            {
                  "distance": 606,
                  "location": {
                        "address": "1300 Marcel-Laurin Blvd",
                        "country": "CA",
                        "cross_street": "",
                        "formatted_address": "1300 Marcel-Laurin Blvd, Saint-Laurent QC H4R 1J9",
                        "locality": "Saint-Laurent",
                        "postcode": "H4R 1J9",
                        "region": "QC"
                  },
                  "name": "St-Hubert Express",
                  "popularity": 0.9805899886449659,
                  "price": 2,
                  "rating": 6.5,
                  "store_id": "100288"
            },
            {
                  "distance": 584,
                  "location": {
                        "address": "1898 Thimens Blvd",
                        "country": "CA",
                        "cross_street": "Marcel-Laurin",
                        "formatted_address": "1898 Thimens Blvd (Marcel-Laurin), Montr\u00e9al QC H4R 2K2",
                        "locality": "Montreal",
                        "postcode": "H4R 2K2",
                        "region": "QC"
                  },
                  "name": "Trattoria la Villetta",
                  "popularity": 0.9578799205147616,
                  "price": 3
            },
            {
                  "distance": 599,
                  "location": {
                        "address": "1320 Marcel-Laurin Blvd",
                        "country": "CA",
                        "cross_street": "",
                        "formatted_address": "1320 Marcel-Laurin Blvd, Montr\u00e9al QC H4R 1J9",
                        "locality": "Montreal",
                        "postcode": "H4R 1J9",
                        "region": "QC"
                  },
                  "name": "Premi\u00e8re Fondue",
                  "popularity": 0.9437925813777441
            },
            {
                  "distance": 720,
                  "location": {
                        "address": "1146 Marcel-Laurin Blvd",
                        "country": "CA",
                        "cross_street": "Cote-vertu",
                        "formatted_address": "1146 Marcel-Laurin Blvd (Cote-vertu), Saint-Laurent QC H4R 1J7",
                        "locality": "Saint-Laurent",
                        "postcode": "H4R 1J7",
                        "region": "QC"
                  },
                  "name": "Double Pizza",
                  "popularity": 0.14413796366389098,
                  "price": 1
            },
            {
                  "distance": 730,
                  "location": {
                        "address": "1140 Marcel-Laurin Blvd",
                        "country": "CA",
                        "cross_street": "",
                        "formatted_address": "1140 Marcel-Laurin Blvd, Saint-Laurent QC H4R 1J7",
                        "locality": "Saint-Laurent",
                        "postcode": "H4R 1J7",
                        "region": "QC"
                  },
                  "name": "Baskin-Robbins",
                  "popularity": 0.968111279333838,
                  "price": 1
            },
            {
                  "distance": 753,
                  "location": {
                        "address": "1110 Marcel-Laurin Blvd",
                        "country": "CA",
                        "cross_street": "",
                        "formatted_address": "1110 Marcel-Laurin Blvd, Saint-Laurent QC H4R 1J7",
                        "locality": "Saint-Laurent",
                        "postcode": "H4R 1J7",
                        "region": "QC"
                  },
                  "name": "La Slice",
                  "popularity": 0.20411856548069643,
                  "price": 1
            },
            {
                  "distance": 846,
                  "location": {
                        "address": "12174 Marcel Laurin",
                        "country": "CA",
                        "cross_street": "",
                        "formatted_address": "12174 Marcel Laurin, Montr\u00e9al QC",
                        "locality": "Montreal",
                        "region": "QC"
                  },
                  "name": "Mankal chicken",
                  "popularity": 0.4837954201362604,
                  "price": 2
            },
            {
                  "distance": 954,
                  "location": {
                        "address": "1790 Blvd de la C\u00f4te-Vertu",
                        "country": "CA",
                        "cross_street": "",
                        "formatted_address": "1790 Blvd de la C\u00f4te-Vertu, Saint-Laurent QC H4L 2A6",
                        "locality": "Saint-Laurent",
                        "postcode": "H4L 2A6",
                        "region": "QC"
                  },
                  "name": "Via Marcello",
                  "popularity": 0.8892174489023467,
                  "price": 3
            },
            {
                  "distance": 1288,
                  "location": {
                        "address": "1814 Blvd de la C\u00f4te-Vertu",
                        "country": "CA",
                        "cross_street": "",
                        "formatted_address": "1814 Blvd de la C\u00f4te-Vertu, Saint-Laurent QC H4L 2A6",
                        "locality": "Saint-Laurent",
                        "postcode": "H4L 2A6",
                        "region": "QC"
                  },
                  "name": "District 961",
                  "popularity": 0.8295088947766843,
                  "price": 2
            },
            {
                  "distance": 128,
                  "location": {
                        "address": "1300 Alexis-Nihon Blvd",
                        "country": "CA",
                        "formatted_address": "1300 Alexis-Nihon Blvd, Saint-Laurent QC H4R 2K8",
                        "locality": "Saint-Laurent",
                        "postcode": "H4R 2K8",
                        "region": "QC"
                  },
                  "name": "Allegro"
            },
            {
                  "distance": 189,
                  "location": {
                        "address": "2326 Modugno Rue",
                        "country": "CA",
                        "formatted_address": "2326 Modugno Rue, Saint-Laurent QC H4R 1W6",
                        "locality": "Saint-Laurent",
                        "postcode": "H4R 1W6",
                        "region": "QC"
                  },
                  "name": "Restaurant la Provincial"
            },
            {
                  "distance": 218,
                  "location": {
                        "address": "2150 Lucien-Thimens Rue",
                        "country": "CA",
                        "formatted_address": "2150 Lucien-Thimens Rue, Saint-Laurent QC H4R 1L1",
                        "locality": "Saint-Laurent",
                        "postcode": "H4R 1L1",
                        "region": "QC"
                  },
                  "name": "Euro-Nec Inc"
            },
            {
                  "distance": 287,
                  "location": {
                        "address": "2146 Lucien-Thimens Rue",
                        "country": "CA",
                        "formatted_address": "2146 Lucien-Thimens Rue, Saint-Laurent QC H4R 1L1",
                        "locality": "Saint-Laurent",
                        "postcode": "H4R 1L1",
                        "region": "QC"
                  },
                  "name": "Restaurant Noah"
            },
            {
                  "distance": 399,
                  "location": {
                        "address": "2385 Thimens Blvd",
                        "country": "CA",
                        "formatted_address": "2385 Thimens Blvd, Saint-Laurent QC H4R 1T4",
                        "locality": "Saint-Laurent",
                        "postcode": "H4R 1T4",
                        "region": "QC"
                  },
                  "name": "Unigertec Inc"
            },
            {
                  "distance": 547,
                  "location": {
                        "address": "1898 Thimens Blvd",
                        "country": "CA",
                        "formatted_address": "1898 Thimens Blvd, Saint-Laurent QC H4R 2K2",
                        "locality": "Saint-Laurent",
                        "postcode": "H4R 2K2",
                        "region": "QC"
                  },
                  "name": "R.W. Restaurant"
            },
            {
                  "distance": 569,
                  "location": {
                        "address": "3205 Blvd de la Cote-Vertu",
                        "country": "CA",
                        "formatted_address": "3205 Blvd de la Cote-Vertu, Saint-Laurent QC H4R 1Y5",
                        "locality": "Saint-Laurent",
                        "postcode": "H4R 1Y5",
                        "region": "QC"
                  },
                  "name": "Cafe Supreme"
            },
            {
                  "distance": 590,
                  "location": {
                        "address": "1300 Marcel Laurin Blvd",
                        "country": "CA",
                        "formatted_address": "1300 Marcel Laurin Blvd, Saint-Laurent QC H4R 1J9",
                        "locality": "Saint-Laurent",
                        "postcode": "H4R 1J9",
                        "region": "QC"
                  },
                  "name": "Harvey's",
                  "store_id": "4479"
            },
            {
                  "distance": 674,
                  "location": {
                        "address": "1555 Marcel Laurin",
                        "country": "CA",
                        "formatted_address": "1555 Marcel Laurin, Saint-Laurent QC H4R 0B7",
                        "locality": "Saint-Laurent",
                        "postcode": "H4R 0B7",
                        "region": "QC"
                  },
                  "name": "Second Cup Caf\u00e9"
            },
            {
                  "distance": 689,
                  "location": {
                        "address": "1110 Marcel-Laurin Blvd",
                        "country": "CA",
                        "formatted_address": "1110 Marcel-Laurin Blvd, Saint-Laurent QC H4R 1J7",
                        "locality": "Saint-Laurent",
                        "postcode": "H4R 1J7",
                        "region": "QC"
                  },
                  "name": "R\u00f4tisseries Au Coq"
            },
            {
                  "distance": 719,
                  "location": {
                        "address": "1134 Marcel-Laurin Blvd",
                        "country": "CA",
                        "formatted_address": "1134 Marcel-Laurin Blvd, Saint-Laurent QC H4R 1J7",
                        "locality": "Saint-Laurent",
                        "postcode": "H4R 1J7",
                        "region": "QC"
                  },
                  "name": "Ottavio"
            },
            {
                  "distance": 719,
                  "location": {
                        "address": "1142 Marcel-Laurin Blvd",
                        "country": "CA",
                        "formatted_address": "1142 Marcel-Laurin Blvd, Saint-Laurent QC H4R 1J7",
                        "locality": "Saint-Laurent",
                        "postcode": "H4R 1J7",
                        "region": "QC"
                  },
                  "name": "Dagwoods Sandwiches & Salades"
            },
            {
                  "distance": 747,
                  "location": {
                        "address": "2015 Marcel-Laurin Blvd",
                        "country": "CA",
                        "formatted_address": "2015 Marcel-Laurin Blvd, Saint-Laurent QC H4R 1K4",
                        "locality": "Saint-Laurent",
                        "postcode": "H4R 1K4",
                        "region": "QC"
                  },
                  "name": "Dagwoods"
            },
            {
                  "distance": 776,
                  "location": {
                        "address": "2275 Marcel-Laurin Blvd",
                        "country": "CA",
                        "formatted_address": "2275 Marcel-Laurin Blvd, Saint-Laurent QC H4R 1K4",
                        "locality": "Saint-Laurent",
                        "postcode": "H4R 1K4",
                        "region": "QC"
                  },
                  "name": "Rotisserie Ebal"
            },
            {
                  "distance": 782,
                  "location": {
                        "address": "1375 Grenet Rue",
                        "country": "CA",
                        "formatted_address": "1375 Grenet Rue, Saint-Laurent QC H4L 5K3",
                        "locality": "Saint-Laurent",
                        "postcode": "H4L 5K3",
                        "region": "QC"
                  },
                  "name": "Cafe Mauro"
            },
            {
                  "distance": 814,
                  "location": {
                        "address": "1146 Marcel-Laurin Blvd",
                        "country": "CA",
                        "formatted_address": "1146 Marcel-Laurin Blvd, Saint-Laurent QC H4R 1J7",
                        "locality": "Saint-Laurent",
                        "postcode": "H4R 1J7",
                        "region": "QC"
                  },
                  "name": "Palais du Poulet"
            }
      ],
      "context": {
            "geo_bounds": {
                  "circle": {
                        "center": {
                              "latitude": 45.50897852,
                              "longitude": -73.69856358
                        },
                        "radius": 1000
                  }
            }
      }
}