{
      "results": [
            {
                  "distance": 386,
                  "location": {
                        "address": "3632 Ontario Rue E",
                        "address_extended": "coin De Chambly",
                        "country": "CA",
                        "cross_street": "coin De Chambly",
                        "formatted_address": "3632 Ontario Rue E (coin De Chambly), Montr\u00e9al QC H1W 1R7",
                        "locality": "Montreal",
                        "postcode": "H1W 1R7",
                        "region": "QC"
                  },
                  "name": "L'Espace Public-Brasseurs de Quartier",
                  "popularity": 0.9611799772899319,
                  "price": 2,
                  "rating": 8.8
            },
            {
                  "distance": 618,
                  "location": {
                        "address": "4005 Ontario Rue E",
                        "country": "CA",
                        "cross_street": "",
                        "formatted_address": "4005 Ontario Rue E, Montr\u00e9al QC H1W 1T1",
                        "locality": "Montreal",
                        "postcode": "H1W 1T1",
                        "region": "QC"
                  },
                  "name": "\u00c9tat-Major",
                  "popularity": 0.9057295609386828,
                  "price": 2,
                  "rating": 8.7
            },
            {
                  "distance": 852,
                  "location": {
                        "address": "4255 Ontario Rue E",
                        "country": "CA",
                        "cross_street": "",
                        "formatted_address": "4255 Ontario Rue E, Montr\u00e9al QC H1V 1K4",
                        "locality": "Montreal",
                        "postcode": "H1V 1K4",
                        "region": "QC"
                  },
                  "name": "H\u00e9licopt\u00e8re",
                  "popularity": 0.910744700984103,
                  "price": 2,
                  "rating": 8.6
            },
            {
                  "distance": 390,
                  "location": {
                        "address": "3606 Ontario Rue E",
                        "country": "CA",
                        "cross_street": "entre Joliette & De Chambly",
                        "formatted_address": "3606 Ontario Rue E (entre Joliette & De Chambly), Montr\u00e9al QC H1W 1R7",
                        "locality": "Montreal",
                        "postcode": "H1W 1R7",
                        "region": "QC"
                  },
                  "name": "Atomic Cafe",
                  "popularity": 0.9511733535200606,
                  "price": 1,
                  "rating": 8.5
            },
            {
                  "distance": 962,
                  "location": {
                        "address": "4317 Ontario Rue E",
                        "country": "CA",
                        "cross_street": "Letourneux",
                        "formatted_address": "4317 Ontario Rue E (Letourneux), Montr\u00e9al QC H1V 1K5",
                        "locality": "Montreal",
                        "postcode": "H1V 1K5",
                        "region": "QC"
                  },
                  "name": "Les gourmandises de Marie-Antoinette",
                  "popularity": 0.9419828728236185,
                  "price": 2,
                  "rating": 8.3
            },
            {
                  "distance": 679,
                  "location": {
                        "address": "3974 Pierre de Coubertin Ave",
                        "country": "CA",
                        "cross_street": "",
                        "formatted_address": "3974 Pierre de Coubertin Ave, Montr\u00e9al QC H1W 1E7",
                        "locality": "Montreal",
                        "postcode": "H1W 1E7",
                        "region": "QC"
                  },
                  "name": "Fusion Express",
                  "popularity": 0.9321300151400455,
                  "price": 2,
                  "rating": 8.0
            },
            {
                  "distance": 471,
                  "location": {
                        "address": "3971 Hochelaga Rue",
                        "country": "CA",
                        "cross_street": "",
                        "formatted_address": "3971 Hochelaga Rue, Montr\u00e9al QC H1W 1K2",
                        "locality": "Montreal",
                        "postcode": "H1W 1K2",
                        "region": "QC"
                  },
                  "name": "Poutine Centrale",
                  "popularity": 0.9448807721423165,
                  "price": 2,
                  "rating": 7.9
            },
            {
                  "distance": 813,
                  "location": {
                        "address": "4223 Ontario Rue E",
                        "country": "CA",
                        "cross_street": "coin Desjardins",
                        "formatted_address": "4223 Ontario Rue E (coin Desjardins), Montr\u00e9al QC H1V 1K2",
                        "locality": "Montreal",
                        "postcode": "H1V 1K2",
                        "region": "QC"
                  },
                  "name": "New Casa de la Pizza",
                  "popularity": 0.8993660105980318,
                  "price": 1,
                  "rating": 7.4
            },
            {
                  "distance": 411,
                  "location": {
                        "address": "25 Simon Valois Pl",
                        "country": "CA",
                        "cross_street": "coin Ontario",
                        "formatted_address": "25 Simon Valois Pl (coin Ontario), Montr\u00e9al QC H1W 0A6",
                        "locality": "Montreal",
                        "postcode": "H1W 0A6",
                        "region": "QC"
                  },
                  "name": "Le Valois",
                  "popularity": 0.8502436601059803,
                  "price": 2,
                  "rating": 7.4
            },
            {
                  "distance": 497,
                  "location": {
                        "address": "3882 Ontario Rue E",
                        "country": "CA",
                        "cross_street": "",
                        "formatted_address": "3882 Ontario Rue E, Montr\u00e9al QC H1W 1S6",
                        "locality": "Montreal",
                        "postcode": "H1W 1S6",
                        "region": "QC"
                  },
                  "name": "Le Blind Pig",
                  "popularity": 0.9555379447388342,
                  "price": 1,
                  "rating": 7.3
            },
            {
                  "distance": 480,
                  "location": {
                        "address": "3860 Ontario Rue E",
                        "country": "CA",
                        "cross_street": "Bourbonni\u00e8re",
                        "formatted_address": "3860 Ontario Rue E (Bourbonni\u00e8re), Montr\u00e9al QC H1W 1S4",
                        "locality": "Montreal",
                        "postcode": "H1W 1S4",
                        "region": "QC"
                  },
                  "name": "Restaurant la Pataterie Inc",
                  "popularity": 0.9558573050719152,
                  "price": 1,
                  "rating": 7.3
            },
            {
                  "distance": 724,
                  "location": {
                        "address": "3121 Hochelaga Rue",
                        "country": "CA",
                        "cross_street": "",
                        "formatted_address": "3121 Hochelaga Rue, Montr\u00e9al QC H1W 1G3",
                        "locality": "Montreal",
                        "postcode": "H1W 1G3",
                        "region": "QC"
                  },
                  "name": "Maneki Comptoir Asiat'",
                  "popularity": 0.8695235616956851,
                  "price": 2,
                  "rating": 7.2
            },
            {
                  "distance": 886,
                  "location": {
                        "address": "3090 Sherbrooke Rue E",
                        "country": "CA",
                        "cross_street": "coin Moreau",
                        "formatted_address": "3090 Sherbrooke Rue E (coin Moreau), Montr\u00e9al QC H1W 1B5",
                        "locality": "Montreal",
                        "postcode": "H1W 1B5",
                        "region": "QC"
                  },
                  "name": "Deli Miami",
                  "popularity": 0.9861492240726722,
                  "price": 1,
                  "rating": 6.9
            },
            {
                  "distance": 805,
                  "location": {
                        "address": "3929 Sherbrooke Rue E",
                        "country": "CA",
                        "cross_street": "Orleans",
                        "formatted_address": "3929 Sherbrooke Rue E (Orleans), Montr\u00e9al QC H1X 3E3",
                        "locality": "Montreal",
                        "postcode": "H1X 3E3",
                        "region": "QC"
                  },
                  "name": "Restaurant la Belle Province",
                  "popularity": 0.9721091975775927,
                  "price": 1,
                  "rating": 6.3
            },
            {
                  "distance": 411,
                  "location": {
                        "address": "3501 Ontario Rue E",
                        "country": "CA",
                        "cross_street": "Aylwin",
                        "formatted_address": "3501 Ontario Rue E (Aylwin), Montr\u00e9al QC H1W 1R4",
                        "locality": "Montreal",
                        "postcode": "H1W 1R4",
                        "region": "QC"
                  },
                  "name": "Subway",
                  "popularity": 0.927008421650265,
                  "price": 1,
                  "rating": 6.2,
                  "store_id": "14811"
            },
            {
                  "distance": 732,
                  "location": {
                        "address": "3881 Sherbrooke Rue E",
                        "country": "CA",
                        "cross_street": "coin Av. Bourbonni\u00e8re",
                        "formatted_address": "3881 Sherbrooke Rue E (coin Av. Bourbonni\u00e8re), Montr\u00e9al QC H1X 2A5",
                        "locality": "Montreal",
                        "postcode": "H1X 2A5",
                        "region": "QC"
                  },
                  "name": "Tim Hortons",
                  "popularity": 0.9890116389099167,
                  "price": 1,
                  "rating": 6.2
            },
            {
                  "distance": 498,
                  "location": {
                        "address": "3905 Ontario Rue E",
                        "country": "CA",
                        "cross_street": "",
                        "formatted_address": "3905 Ontario Rue E, Montr\u00e9al QC H1W 1S7",
                        "locality": "Montreal",
                        "postcode": "H1W 1S7",
                        "region": "QC"
                  },
                  "name": "Burrito Revolucion",
                  "popularity": 0.5280800529901589,
                  "rating": 6.0
            },
            {
                  "distance": 612,
                  "location": {
                        "address": "3982 Ontario Rue E",
                        "country": "CA",
                        "formatted_address": "3982 Ontario Rue E, Montr\u00e9al QC H1W 1S9",
                        "locality": "Montreal",
                        "postcode": "H1W 1S9",
                        "region": "QC"
                  },
                  "name": "Gerry's Restaurant Delicatessen",
                  "popularity": 0.9548400832702498,
                  "price": 3,
                  "rating": 5.8
            },
            {
                  "distance": 403,
                  "location": {
                        "address": "3634 Ontario Rue E",
                        "country": "CA",
                        "cross_street": "coin Chambly",
                        "formatted_address": "3634 Ontario Rue E (coin Chambly), Montr\u00e9al QC H1W 1R7",
                        "locality": "Montreal",
                        "postcode": "H1W 1R7",
                        "region": "QC"
                  },
                  "name": "Tim Hortons",
                  "popularity": 0.958873485995458,
                  "price": 1,
                  "rating": 5.4
            },
            {
                  "distance": 378,
                  "location": {
                        "address": "5 Simon Valois Pl",
                        "country": "CA",
                        "cross_street": "Ontario",
                        "formatted_address": "5 Simon Valois Pl (Ontario), Montr\u00e9al QC H1W 0A6",
                        "locality": "Montreal",
                        "postcode": "H1W 0A6",
                        "region": "QC"
                  },
                  "name": "Bar Laitier",
                  "popularity": 0.4559637585162756,
                  "price": 1
            },
            {
                  "distance": 388,
                  "location": {
                        "address": "3739 Ontario Rue E",
                        "country": "CA",
                        "cross_street": "Nicolet",
                        "formatted_address": "3739 Ontario Rue E (Nicolet), Montr\u00e9al QC H1W 1S3",
                        "locality": "Montreal",
                        "postcode": "H1W 1S3",
                        "region": "QC"
                  },
                  "name": "Resto-Bar le Pick Up",
                  "popularity": 0.9295987887963664,
                  "price": 2
            },
            {
                  "distance": 401,
                  "location": {
                        "address": "3668 Ontario Rue E",
                        "country": "CA",
                        "cross_street": "",
                        "formatted_address": "3668 Ontario Rue E, Montr\u00e9al QC H1W 1R9",
                        "locality": "Montreal",
                        "postcode": "H1W 1R9",
                        "region": "QC"
                  },
                  "name": "Sabor Del Sur",
                  "popularity": 0.8754494700984103,
                  "price": 1
            },
            {
                  "distance": 460,
                  "location": {
                        "address": "3445 Ontario Rue E",
                        "country": "CA",
                        "formatted_address": "3445 Ontario Rue E, Montr\u00e9al QC H1W 1R1",
                        "locality": "Montreal",
                        "postcode": "H1W 1R1",
                        "region": "QC"
                  },
                  "name": "Pizza Piroz",
                  "popularity": 0.9594530658591975,
                  "price": 1
            },
            {
                  "distance": 477,
                  "location": {
                        "address": "3417 Ontario Rue E",
                        "country": "CA",
                        "cross_street": "",
                        "formatted_address": "3417 Ontario Rue E, Montr\u00e9al QC H1W 1R1",
                        "locality": "Montreal",
                        "postcode": "H1W 1R1",
                        "region": "QC"
                  },
                  "name": "Boustan",
                  "popularity": 0.9085683194549584,
                  "price": 2
            },
            {
                  "distance": 484,
                  "location": {
                        "address": "3905 Ontario Rue E",
                        "country": "CA",
                        "cross_street": "",
                        "formatted_address": "3905 Ontario Rue E, Montr\u00e9al QC H1W 1S7",
                        "locality": "Montreal",
                        "postcode": "H1W 1S7",
                        "region": "QC"
                  },
                  "name": "Pizza Fugazzi",
                  "popularity": 0.8975563020439061,
                  "price": 1
            },
            {
                  "distance": 529,
                  "location": {
                        "address": "3800 Sherbrooke Rue E",
                        "country": "CA",
                        "cross_street": "",
                        "formatted_address": "3800 Sherbrooke Rue E, Montr\u00e9al QC H1X 2A2",
                        "locality": "Montreal",
                        "postcode": "H1X 2A2",
                        "region": "QC"
                  },
                  "name": "Caf\u00e9 l'Escale",
                  "popularity": 0.9066403292959879,
                  "price": 1
            },
            {
                  "distance": 537,
                  "location": {
                        "address": "3350 Ontario Rue E",
                        "country": "CA",
                        "cross_street": "Davidson",
                        "formatted_address": "3350 Ontario Rue E (Davidson), Montr\u00e9al QC H1W 1P7",
                        "locality": "Montreal",
                        "postcode": "H1W 1P7",
                        "region": "QC"
                  },
                  "name": "El Jumelgi",
                  "popularity": 0.6334216502649508
            },
            {
                  "distance": 559,
                  "location": {
                        "address": "3328 Ontario Rue E",
                        "country": "CA",
                        "cross_street": "",
                        "formatted_address": "3328 Ontario Rue E, Montr\u00e9al QC H1W 1P7",
                        "locality": "Montreal",
                        "postcode": "H1W 1P7",
                        "region": "QC"
                  },
                  "name": "Blockhaus",
                  "popularity": 0.9533142505677517,
                  "price": 3
            },
            {
                  "distance": 568,
                  "location": {
                        "address": "3485 Ontario Rue E",
                        "country": "CA",
                        "cross_street": "",
                        "formatted_address": "3485 Ontario Rue E, Montr\u00e9al QC H1W 1R4",
                        "locality": "Montreal",
                        "postcode": "H1W 1R4",
                        "region": "QC"
                  },
                  "name": "La Canoise",
                  "popularity": 0.43404617713853144,
                  "price": 1
            },
            {
                  "distance": 581,
                  "location": {
                        "address": "3979 Ontario Rue E",
                        "country": "CA",
                        "cross_street": "",
                        "formatted_address": "3979 Ontario Rue E, Montr\u00e9al QC H1W 1T1",
                        "locality": "Montreal",
                        "postcode": "H1W 1T1",
                        "region": "QC"
                  },
                  "name": "\u00d4-Big",
                  "popularity": 0.2312523656320969,
                  "price": 1
            },
            {
                  "distance": 584,
                  "location": {
                        "address": "3979 Ontario Rue E",
                        "country": "CA",
                        "cross_street": "",
                        "formatted_address": "3979 Ontario Rue E, Montr\u00e9al QC H1W 1T1",
                        "locality": "Montreal",
                        "postcode": "H1W 1T1",
                        "region": "QC"
                  },
                  "name": "Pizzeria Bros",
                  "popularity": 0.892884178652536,
                  "price": 1
            },
            {
                  "distance": 591,
                  "location": {
                        "address": "2030 Pie-Ix Blvd",
                        "country": "CA",
                        "cross_street": "Ontario",
                        "formatted_address": "2030 Pie-Ix Blvd (Ontario), Montr\u00e9al QC H1V 2C8",
                        "locality": "Montreal",
                        "postcode": "H1V 2C8",
                        "region": "QC"
                  },
                  "name": "American Can Company Building",
                  "popularity": 0.9969838190764573
            },
            {
                  "distance": 634,
                  "location": {
                        "address": "3227 Ontario Rue E",
                        "country": "CA",
                        "cross_street": "",
                        "formatted_address": "3227 Ontario Rue E, Montr\u00e9al QC H1W 1P3",
                        "locality": "Montreal",
                        "postcode": "H1W 1P3",
                        "region": "QC"
                  },
                  "name": "3 Patapoufs",
                  "popularity": 0.961132664647994
            },
            {
                  "distance": 638,
                  "location": {
                        "address": "4045 Ontario Rue E",
                        "country": "CA",
                        "cross_street": "",
                        "formatted_address": "4045 Ontario Rue E, Montr\u00e9al QC H1W 1T3",
                        "locality": "Montreal",
                        "postcode": "H1W 1T3",
                        "region": "QC"
                  },
                  "name": "Wolfgang Social Club",
                  "popularity": 0.8224711392884179,
                  "price": 1
            },
            {
                  "distance": 667,
                  "location": {
                        "address": "3213 Ontario Rue E",
                        "country": "CA",
                        "cross_street": "",
                        "formatted_address": "3213 Ontario Rue E, Montr\u00e9al QC H1W 1P3",
                        "locality": "Montreal",
                        "postcode": "H1W 1P3",
                        "region": "QC"
                  },
                  "name": "Coop\u00e9rative Rond-Point, caf\u00e9 autog\u00e9r\u00e9",
                  "popularity": 0.7255275359576079,
                  "price": 1
            }
      ],
      "context": {
            "geo_bounds": {
                  "circle": {
                        "center": {
                              "latitude": 45.54710314,
                              "longitude": -73.54892448
                        },
                        "radius": 1000
                  }
            }
      }
}