{
      "results": [
            {
                  "distance": 934,
                  "location": {
                        "address": "1360 Rosemont Blvd",
                        "country": "CA",
                        "cross_street": "",
                        "formatted_address": "1360 Rosemont Blvd, Montr\u00e9al QC H2G 1V4",
                        "locality": "Montreal",
                        "postcode": "H2G 1V4",
                        "region": "QC"
                  },
                  "name": "Caf\u00e9 Dei Campi",
                  "popularity": 0.9428108440575321,
                  "price": 1,
                  "rating": 9.1
            },
            {
                  "distance": 960,
                  "location": {
                        "address": "1650 Laurier Ave E",
                        "country": "CA",
                        "cross_street": "Marquette",
                        "formatted_address": "1650 Laurier Ave E (Marquette), Montr\u00e9al QC H2J 1J2",
                        "locality": "Montreal",
                        "postcode": "H2J 1J2",
                        "region": "QC"
                  },
                  "name": "Sushi Tri Express",
                  "popularity": 0.8795656699470098,
                  "price": 2,
                  "rating": 8.5
            },
            {
                  "distance": 575,
                  "location": {
                        "address": "1995 Masson Rue",
                        "country": "CA",
                        "cross_street": "coin Bordeaux",
                        "formatted_address": "1995 Masson Rue (coin Bordeaux), Montr\u00e9al QC H2H 1A5",
                        "locality": "Montreal",
                        "postcode": "H2H 1A5",
                        "region": "QC"
                  },
                  "name": "L'Entre-Pots",
                  "popularity": 0.955679882664648,
                  "price": 1,
                  "rating": 8.5
            },
            {
                  "distance": 775,
                  "location": {
                        "address": "2350 Beaubien Rue E",
                        "country": "CA",
                        "cross_street": "Des \u00c9cores",
                        "formatted_address": "2350 Beaubien Rue E (Des \u00c9cores), Montr\u00e9al QC H2G 1N2",
                        "locality": "Montreal",
                        "postcode": "H2G 1N2",
                        "region": "QC"
                  },
                  "name": "L'Affaire est Chocolat",
                  "popularity": 0.8962078917486752,
                  "price": 1,
                  "rating": 8.4
            },
            {
                  "distance": 278,
                  "location": {
                        "address": "2440 Rosemont Blvd",
                        "country": "CA",
                        "cross_street": "",
                        "formatted_address": "2440 Rosemont Blvd, Montr\u00e9al QC H2G 1V2",
                        "locality": "Montreal",
                        "postcode": "H2G 1V2",
                        "region": "QC"
                  },
                  "name": "Pub Rosemont",
                  "popularity": 0.9464539174867524,
                  "price": 3,
                  "rating": 8.2
            },
            {
                  "distance": 883,
                  "location": {
                        "address": "1898 Beaubien Rue E",
                        "country": "CA",
                        "cross_street": "Chabot",
                        "formatted_address": "1898 Beaubien Rue E (Chabot), Montr\u00e9al QC H2G 1L9",
                        "locality": "Montreal",
                        "postcode": "H2G 1L9",
                        "region": "QC"
                  },
                  "name": "Sushi Itamea",
                  "popularity": 0.9421366389099167,
                  "price": 2,
                  "rating": 8.0
            },
            {
                  "distance": 779,
                  "location": {
                        "address": "2355 Beaubien Rue E",
                        "country": "CA",
                        "formatted_address": "2355 Beaubien Rue E, Montr\u00e9al QC H2G 1N3",
                        "locality": "Montreal",
                        "postcode": "H2G 1N3",
                        "region": "QC"
                  },
                  "name": "Froment et de S\u00e8ve",
                  "popularity": 0.9245008516275549,
                  "price": 1,
                  "rating": 7.8
            },
            {
                  "distance": 784,
                  "location": {
                        "address": "6505 des Ecores Rue",
                        "country": "CA",
                        "cross_street": "Beaubien Est",
                        "formatted_address": "6505 des Ecores Rue (Beaubien Est), Montr\u00e9al QC H2G 2J8",
                        "locality": "Montreal",
                        "postcode": "H2G 2J8",
                        "region": "QC"
                  },
                  "name": "Randolph Pub Ludique",
                  "popularity": 0.9249148372445117,
                  "price": 1,
                  "rating": 7.8
            },
            {
                  "distance": 781,
                  "location": {
                        "address": "2224 Beaubien Rue E",
                        "country": "CA",
                        "formatted_address": "2224 Beaubien Rue E, Montr\u00e9al QC H2G 1M7",
                        "locality": "Montreal",
                        "postcode": "H2G 1M7",
                        "region": "QC"
                  },
                  "name": "Marconi Pizzeria",
                  "popularity": 0.8903529523088569,
                  "price": 1,
                  "rating": 7.7
            },
            {
                  "distance": 650,
                  "location": {
                        "address": "2618 Masson Rue",
                        "country": "CA",
                        "cross_street": "",
                        "formatted_address": "2618 Masson Rue, Montr\u00e9al QC H1Y 3E5",
                        "locality": "Montreal",
                        "postcode": "H1Y 3E5",
                        "region": "QC"
                  },
                  "name": "La Cr\u00e9mi\u00e8re",
                  "popularity": 0.8805474072672218,
                  "price": 1,
                  "rating": 7.7
            },
            {
                  "distance": 779,
                  "location": {
                        "address": "2316 Beaubien Rue E",
                        "country": "CA",
                        "cross_street": "Louis-H\u00e9mon",
                        "formatted_address": "2316 Beaubien Rue E (Louis-H\u00e9mon), Montr\u00e9al QC H2G 1M9",
                        "locality": "Montreal",
                        "postcode": "H2G 1M9",
                        "region": "QC"
                  },
                  "name": "Bistro Chez Roger",
                  "popularity": 0.9417817940953823,
                  "price": 2,
                  "rating": 7.7
            },
            {
                  "distance": 733,
                  "location": {
                        "address": "5368 Papineau Ave",
                        "country": "CA",
                        "cross_street": "",
                        "formatted_address": "5368 Papineau Ave, Montr\u00e9al QC H2H 1W2",
                        "locality": "Montreal",
                        "postcode": "H2H 1W2",
                        "region": "QC"
                  },
                  "name": "Caf\u00e9 Orr",
                  "popularity": 0.9599853330809992,
                  "price": 1,
                  "rating": 7.6
            },
            {
                  "distance": 797,
                  "location": {
                        "address": "2500 Beaubien Rue E",
                        "country": "CA",
                        "cross_street": "coin d'Iberville",
                        "formatted_address": "2500 Beaubien Rue E (coin d'Iberville), Montr\u00e9al QC H1Y 1G2",
                        "locality": "Montreal",
                        "postcode": "H1Y 1G2",
                        "region": "QC"
                  },
                  "name": "Resto la Grand-M\u00e8re Poule",
                  "popularity": 0.9470926381529144,
                  "price": 1,
                  "rating": 7.6
            },
            {
                  "distance": 929,
                  "location": {
                        "address": "3001 Masson Rue",
                        "country": "CA",
                        "formatted_address": "3001 Masson Rue, Montr\u00e9al QC H1Y 1X7",
                        "locality": "Montreal",
                        "postcode": "H1Y 1X7",
                        "region": "QC"
                  },
                  "name": "Boulangerie Premi\u00e8re Moisson",
                  "popularity": 0.8898206850870553,
                  "price": 1,
                  "rating": 7.4
            },
            {
                  "distance": 939,
                  "location": {
                        "address": "3014 Masson Rue",
                        "country": "CA",
                        "cross_street": "coin 7e avenue",
                        "formatted_address": "3014 Masson Rue (coin 7e avenue), Montr\u00e9al QC H1Y 1X6",
                        "locality": "Montreal",
                        "postcode": "H1Y 1X6",
                        "region": "QC"
                  },
                  "name": "Chez Baptiste Sur Masson",
                  "popularity": 0.9593347842543528,
                  "price": 2,
                  "rating": 7.3
            },
            {
                  "distance": 796,
                  "location": {
                        "address": "2200 Beaubien Rue E",
                        "country": "CA",
                        "cross_street": "At Des Erables",
                        "formatted_address": "2200 Beaubien Rue E (At Des Erables), Montr\u00e9al QC H2G 1M7",
                        "locality": "Montreal",
                        "postcode": "H2G 1M7",
                        "region": "QC"
                  },
                  "name": "Nouveau Canada",
                  "popularity": 0.9369677327781983,
                  "price": 1,
                  "rating": 7.1
            },
            {
                  "distance": 867,
                  "location": {
                        "address": "1991 Beaubien Rue E",
                        "country": "CA",
                        "cross_street": "Bordeaux",
                        "formatted_address": "1991 Beaubien Rue E (Bordeaux), Montr\u00e9al QC H2G 1M2",
                        "locality": "Montreal",
                        "postcode": "H2G 1M2",
                        "region": "QC"
                  },
                  "name": "Caf\u00e9 l'\u00c9tincelle",
                  "popularity": 0.9640660484481454,
                  "price": 1,
                  "rating": 6.9
            },
            {
                  "distance": 259,
                  "location": {
                        "address": "2460 Dandurand Rue",
                        "country": "CA",
                        "formatted_address": "2460 Dandurand Rue, Montr\u00e9al QC H2G 2A3",
                        "locality": "Montreal",
                        "postcode": "H2G 2A3",
                        "region": "QC"
                  },
                  "name": "Tim Hortons",
                  "popularity": 0.9830857305071915,
                  "price": 1,
                  "rating": 6.5
            },
            {
                  "distance": 1141,
                  "location": {
                        "address": "5228 d'Iberville Rue",
                        "country": "CA",
                        "cross_street": "coin Masson",
                        "formatted_address": "5228 d'Iberville Rue (coin Masson), Montr\u00e9al QC H2G 2A8",
                        "locality": "Montreal",
                        "postcode": "H2G 2A8",
                        "region": "QC"
                  },
                  "name": "Bar Sel et Poivre",
                  "popularity": 0.9735758894776685,
                  "rating": 5.9
            },
            {
                  "distance": 528,
                  "location": {
                        "address": "2530 Masson Rue",
                        "country": "CA",
                        "cross_street": "coin Iberville",
                        "formatted_address": "2530 Masson Rue (coin Iberville), Montr\u00e9al QC H1Y 1V8",
                        "locality": "Montreal",
                        "postcode": "H1Y 1V8",
                        "region": "QC"
                  },
                  "name": "McDonald's",
                  "popularity": 0.9850965177895533,
                  "price": 1,
                  "rating": 5.1,
                  "store_id": "5336"
            },
            {
                  "distance": 379,
                  "location": {
                        "address": "5885 Papineau Ave",
                        "country": "CA",
                        "cross_street": "De Lorimier",
                        "formatted_address": "5885 Papineau Ave (De Lorimier), Montr\u00e9al QC H2G 2W5",
                        "locality": "Montreal",
                        "postcode": "H2G 2W5",
                        "region": "QC"
                  },
                  "name": "Grozepa Brasserie Urbaine",
                  "popularity": 0.969708080999243,
                  "price": 2
            },
            {
                  "distance": 391,
                  "location": {
                        "address": "5500 Fullum Rue",
                        "address_extended": "Suite 105",
                        "country": "CA",
                        "cross_street": "",
                        "formatted_address": "5500 Fullum Rue, Montr\u00e9al QC H2G 2H3",
                        "locality": "Montreal",
                        "postcode": "H2G 2H3",
                        "region": "QC"
                  },
                  "name": "Kittel Compagnie de Caf\u00e9",
                  "popularity": 0.044816900075700224,
                  "price": 1
            },
            {
                  "distance": 474,
                  "location": {
                        "address": "5416 d'Iberville Rue",
                        "country": "CA",
                        "cross_street": "Masson",
                        "formatted_address": "5416 d'Iberville Rue (Masson), Montr\u00e9al QC",
                        "locality": "Montreal",
                        "region": "QC"
                  },
                  "name": "Kool Cafe Inc",
                  "popularity": 0.15313919379258137,
                  "price": 2
            },
            {
                  "distance": 515,
                  "location": {
                        "address": "5477 Chabot Rue",
                        "country": "CA",
                        "cross_street": "",
                        "formatted_address": "5477 Chabot Rue, Montr\u00e9al QC H2H 1Z1",
                        "locality": "Montreal",
                        "postcode": "H2H 1Z1",
                        "region": "QC"
                  },
                  "name": "Maison Chabot",
                  "popularity": 0.9506765707797123,
                  "price": 1
            },
            {
                  "distance": 572,
                  "location": {
                        "address": "2581 Masson Rue",
                        "country": "CA",
                        "cross_street": "1\u00e8re avenue",
                        "formatted_address": "2581 Masson Rue (1\u00e8re avenue), Montr\u00e9al QC H1Y 1V7",
                        "locality": "Montreal",
                        "postcode": "H1Y 1V7",
                        "region": "QC"
                  },
                  "name": "Bar Chez Tzina",
                  "popularity": 0.9494227857683573,
                  "price": 1
            },
            {
                  "distance": 624,
                  "location": {
                        "address": "2609 Masson Rue",
                        "country": "CA",
                        "cross_street": "",
                        "formatted_address": "2609 Masson Rue, Montreal QC H1Y 1W1",
                        "locality": "Montreal",
                        "postcode": "H1Y 1W1",
                        "region": "QC"
                  },
                  "name": "Broue Bar Gasp\u00e9",
                  "popularity": 0.06894634746404239,
                  "price": 2
            },
            {
                  "distance": 785,
                  "location": {
                        "address": "2040 Beaubien Rue E",
                        "country": "CA",
                        "cross_street": "",
                        "formatted_address": "2040 Beaubien Rue E, Montr\u00e9al QC H2G 1M4",
                        "locality": "Montreal",
                        "postcode": "H2G 1M4",
                        "region": "QC"
                  },
                  "name": "Calaveras",
                  "popularity": 0.9169071725965178,
                  "price": 1
            },
            {
                  "distance": 806,
                  "location": {
                        "address": "2522 Beaubien Rue E",
                        "country": "CA",
                        "cross_street": "Rue d'Iberville",
                        "formatted_address": "2522 Beaubien Rue E (Rue d'Iberville), Montr\u00e9al QC H1Y 1G2",
                        "locality": "Montreal",
                        "postcode": "H1Y 1G2",
                        "region": "QC"
                  },
                  "name": "La Brass\u00e9e",
                  "popularity": 0.9355483535200606,
                  "price": 1
            },
            {
                  "distance": 833,
                  "location": {
                        "address": "2874 Masson Rue",
                        "country": "CA",
                        "cross_street": "",
                        "formatted_address": "2874 Masson Rue, Montr\u00e9al QC H1Y 1W9",
                        "locality": "Montreal",
                        "postcode": "H1Y 1W9",
                        "region": "QC"
                  },
                  "name": "Le Pok\u00e9 Station",
                  "popularity": 0.8739236373959122
            },
            {
                  "distance": 860,
                  "location": {
                        "address": "2055 Laurier Ave E",
                        "country": "CA",
                        "cross_street": "De Lorimier",
                        "formatted_address": "2055 Laurier Ave E (De Lorimier), Montr\u00e9al QC H2H 1B8",
                        "locality": "Montreal",
                        "postcode": "H2H 1B8",
                        "region": "QC"
                  },
                  "name": "Dans la Gueule du Loup",
                  "popularity": 0.9511615253595761,
                  "price": 1
            },
            {
                  "distance": 900,
                  "location": {
                        "address": "5161 Papineau Ave",
                        "country": "CA",
                        "cross_street": "",
                        "formatted_address": "5161 Papineau Ave, Montr\u00e9al QC H2H 1W1",
                        "locality": "Montreal",
                        "postcode": "H2H 1W1",
                        "region": "QC"
                  },
                  "name": "Chez Tomio",
                  "popularity": 0.8303723504920515,
                  "price": 2
            },
            {
                  "distance": 902,
                  "location": {
                        "address": "2931 Masson Rue",
                        "country": "CA",
                        "cross_street": "",
                        "formatted_address": "2931 Masson Rue, Montr\u00e9al QC H1Y 1X5",
                        "locality": "Montreal",
                        "postcode": "H1Y 1X5",
                        "region": "QC"
                  },
                  "name": "Elvita's Latin Fusion Cuisine",
                  "popularity": 0.9454721801665406,
                  "price": 2
            },
            {
                  "distance": 924,
                  "location": {
                        "address": "1815 Laurier Ave E",
                        "country": "CA",
                        "cross_street": "",
                        "formatted_address": "1815 Laurier Ave E, Montr\u00e9al QC H2H 1B3",
                        "locality": "Montreal",
                        "postcode": "H2H 1B3",
                        "region": "QC"
                  },
                  "name": "Bistro 1815",
                  "popularity": 0.8681514950794852,
                  "price": 2
            },
            {
                  "distance": 956,
                  "location": {
                        "address": "6442 Papineau Ave",
                        "country": "CA",
                        "cross_street": "Beaubien",
                        "formatted_address": "6442 Papineau Ave (Beaubien), Montr\u00e9al QC H2G 2W9",
                        "locality": "Montreal",
                        "postcode": "H2G 2W9",
                        "region": "QC"
                  },
                  "name": "Bar Paspebiac",
                  "popularity": 0.8786549015897047,
                  "price": 2
            },
            {
                  "distance": 1295,
                  "location": {
                        "address": "2862 Rosemont Blvd",
                        "country": "CA",
                        "cross_street": "5e Avenue",
                        "formatted_address": "2862 Rosemont Blvd (5e Avenue), Montr\u00e9al QC H1Y 1L7",
                        "locality": "Montreal",
                        "postcode": "H1Y 1L7",
                        "region": "QC"
                  },
                  "name": "O Fuzion",
                  "popularity": 0.09026069265707796,
                  "price": 2
            }
      ],
      "context": {
            "geo_bounds": {
                  "circle": {
                        "center": {
                              "latitude": 45.54391953,
                              "longitude": -73.58424895
                        },
                        "radius": 1000
                  }
            }
      }
}