{
      "results": [
            {
                  "distance": 945,
                  "location": {
                        "address": "120 Charles Lemoyne Pl",
                        "country": "CA",
                        "formatted_address": "120 Charles Lemoyne Pl, Longueuil QC J4K 2T4",
                        "locality": "Longueuil",
                        "postcode": "J4K 2T4",
                        "region": "QC"
                  },
                  "name": "Pizza Heure de Pointe",
                  "popularity": 0.9833912124414917,
                  "price": 1,
                  "rating": 8.2
            },
            {
                  "distance": 946,
                  "location": {
                        "address": "120 Charles-Le Moyne Pl",
                        "country": "CA",
                        "cross_street": "",
                        "formatted_address": "120 Charles-Le Moyne Pl, Longueuil QC J4K 2T4",
                        "locality": "Longueuil",
                        "postcode": "J4K 2T4",
                        "region": "QC"
                  },
                  "name": "A&W Restaurant",
                  "popularity": 0.8404046504605164,
                  "price": 1,
                  "rating": 6.8,
                  "store_id": "5546"
            },
            {
                  "distance": 994,
                  "location": {
                        "address": "150 Charles-Le Moyne Pl",
                        "address_extended": "Universit\u00e9 de Sherbrooke",
                        "country": "CA",
                        "cross_street": "",
                        "formatted_address": "150 Charles-Le Moyne Pl, Longueuil QC J4K 0A8",
                        "locality": "Longueuil",
                        "postcode": "J4K 0A8",
                        "region": "QC"
                  },
                  "name": "Thai Express",
                  "popularity": 0.8926468367809149,
                  "price": 2,
                  "rating": 6.6,
                  "store_id": "101"
            },
            {
                  "distance": 590,
                  "location": {
                        "address": "1485 St Charles St O",
                        "country": "CA",
                        "cross_street": "",
                        "formatted_address": "1485 St Charles St O, Longueuil QC J4K 1A7",
                        "locality": "Longueuil",
                        "postcode": "J4K 1A7",
                        "region": "QC"
                  },
                  "name": "Subway",
                  "popularity": 0.8847954099350748,
                  "price": 1,
                  "rating": 6.5,
                  "store_id": "48116"
            },
            {
                  "distance": 872,
                  "location": {
                        "address": "120 Charles Lemoyne Pl",
                        "address_extended": "Couche-Tard C-Store",
                        "country": "CA",
                        "cross_street": "",
                        "formatted_address": "120 Charles Lemoyne Pl, Longueuil QC J4K 2T4",
                        "locality": "Longueuil",
                        "postcode": "J4K 2T4",
                        "region": "QC"
                  },
                  "name": "Subway",
                  "popularity": 0.983693190397101,
                  "price": 1,
                  "rating": 6.3,
                  "store_id": "25662"
            },
            {
                  "distance": 958,
                  "location": {
                        "address": "120 Charles-Le Moyne Pl",
                        "address_extended": "Suite 400",
                        "country": "CA",
                        "formatted_address": "120 Charles-Le Moyne Pl, Longueuil QC J4K 2T4",
                        "locality": "Longueuil",
                        "postcode": "J4K 2T4",
                        "region": "QC"
                  },
                  "name": "Tim Hortons",
                  "popularity": 0.9859580250641703,
                  "price": 1,
                  "rating": 6.0
            },
            {
                  "distance": 6389,
                  "location": {
                        "address": "208 Monde des Petits la Ronde Ile",
                        "country": "CA",
                        "cross_street": "Beaumont",
                        "formatted_address": "208 Monde des Petits la Ronde Ile (Beaumont), Montr\u00e9al QC H3C 1A9",
                        "locality": "Montreal",
                        "postcode": "H3C 1A9",
                        "region": "QC"
                  },
                  "name": "McDonald's",
                  "popularity": 0.9483819076457229,
                  "price": 1,
                  "rating": 5.8
            },
            {
                  "distance": 971,
                  "location": {
                        "address": "100 Charles-Le Moyne Pl",
                        "address_extended": "Bureau 109",
                        "country": "CA",
                        "cross_street": "Station Longueil\u2014Universit\u00e9-de-Sherbrooke",
                        "formatted_address": "100 Charles-Le Moyne Pl (Station Longueil\u2014Universit\u00e9-de-Sherbrooke), Longueuil QC J4K 2T4",
                        "locality": "Longueuil",
                        "postcode": "J4K 2T4",
                        "region": "QC"
                  },
                  "name": "McDonald's",
                  "popularity": 0.8348180582817454,
                  "price": 1,
                  "rating": 5.2
            },
            {
                  "distance": 415,
                  "location": {
                        "address": "200 Ch du Tour-de-d'\u00eesle",
                        "country": "CA",
                        "cross_street": "",
                        "formatted_address": "200 Ch du Tour-de-d'\u00eesle, Montr\u00e9al QC H3C 4G8",
                        "locality": "Montreal",
                        "postcode": "H3C 4G8",
                        "region": "QC"
                  },
                  "name": "Restaurant H\u00e9l\u00e8ne de Champlain",
                  "popularity": 0.840852100681302,
                  "price": 2
            },
            {
                  "distance": 777,
                  "location": {
                        "address": "22 MacDonald Ch",
                        "country": "CA",
                        "cross_street": "",
                        "formatted_address": "22 MacDonald Ch, Montr\u00e9al QC H3C 6A3",
                        "locality": "Montreal",
                        "postcode": "H3C 6A3",
                        "region": "QC"
                  },
                  "name": "Le Ste-Helene",
                  "popularity": 0.8294142694928085
            },
            {
                  "distance": 848,
                  "location": {
                        "address": "1225 Saint Charles Rue O",
                        "address_extended": "Tour SSQ",
                        "country": "CA",
                        "cross_street": "",
                        "formatted_address": "1225 Saint Charles Rue O, Longueuil QC J4K 1A7",
                        "locality": "Longueuil",
                        "postcode": "J4K 1A7",
                        "region": "QC"
                  },
                  "name": "Caf\u00e9 D\u00e9p\u00f4t",
                  "popularity": 0.9174090291408727,
                  "price": 1
            },
            {
                  "distance": 926,
                  "location": {
                        "address": "120 Charles-Lemoyne Pl",
                        "address_extended": "Suite 500",
                        "country": "CA",
                        "cross_street": "",
                        "formatted_address": "120 Charles-Lemoyne Pl, Longueuil QC J4K 2T4",
                        "locality": "Longueuil",
                        "postcode": "J4K 2T4",
                        "region": "QC"
                  },
                  "name": "Sushi Shop",
                  "popularity": 0.8648648648648649,
                  "price": 2
            },
            {
                  "distance": 944,
                  "location": {
                        "address": "100 Charles Lemoyne Pl",
                        "country": "CA",
                        "formatted_address": "100 Charles Lemoyne Pl, Longueuil QC J4K 2T4",
                        "locality": "Longueuil",
                        "postcode": "J4K 2T4",
                        "region": "QC"
                  },
                  "name": "McCaf\u00e9",
                  "popularity": 0.851275856862449,
                  "price": 1
            },
            {
                  "distance": 950,
                  "location": {
                        "address": "262 Laronde Ile",
                        "country": "CA",
                        "cross_street": "",
                        "formatted_address": "262 Laronde Ile, Montr\u00e9al QC H3C 6A3",
                        "locality": "Montreal",
                        "postcode": "H3C 6A3",
                        "region": "QC"
                  },
                  "name": "Subway",
                  "popularity": 0.8447553936411809,
                  "price": 1,
                  "store_id": "19723"
            },
            {
                  "distance": 958,
                  "location": {
                        "address": "22 MacDonald Ch",
                        "country": "CA",
                        "cross_street": "La Ronde",
                        "formatted_address": "22 MacDonald Ch (La Ronde), Montr\u00e9al QC H3C 6A3",
                        "locality": "Montreal",
                        "postcode": "H3C 6A3",
                        "region": "QC"
                  },
                  "name": "Queues de Castor",
                  "popularity": 0.20269918622255867,
                  "price": 1
            },
            {
                  "distance": 966,
                  "location": {
                        "address": "22 MacDonald Ch",
                        "country": "CA",
                        "cross_street": "",
                        "formatted_address": "22 MacDonald Ch, Montr\u00e9al QC H3C 6A3",
                        "locality": "Montreal",
                        "postcode": "H3C 6A3",
                        "region": "QC"
                  },
                  "name": "Moozoo",
                  "popularity": 0.25590225208175627,
                  "price": 1
            },
            {
                  "distance": 971,
                  "location": {
                        "address": "1175 Saint Charles Rue O",
                        "country": "CA",
                        "cross_street": "",
                        "formatted_address": "1175 Saint Charles Rue O, Longueuil QC",
                        "locality": "Longueuil",
                        "region": "QC"
                  },
                  "name": "Salade Imagination",
                  "popularity": 0.9521364940359354,
                  "price": 1
            },
            {
                  "distance": 972,
                  "location": {
                        "address": "100 Charles-Lemoyne Pl",
                        "country": "CA",
                        "cross_street": "",
                        "formatted_address": "100 Charles-Lemoyne Pl, Longueuil QC J4K 2T4",
                        "locality": "Longueuil",
                        "postcode": "J4K 2T4",
                        "region": "QC"
                  },
                  "name": "Caf\u00e9 Bistro Borga",
                  "popularity": 0.8606371734863355,
                  "price": 2
            },
            {
                  "distance": 995,
                  "location": {
                        "address": "100 Charles le Moyne Pl",
                        "address_extended": "# 111",
                        "country": "CA",
                        "cross_street": "",
                        "formatted_address": "100 Charles le Moyne Pl, Longueuil QC J4K 2T4",
                        "locality": "Longueuil",
                        "postcode": "J4K 2T4",
                        "region": "QC"
                  },
                  "name": "Charcuteries Tete de Lard",
                  "popularity": 0.834214102370527,
                  "price": 1
            },
            {
                  "distance": 359,
                  "location": {
                        "address": "124 Ch du Chenal le Moyne",
                        "country": "CA",
                        "formatted_address": "124 Ch du Chenal le Moyne, Montreal QC H3C 6J6",
                        "locality": "Montreal",
                        "postcode": "H3C 6J6",
                        "region": "QC"
                  },
                  "name": "Festin du Gouverneur"
            },
            {
                  "distance": 578,
                  "location": {
                        "address": "1435 Saint-Charles Rue O",
                        "country": "CA",
                        "formatted_address": "1435 Saint-Charles Rue O, Longueuil QC J4K 1A7",
                        "locality": "Longueuil",
                        "postcode": "J4K 1A7",
                        "region": "QC"
                  },
                  "name": "Chellos Restaurant"
            },
            {
                  "distance": 579,
                  "location": {
                        "address": "22 MacDonald Ch",
                        "country": "CA",
                        "formatted_address": "22 MacDonald Ch, Montreal QC H3C 6A3",
                        "locality": "Montreal",
                        "postcode": "H3C 6A3",
                        "region": "QC"
                  },
                  "name": "Valentine"
            },
            {
                  "distance": 597,
                  "location": {
                        "address": "1485 St-Charles Rue O",
                        "country": "CA",
                        "formatted_address": "1485 St-Charles Rue O, Longueuil QC J4K 1A7",
                        "locality": "Longueuil",
                        "postcode": "J4K 1A7",
                        "region": "QC"
                  },
                  "name": "Subway St-Charles"
            },
            {
                  "distance": 770,
                  "location": {
                        "address": "22 MacDonald Ch",
                        "country": "CA",
                        "formatted_address": "22 MacDonald Ch, Montreal QC H3C 6A3",
                        "locality": "Montreal",
                        "postcode": "H3C 6A3",
                        "region": "QC"
                  },
                  "name": "Parc Six Flags Montr\u00e9al Inc"
            },
            {
                  "distance": 793,
                  "location": {
                        "address": "1010 rue de S\u00e9rigny",
                        "country": "CA",
                        "formatted_address": "1010 rue de S\u00e9rigny, Longueuil QC J4K 5G7",
                        "locality": "Longueuil",
                        "postcode": "J4K 5G7",
                        "region": "QC"
                  },
                  "name": "Van Houtte"
            },
            {
                  "distance": 815,
                  "location": {
                        "address": "22 MacDonald Ch",
                        "address_extended": "Ile Sainte-Helene La Ronde Amusement Park",
                        "country": "CA",
                        "formatted_address": "22 MacDonald Ch, Montreal QC H3C 6A3",
                        "locality": "Montreal",
                        "postcode": "H3C 6A3",
                        "region": "QC"
                  },
                  "name": "Subway",
                  "store_id": "Restaurant #19723"
            },
            {
                  "distance": 815,
                  "location": {
                        "address": "22 MacDonald Rd Ile Sainte Helene",
                        "country": "CA",
                        "formatted_address": "22 MacDonald Rd Ile Sainte Helene, Montreal QC H3C 6A3",
                        "locality": "Montreal",
                        "postcode": "H3C 6A3",
                        "region": "QC"
                  },
                  "name": "Subway",
                  "store_id": "19723"
            },
            {
                  "distance": 842,
                  "location": {
                        "address": "1001 Rue de Serigny",
                        "country": "CA",
                        "formatted_address": "1001 Rue de Serigny, Longueuil QC J4K 1A2",
                        "locality": "Longueuil",
                        "postcode": "J4K 1A2",
                        "region": "QC"
                  },
                  "name": "Terminus Longueuil"
            },
            {
                  "distance": 937,
                  "location": {
                        "address": "120 Charles-Le Moyne Pl",
                        "country": "CA",
                        "formatted_address": "120 Charles-Le Moyne Pl, Longueuil QC J4K 2T4",
                        "locality": "Longueuil",
                        "postcode": "J4K 2T4",
                        "region": "QC"
                  },
                  "name": "Plein Jus Inc"
            },
            {
                  "distance": 988,
                  "location": {
                        "address": "1 Longueuil Pl",
                        "country": "CA",
                        "formatted_address": "1 Longueuil Pl, Longueuil QC J4K 2V1",
                        "locality": "Longueuil",
                        "postcode": "J4K 2V1",
                        "region": "QC"
                  },
                  "name": "Restaurant St-Laurent"
            },
            {
                  "distance": 995,
                  "location": {
                        "address": "100 Charles-Le Moyne Pl",
                        "address_extended": "# 110",
                        "country": "CA",
                        "formatted_address": "100 Charles-Le Moyne Pl, Longueuil QC J4K 2T4",
                        "locality": "Longueuil",
                        "postcode": "J4K 2T4",
                        "region": "QC"
                  },
                  "name": "Cafe Bistro Bogar"
            },
            {
                  "distance": 998,
                  "location": {
                        "address": "120 Charles-Le Moyne Pl",
                        "country": "CA",
                        "formatted_address": "120 Charles-Le Moyne Pl, Longueuil QC J4K 2T4",
                        "locality": "Longueuil",
                        "postcode": "J4K 2T4",
                        "region": "QC"
                  },
                  "name": "Chinto Shop"
            },
            {
                  "distance": 998,
                  "location": {
                        "address": "120 Charles-Le Moyne Pl",
                        "country": "CA",
                        "formatted_address": "120 Charles-Le Moyne Pl, Longueuil QC J4K 2T4",
                        "locality": "Longueuil",
                        "postcode": "J4K 2T4",
                        "region": "QC"
                  },
                  "name": "9245-1673 Qu\u00e9bec Inc"
            }
      ],
      "context": {
            "geo_bounds": {
                  "circle": {
                        "center": {
                              "latitude": 45.51690251,
                              "longitude": -73.52724552
                        },
                        "radius": 1000
                  }
            }
      }
}