{
      "results": [
            {
                  "distance": 781,
                  "location": {
                        "address": "3353 Masson Rue",
                        "country": "CA",
                        "cross_street": "",
                        "formatted_address": "3353 Masson Rue, Montr\u00e9al QC H1X 1R5",
                        "locality": "Montreal",
                        "postcode": "H1X 1R5",
                        "region": "QC"
                  },
                  "name": "Maesmi",
                  "popularity": 0.9623154806964421,
                  "price": 1,
                  "rating": 8.9
            },
            {
                  "distance": 881,
                  "location": {
                        "address": "2350 Beaubien Rue E",
                        "country": "CA",
                        "cross_street": "Des \u00c9cores",
                        "formatted_address": "2350 Beaubien Rue E (Des \u00c9cores), Montr\u00e9al QC H2G 1N2",
                        "locality": "Montreal",
                        "postcode": "H2G 1N2",
                        "region": "QC"
                  },
                  "name": "L'Affaire est Chocolat",
                  "popularity": 0.8962078917486752,
                  "price": 1,
                  "rating": 8.4
            },
            {
                  "distance": 478,
                  "location": {
                        "address": "2440 Rosemont Blvd",
                        "country": "CA",
                        "cross_street": "",
                        "formatted_address": "2440 Rosemont Blvd, Montr\u00e9al QC H2G 1V2",
                        "locality": "Montreal",
                        "postcode": "H2G 1V2",
                        "region": "QC"
                  },
                  "name": "Pub Rosemont",
                  "popularity": 0.9464539174867524,
                  "price": 3,
                  "rating": 8.2
            },
            {
                  "distance": 663,
                  "location": {
                        "address": "3188 Masson Rue",
                        "country": "CA",
                        "cross_street": "coin 10e avenue",
                        "formatted_address": "3188 Masson Rue (coin 10e avenue), Montr\u00e9al QC H1Y 1Y1",
                        "locality": "Montreal",
                        "postcode": "H1Y 1Y1",
                        "region": "QC"
                  },
                  "name": "La Succursale",
                  "popularity": 0.9643262679788039,
                  "price": 2,
                  "rating": 8.2
            },
            {
                  "distance": 878,
                  "location": {
                        "address": "2352 Beaubien Rue E",
                        "country": "CA",
                        "cross_street": "Des \u00c9cores",
                        "formatted_address": "2352 Beaubien Rue E (Des \u00c9cores), Montr\u00e9al QC H2G 1N2",
                        "locality": "Montreal",
                        "postcode": "H2G 1N2",
                        "region": "QC"
                  },
                  "name": "Sushi Royal 5 Inc",
                  "popularity": 0.8272497161241483,
                  "price": 2,
                  "rating": 8.2
            },
            {
                  "distance": 878,
                  "location": {
                        "address": "2355 Beaubien Rue E",
                        "country": "CA",
                        "formatted_address": "2355 Beaubien Rue E, Montr\u00e9al QC H2G 1N3",
                        "locality": "Montreal",
                        "postcode": "H2G 1N3",
                        "region": "QC"
                  },
                  "name": "Froment et de S\u00e8ve",
                  "popularity": 0.9245008516275549,
                  "price": 1,
                  "rating": 7.8
            },
            {
                  "distance": 880,
                  "location": {
                        "address": "6505 des Ecores Rue",
                        "country": "CA",
                        "cross_street": "Beaubien Est",
                        "formatted_address": "6505 des Ecores Rue (Beaubien Est), Montr\u00e9al QC H2G 2J8",
                        "locality": "Montreal",
                        "postcode": "H2G 2J8",
                        "region": "QC"
                  },
                  "name": "Randolph Pub Ludique",
                  "popularity": 0.9249148372445117,
                  "price": 1,
                  "rating": 7.8
            },
            {
                  "distance": 957,
                  "location": {
                        "address": "2224 Beaubien Rue E",
                        "country": "CA",
                        "formatted_address": "2224 Beaubien Rue E, Montr\u00e9al QC H2G 1M7",
                        "locality": "Montreal",
                        "postcode": "H2G 1M7",
                        "region": "QC"
                  },
                  "name": "Marconi Pizzeria",
                  "popularity": 0.8903529523088569,
                  "price": 1,
                  "rating": 7.7
            },
            {
                  "distance": 483,
                  "location": {
                        "address": "2618 Masson Rue",
                        "country": "CA",
                        "cross_street": "",
                        "formatted_address": "2618 Masson Rue, Montr\u00e9al QC H1Y 3E5",
                        "locality": "Montreal",
                        "postcode": "H1Y 3E5",
                        "region": "QC"
                  },
                  "name": "La Cr\u00e9mi\u00e8re",
                  "popularity": 0.8805474072672218,
                  "price": 1,
                  "rating": 7.7
            },
            {
                  "distance": 924,
                  "location": {
                        "address": "2316 Beaubien Rue E",
                        "country": "CA",
                        "cross_street": "Louis-H\u00e9mon",
                        "formatted_address": "2316 Beaubien Rue E (Louis-H\u00e9mon), Montr\u00e9al QC H2G 1M9",
                        "locality": "Montreal",
                        "postcode": "H2G 1M9",
                        "region": "QC"
                  },
                  "name": "Bistro Chez Roger",
                  "popularity": 0.9417817940953823,
                  "price": 2,
                  "rating": 7.7
            },
            {
                  "distance": 796,
                  "location": {
                        "address": "2500 Beaubien Rue E",
                        "country": "CA",
                        "cross_street": "coin d'Iberville",
                        "formatted_address": "2500 Beaubien Rue E (coin d'Iberville), Montr\u00e9al QC H1Y 1G2",
                        "locality": "Montreal",
                        "postcode": "H1Y 1G2",
                        "region": "QC"
                  },
                  "name": "Resto la Grand-M\u00e8re Poule",
                  "popularity": 0.9470926381529144,
                  "price": 1,
                  "rating": 7.6
            },
            {
                  "distance": 597,
                  "location": {
                        "address": "5405 9e Ave",
                        "country": "CA",
                        "cross_street": "coin Masson",
                        "formatted_address": "5405 9e Ave (coin Masson), Montr\u00e9al QC H1Y 2J7",
                        "locality": "Montreal",
                        "postcode": "H1Y 2J7",
                        "region": "QC"
                  },
                  "name": "Frite Alors",
                  "popularity": 0.9371096707040121,
                  "price": 1,
                  "rating": 7.5
            },
            {
                  "distance": 543,
                  "location": {
                        "address": "3001 Masson Rue",
                        "country": "CA",
                        "formatted_address": "3001 Masson Rue, Montr\u00e9al QC H1Y 1X7",
                        "locality": "Montreal",
                        "postcode": "H1Y 1X7",
                        "region": "QC"
                  },
                  "name": "Boulangerie Premi\u00e8re Moisson",
                  "popularity": 0.8898206850870553,
                  "price": 1,
                  "rating": 7.4
            },
            {
                  "distance": 550,
                  "location": {
                        "address": "3014 Masson Rue",
                        "country": "CA",
                        "cross_street": "coin 7e avenue",
                        "formatted_address": "3014 Masson Rue (coin 7e avenue), Montr\u00e9al QC H1Y 1X6",
                        "locality": "Montreal",
                        "postcode": "H1Y 1X6",
                        "region": "QC"
                  },
                  "name": "Chez Baptiste Sur Masson",
                  "popularity": 0.9593347842543528,
                  "price": 2,
                  "rating": 7.3
            },
            {
                  "distance": 995,
                  "location": {
                        "address": "2200 Beaubien Rue E",
                        "country": "CA",
                        "cross_street": "At Des Erables",
                        "formatted_address": "2200 Beaubien Rue E (At Des Erables), Montr\u00e9al QC H2G 1M7",
                        "locality": "Montreal",
                        "postcode": "H2G 1M7",
                        "region": "QC"
                  },
                  "name": "Nouveau Canada",
                  "popularity": 0.9369677327781983,
                  "price": 1,
                  "rating": 7.1
            },
            {
                  "distance": 461,
                  "location": {
                        "address": "2460 Dandurand Rue",
                        "country": "CA",
                        "formatted_address": "2460 Dandurand Rue, Montr\u00e9al QC H2G 2A3",
                        "locality": "Montreal",
                        "postcode": "H2G 2A3",
                        "region": "QC"
                  },
                  "name": "Tim Hortons",
                  "popularity": 0.9830857305071915,
                  "price": 1,
                  "rating": 6.5
            },
            {
                  "distance": 699,
                  "location": {
                        "address": "5228 d'Iberville Rue",
                        "country": "CA",
                        "cross_street": "coin Masson",
                        "formatted_address": "5228 d'Iberville Rue (coin Masson), Montr\u00e9al QC H2G 2A8",
                        "locality": "Montreal",
                        "postcode": "H2G 2A8",
                        "region": "QC"
                  },
                  "name": "Bar Sel et Poivre",
                  "popularity": 0.9735758894776685,
                  "rating": 5.9
            },
            {
                  "distance": 623,
                  "location": {
                        "address": "3255 Rosemont Blvd",
                        "country": "CA",
                        "formatted_address": "3255 Rosemont Blvd, Montr\u00e9al QC H1X 1K1",
                        "locality": "Montreal",
                        "postcode": "H1X 1K1",
                        "region": "QC"
                  },
                  "name": "Restaurant le Petit Quebec",
                  "popularity": 0.9626703255109765,
                  "price": 1,
                  "rating": 5.2
            },
            {
                  "distance": 601,
                  "location": {
                        "address": "2530 Masson Rue",
                        "country": "CA",
                        "cross_street": "coin Iberville",
                        "formatted_address": "2530 Masson Rue (coin Iberville), Montr\u00e9al QC H1Y 1V8",
                        "locality": "Montreal",
                        "postcode": "H1Y 1V8",
                        "region": "QC"
                  },
                  "name": "McDonald's",
                  "popularity": 0.9850965177895533,
                  "price": 1,
                  "rating": 5.1,
                  "store_id": "5336"
            },
            {
                  "distance": 476,
                  "location": {
                        "address": "2609 Masson Rue",
                        "country": "CA",
                        "cross_street": "",
                        "formatted_address": "2609 Masson Rue, Montreal QC H1Y 1W1",
                        "locality": "Montreal",
                        "postcode": "H1Y 1W1",
                        "region": "QC"
                  },
                  "name": "Broue Bar Gasp\u00e9",
                  "popularity": 0.06894634746404239,
                  "price": 2
            },
            {
                  "distance": 484,
                  "location": {
                        "address": "2581 Masson Rue",
                        "country": "CA",
                        "cross_street": "1\u00e8re avenue",
                        "formatted_address": "2581 Masson Rue (1\u00e8re avenue), Montr\u00e9al QC H1Y 1V7",
                        "locality": "Montreal",
                        "postcode": "H1Y 1V7",
                        "region": "QC"
                  },
                  "name": "Bar Chez Tzina",
                  "popularity": 0.9494227857683573,
                  "price": 1
            },
            {
                  "distance": 491,
                  "location": {
                        "address": "2874 Masson Rue",
                        "country": "CA",
                        "cross_street": "",
                        "formatted_address": "2874 Masson Rue, Montr\u00e9al QC H1Y 1W9",
                        "locality": "Montreal",
                        "postcode": "H1Y 1W9",
                        "region": "QC"
                  },
                  "name": "Le Pok\u00e9 Station",
                  "popularity": 0.8739236373959122
            },
            {
                  "distance": 522,
                  "location": {
                        "address": "2931 Masson Rue",
                        "country": "CA",
                        "cross_street": "",
                        "formatted_address": "2931 Masson Rue, Montr\u00e9al QC H1Y 1X5",
                        "locality": "Montreal",
                        "postcode": "H1Y 1X5",
                        "region": "QC"
                  },
                  "name": "Elvita's Latin Fusion Cuisine",
                  "popularity": 0.9454721801665406,
                  "price": 2
            },
            {
                  "distance": 537,
                  "location": {
                        "address": "3224 Rosemont Blvd",
                        "country": "CA",
                        "cross_street": "",
                        "formatted_address": "3224 Rosemont Blvd, Montr\u00e9al QC H1Y 1M7",
                        "locality": "Montreal",
                        "postcode": "H1Y 1M7",
                        "region": "QC"
                  },
                  "name": "Poulet 3 Pattes",
                  "popularity": 0.8786430734292203,
                  "price": 2
            },
            {
                  "distance": 595,
                  "location": {
                        "address": "3135 Masson Rue",
                        "country": "CA",
                        "cross_street": "",
                        "formatted_address": "3135 Masson Rue, Montr\u00e9al QC H1Y 1X9",
                        "locality": "Montreal",
                        "postcode": "H1Y 1X9",
                        "region": "QC"
                  },
                  "name": "Billy Buck",
                  "popularity": 0.30010408781226344,
                  "price": 1
            },
            {
                  "distance": 595,
                  "location": {
                        "address": "3127 Masson Rue",
                        "country": "CA",
                        "cross_street": "",
                        "formatted_address": "3127 Masson Rue, Montr\u00e9al QC H1Y 1X9",
                        "locality": "Montreal",
                        "postcode": "H1Y 1X9",
                        "region": "QC"
                  },
                  "name": "Mojito & Margarita",
                  "popularity": 0.880429125662377,
                  "price": 1
            },
            {
                  "distance": 604,
                  "location": {
                        "address": "5416 d'Iberville Rue",
                        "country": "CA",
                        "cross_street": "Masson",
                        "formatted_address": "5416 d'Iberville Rue (Masson), Montr\u00e9al QC",
                        "locality": "Montreal",
                        "region": "QC"
                  },
                  "name": "Kool Cafe Inc",
                  "popularity": 0.15313919379258137,
                  "price": 2
            },
            {
                  "distance": 617,
                  "location": {
                        "address": "3150 Masson Rue",
                        "country": "CA",
                        "cross_street": "coin 9e avenue",
                        "formatted_address": "3150 Masson Rue (coin 9e avenue), Montr\u00e9al QC H1Y 1Y1",
                        "locality": "Montreal",
                        "postcode": "H1Y 1Y1",
                        "region": "QC"
                  },
                  "name": "Restaurant Basha",
                  "popularity": 0.9222298448145344,
                  "price": 1
            },
            {
                  "distance": 713,
                  "location": {
                        "address": "5500 Fullum Rue",
                        "address_extended": "Suite 105",
                        "country": "CA",
                        "cross_street": "",
                        "formatted_address": "5500 Fullum Rue, Montr\u00e9al QC H2G 2H3",
                        "locality": "Montreal",
                        "postcode": "H2G 2H3",
                        "region": "QC"
                  },
                  "name": "Kittel Compagnie de Caf\u00e9",
                  "popularity": 0.044816900075700224,
                  "price": 1
            },
            {
                  "distance": 720,
                  "location": {
                        "address": "3244 Masson Rue",
                        "country": "CA",
                        "cross_street": "",
                        "formatted_address": "3244 Masson Rue, Montr\u00e9al QC H1Y 1Y3",
                        "locality": "Montreal",
                        "postcode": "H1Y 1Y3",
                        "region": "QC"
                  },
                  "name": "A&W Restaurant",
                  "popularity": 0.9042273845571537,
                  "price": 1,
                  "store_id": "5903"
            },
            {
                  "distance": 723,
                  "location": {
                        "address": "3251 Masson Rue",
                        "country": "CA",
                        "cross_street": "Coin boulevard Saint-Michel",
                        "formatted_address": "3251 Masson Rue (Coin boulevard Saint-Michel), Montr\u00e9al QC H1X 1R3",
                        "locality": "Montreal",
                        "postcode": "H1X 1R3",
                        "region": "QC"
                  },
                  "name": "Bar Monaco",
                  "popularity": 0.6515069076457229,
                  "price": 2
            },
            {
                  "distance": 765,
                  "location": {
                        "address": "2522 Beaubien Rue E",
                        "country": "CA",
                        "cross_street": "Rue d'Iberville",
                        "formatted_address": "2522 Beaubien Rue E (Rue d'Iberville), Montr\u00e9al QC H1Y 1G2",
                        "locality": "Montreal",
                        "postcode": "H1Y 1G2",
                        "region": "QC"
                  },
                  "name": "La Brass\u00e9e",
                  "popularity": 0.9355483535200606,
                  "price": 1
            },
            {
                  "distance": 777,
                  "location": {
                        "address": "5885 Papineau Ave",
                        "country": "CA",
                        "cross_street": "De Lorimier",
                        "formatted_address": "5885 Papineau Ave (De Lorimier), Montr\u00e9al QC H2G 2W5",
                        "locality": "Montreal",
                        "postcode": "H2G 2W5",
                        "region": "QC"
                  },
                  "name": "Grozepa Brasserie Urbaine",
                  "popularity": 0.969708080999243,
                  "price": 2
            },
            {
                  "distance": 830,
                  "location": {
                        "address": "5866 Ave de Lorimier",
                        "country": "CA",
                        "cross_street": "",
                        "formatted_address": "5866 Ave de Lorimier, Montr\u00e9al QC H2G 2N9",
                        "locality": "Montreal",
                        "postcode": "H2G 2N9",
                        "region": "QC"
                  },
                  "name": "180G",
                  "popularity": 0.8939368849356548,
                  "price": 1
            },
            {
                  "distance": 891,
                  "location": {
                        "address": "3251 Beaubien Rue E",
                        "country": "CA",
                        "cross_street": "",
                        "formatted_address": "3251 Beaubien Rue E, Montr\u00e9al QC H1X 1G4",
                        "locality": "Montreal",
                        "postcode": "H1X 1G4",
                        "region": "QC"
                  },
                  "name": "A&W Restaurant",
                  "popularity": 0.9718253217259651,
                  "price": 1,
                  "store_id": "5590"
            }
      ],
      "context": {
            "geo_bounds": {
                  "circle": {
                        "center": {
                              "latitude": 45.54800353,
                              "longitude": -73.58138993
                        },
                        "radius": 1000
                  }
            }
      }
}