{
      "results": [
            {
                  "distance": 659,
                  "location": {
                        "address": "1201 Van Horne Ave",
                        "country": "CA",
                        "cross_street": "",
                        "formatted_address": "1201 Van Horne Ave, Montr\u00e9al QC H2V 1K4",
                        "locality": "Montreal",
                        "postcode": "H2V 1K4",
                        "region": "QC"
                  },
                  "name": "Damas",
                  "popularity": 0.9677446063588191,
                  "price": 4,
                  "rating": 9.4
            },
            {
                  "distance": 982,
                  "location": {
                        "address": "263 Saint- Viateur Rue O",
                        "country": "CA",
                        "cross_street": "entre Jeanne-Mance & du Parc",
                        "formatted_address": "263 Saint- Viateur Rue O (entre Jeanne-Mance & du Parc), Montr\u00e9al QC H2V 1Y1",
                        "locality": "Montreal",
                        "postcode": "H2V 1Y1",
                        "region": "QC"
                  },
                  "name": "St-Viateur Bagel",
                  "popularity": 0.9821986184708554,
                  "price": 1,
                  "rating": 9.1
            },
            {
                  "distance": 992,
                  "location": {
                        "address": "5357 Ave du Parc",
                        "country": "CA",
                        "cross_street": "entre St-Viateur & Fairmount",
                        "formatted_address": "5357 Ave du Parc (entre St-Viateur & Fairmount), Montr\u00e9al QC H2V 4G9",
                        "locality": "Montreal",
                        "postcode": "H2V 4G9",
                        "region": "QC"
                  },
                  "name": "Milos Restaurant",
                  "popularity": 0.9470098410295231,
                  "price": 4,
                  "rating": 9.1
            },
            {
                  "distance": 278,
                  "location": {
                        "address": "1311 Bernard Ave",
                        "country": "CA",
                        "cross_street": "coin Outremont",
                        "formatted_address": "1311 Bernard Ave (coin Outremont), Montr\u00e9al QC H2V 1W1",
                        "locality": "Montreal",
                        "postcode": "H2V 1W1",
                        "region": "QC"
                  },
                  "name": "Le Glacier Bilboquet",
                  "popularity": 0.9378075321725965,
                  "price": 2,
                  "rating": 9.0
            },
            {
                  "distance": 689,
                  "location": {
                        "address": "1057 Bernard Ave",
                        "country": "CA",
                        "cross_street": "entre Durocher & Querbes",
                        "formatted_address": "1057 Bernard Ave (entre Durocher & Querbes), Outremont QC H2V 1V1",
                        "locality": "Outremont",
                        "postcode": "H2V 1V1",
                        "region": "QC"
                  },
                  "name": "Lester's Aaa Delicatessen",
                  "popularity": 0.9608606169568509,
                  "price": 2,
                  "rating": 8.3
            },
            {
                  "distance": 912,
                  "location": {
                        "address": "5611 Ave du Parc",
                        "country": "CA",
                        "cross_street": "St-Viateur",
                        "formatted_address": "5611 Ave du Parc (St-Viateur), Montr\u00e9al QC H2V 4H2",
                        "locality": "Montreal",
                        "postcode": "H2V 4H2",
                        "region": "QC"
                  },
                  "name": "Ta Chido",
                  "popularity": 0.9069360333080999,
                  "price": 1,
                  "rating": 8.1
            },
            {
                  "distance": 367,
                  "location": {
                        "address": "11265 Bernard Ave",
                        "country": "CA",
                        "cross_street": "btwn Ave. Champagneur & Ave. Outremont",
                        "formatted_address": "11265 Bernard Ave (btwn Ave. Champagneur & Ave. Outremont), Montr\u00e9al QC H2V 1V8",
                        "locality": "Montreal",
                        "postcode": "H2V 1V8",
                        "region": "QC"
                  },
                  "name": "Restaurant le Petit Italien",
                  "popularity": 0.9217094057532172,
                  "price": 3,
                  "rating": 8.1
            },
            {
                  "distance": 440,
                  "location": {
                        "address": "1464 Van Horne Ave",
                        "country": "CA",
                        "cross_street": "entre Stuart & Dollard",
                        "formatted_address": "1464 Van Horne Ave (entre Stuart & Dollard), Outremont QC H2V 1L2",
                        "locality": "Outremont",
                        "postcode": "H2V 1L2",
                        "region": "QC"
                  },
                  "name": "Paltoquet",
                  "popularity": 0.9282503785011355,
                  "price": 1,
                  "rating": 8.0
            },
            {
                  "distance": 874,
                  "location": {
                        "address": "359 Bernard Rue O",
                        "country": "CA",
                        "cross_street": "coin Du Parc",
                        "formatted_address": "359 Bernard Rue O (coin Du Parc), Montr\u00e9al QC H2V 1T6",
                        "locality": "Montreal",
                        "postcode": "H2V 1T6",
                        "region": "QC"
                  },
                  "name": "Boulangerie Cheskie Inc",
                  "popularity": 0.9672005109765329,
                  "price": 1,
                  "rating": 7.8
            },
            {
                  "distance": 903,
                  "location": {
                        "address": "5723 Ave du Parc",
                        "country": "CA",
                        "cross_street": "entre Bernard & St-Viateur",
                        "formatted_address": "5723 Ave du Parc (entre Bernard & St-Viateur), Montr\u00e9al QC H2V 4H2",
                        "locality": "Montreal",
                        "postcode": "H2V 4H2",
                        "region": "QC"
                  },
                  "name": "Th\u00e9\u00e2tre Rialto",
                  "popularity": 0.9192373202119606,
                  "rating": 7.7
            },
            {
                  "distance": 899,
                  "location": {
                        "address": "5733 Ave du Parc",
                        "country": "CA",
                        "cross_street": "coin Bernard",
                        "formatted_address": "5733 Ave du Parc (coin Bernard), Montr\u00e9al QC H2V 4H2",
                        "locality": "Montreal",
                        "postcode": "H2V 4H2",
                        "region": "QC"
                  },
                  "name": "Phyllo Bar Melina's",
                  "popularity": 0.9046886828160484,
                  "price": 2,
                  "rating": 7.7
            },
            {
                  "distance": 103,
                  "location": {
                        "address": "1333 Van Horne Ave",
                        "country": "CA",
                        "cross_street": "",
                        "formatted_address": "1333 Van Horne Ave, Montr\u00e9al QC H2V 1K7",
                        "locality": "Montreal",
                        "postcode": "H2V 1K7",
                        "region": "QC"
                  },
                  "name": "Lescurier Tradition Gourmande",
                  "popularity": 0.8525974640423921,
                  "price": 1,
                  "rating": 7.6
            },
            {
                  "distance": 467,
                  "location": {
                        "address": "1224 Bernard Ave",
                        "country": "CA",
                        "formatted_address": "1224 Bernard Ave, Outremont QC H2V 1V6",
                        "locality": "Outremont",
                        "postcode": "H2V 1V6",
                        "region": "QC"
                  },
                  "name": "Un Amour des Th\u00e9s",
                  "popularity": 0.4476367335352006,
                  "price": 2,
                  "rating": 7.4
            },
            {
                  "distance": 931,
                  "location": {
                        "address": "273 Bernard Rue O",
                        "country": "CA",
                        "cross_street": "entre Du Parc & Jeanne-Mance",
                        "formatted_address": "273 Bernard Rue O (entre Du Parc & Jeanne-Mance), Montr\u00e9al QC H2V 1T5",
                        "locality": "Montreal",
                        "postcode": "H2V 1T5",
                        "region": "QC"
                  },
                  "name": "Helm Brasseur Gourmand",
                  "popularity": 0.9408237130961393,
                  "price": 2,
                  "rating": 7.3
            },
            {
                  "distance": 865,
                  "location": {
                        "address": "1041 Van Horne Ave",
                        "country": "CA",
                        "cross_street": "Durocher",
                        "formatted_address": "1041 Van Horne Ave (Durocher), Montr\u00e9al QC H2V 1J4",
                        "locality": "Montreal",
                        "postcode": "H2V 1J4",
                        "region": "QC"
                  },
                  "name": "Boxermans",
                  "popularity": 0.9236728803936411,
                  "price": 2,
                  "rating": 6.9
            },
            {
                  "distance": 923,
                  "location": {
                        "address": "5570 Ave du Parc",
                        "country": "CA",
                        "cross_street": "St. Viateur",
                        "formatted_address": "5570 Ave du Parc (St. Viateur), Montr\u00e9al QC H2V 4H1",
                        "locality": "Montreal",
                        "postcode": "H2V 4H1",
                        "region": "QC"
                  },
                  "name": "Restaurant Aux Lilas",
                  "popularity": 0.8087149886449659,
                  "price": 3,
                  "rating": 6.7
            },
            {
                  "distance": 867,
                  "location": {
                        "address": "5660 Cote-Des-Neiges",
                        "country": "CA",
                        "cross_street": "Cote st catherine",
                        "formatted_address": "5660 Cote-Des-Neiges (Cote st catherine), Montr\u00e9al QC H3T 2A8",
                        "locality": "Montreal",
                        "postcode": "H3T 2A8",
                        "region": "QC"
                  },
                  "name": "Thai Express",
                  "popularity": 0.308987036336109,
                  "price": 2,
                  "rating": 6.3
            },
            {
                  "distance": 431,
                  "location": {
                        "address": "1452 Van Horne Ave",
                        "country": "CA",
                        "cross_street": "coin av. Stuart",
                        "formatted_address": "1452 Van Horne Ave (coin av. Stuart), Outremont QC H2V 1L2",
                        "locality": "Outremont",
                        "postcode": "H2V 1L2",
                        "region": "QC"
                  },
                  "name": "Subway",
                  "popularity": 0.32512064723694173,
                  "price": 1,
                  "rating": 6.2,
                  "store_id": "41805"
            },
            {
                  "distance": 349,
                  "location": {
                        "address": "1275 Bernard Ave",
                        "country": "CA",
                        "cross_street": "",
                        "formatted_address": "1275 Bernard Ave, Outremont QC H2V 1V8",
                        "locality": "Outremont",
                        "postcode": "H2V 1V8",
                        "region": "QC"
                  },
                  "name": "Second Cup Coffee Co",
                  "popularity": 0.8932863361090083,
                  "price": 1,
                  "rating": 5.8,
                  "store_id": "3211"
            },
            {
                  "distance": 445,
                  "location": {
                        "address": "1461 Van Horne Ave",
                        "country": "CA",
                        "cross_street": "",
                        "formatted_address": "1461 Van Horne Ave, Montr\u00e9al QC H2V 1L3",
                        "locality": "Montreal",
                        "postcode": "H2V 1L3",
                        "region": "QC"
                  },
                  "name": "Caf\u00e9 DAX",
                  "popularity": 0.9622090272520818,
                  "price": 1
            },
            {
                  "distance": 447,
                  "location": {
                        "address": "1541 Van Horne",
                        "country": "CA",
                        "cross_street": "",
                        "formatted_address": "1541 Van Horne, Montreal QC H3S 2T5",
                        "locality": "Montreal",
                        "postcode": "H3S 2T5",
                        "region": "QC"
                  },
                  "name": "Pendeli's",
                  "popularity": 0.6617500946252839,
                  "price": 1
            },
            {
                  "distance": 465,
                  "location": {
                        "address": "1541 Van Horne Ave",
                        "country": "CA",
                        "cross_street": "Av McEachran",
                        "formatted_address": "1541 Van Horne Ave (Av McEachran), Montr\u00e9al QC H2V 1L4",
                        "locality": "Montreal",
                        "postcode": "H2V 1L4",
                        "region": "QC"
                  },
                  "name": "Roch le Coq",
                  "popularity": 0.9616531037093111,
                  "price": 1
            },
            {
                  "distance": 515,
                  "location": {
                        "address": "1317 Van Horne Ave",
                        "country": "CA",
                        "cross_street": "",
                        "formatted_address": "1317 Van Horne Ave, Montr\u00e9al QC H2V 1K7",
                        "locality": "Montreal",
                        "postcode": "H2V 1K7",
                        "region": "QC"
                  },
                  "name": "Caf\u00e9 Dante",
                  "popularity": 0.9554314912944739,
                  "price": 1
            },
            {
                  "distance": 675,
                  "location": {
                        "address": "9 Vincent d'Indy Ave",
                        "country": "CA",
                        "cross_street": "",
                        "formatted_address": "9 Vincent d'Indy Ave, Montr\u00e9al QC H2V 4N7",
                        "locality": "Montreal",
                        "postcode": "H2V 4N7",
                        "region": "QC"
                  },
                  "name": "Pizza Tifosi Outremont",
                  "popularity": 0.8951788417865254,
                  "price": 1
            },
            {
                  "distance": 728,
                  "location": {
                        "address": "1142 Van Horne Ave",
                        "country": "CA",
                        "cross_street": "",
                        "formatted_address": "1142 Van Horne Ave, Montr\u00e9al QC H2V 1J8",
                        "locality": "Montreal",
                        "postcode": "H2V 1J8",
                        "region": "QC"
                  },
                  "name": "Boucherie Bar \u00e0 vin Provisions",
                  "popularity": 0.9643026116578349
            },
            {
                  "distance": 804,
                  "location": {
                        "address": "2049 Edouard Montpetit",
                        "country": "CA",
                        "cross_street": "Vincent D'indy",
                        "formatted_address": "2049 Edouard Montpetit (Vincent D'indy), Montr\u00e9al QC",
                        "locality": "Montreal",
                        "region": "QC"
                  },
                  "name": "Les Navafr\u00e9es",
                  "popularity": 0.9031391937925813,
                  "price": 3
            },
            {
                  "distance": 872,
                  "location": {
                        "address": "5834 Ave du Parc",
                        "country": "CA",
                        "cross_street": "",
                        "formatted_address": "5834 Ave du Parc, Montr\u00e9al QC H2V 4H3",
                        "locality": "Montreal",
                        "postcode": "H2V 4H3",
                        "region": "QC"
                  },
                  "name": "Mezkal Senc",
                  "popularity": 0.31646243376230127,
                  "price": 1
            },
            {
                  "distance": 875,
                  "location": {
                        "address": "5687 Ave du Parc",
                        "country": "CA",
                        "cross_street": "",
                        "formatted_address": "5687 Ave du Parc, Montr\u00e9al QC H2V 4H2",
                        "locality": "Montreal",
                        "postcode": "H2V 4H2",
                        "region": "QC"
                  },
                  "name": "Nita Tout Garni",
                  "popularity": 0.9420420136260409,
                  "price": 1
            },
            {
                  "distance": 932,
                  "location": {
                        "address": "5573 Parc",
                        "country": "CA",
                        "cross_street": "",
                        "formatted_address": "5573 Parc, Montr\u00e9al QC",
                        "locality": "Montreal",
                        "region": "QC"
                  },
                  "name": "Lipa Grocery Store",
                  "popularity": 0.8664127554882665,
                  "price": 1
            },
            {
                  "distance": 940,
                  "location": {
                        "address": "5443 Ave du Parc",
                        "country": "CA",
                        "cross_street": "St-Viateur",
                        "formatted_address": "5443 Ave du Parc (St-Viateur), Montr\u00e9al QC H2V 4G9",
                        "locality": "Montreal",
                        "postcode": "H2V 4G9",
                        "region": "QC"
                  },
                  "name": "\u00d4 jus",
                  "popularity": 0.7960706850870553,
                  "price": 1
            },
            {
                  "distance": 941,
                  "location": {
                        "address": "5583 Ave du Parc",
                        "country": "CA",
                        "cross_street": "St-Viateur",
                        "formatted_address": "5583 Ave du Parc (St-Viateur), Montr\u00e9al QC H2V 4H2",
                        "locality": "Montreal",
                        "postcode": "H2V 4H2",
                        "region": "QC"
                  },
                  "name": "Restaurant Rodos Bay",
                  "popularity": 0.1620457986373959,
                  "price": 3
            },
            {
                  "distance": 976,
                  "location": {
                        "address": "5407 Ave du Parc",
                        "country": "CA",
                        "cross_street": "",
                        "formatted_address": "5407 Ave du Parc, Montr\u00e9al QC H2V 4G9",
                        "locality": "Montreal",
                        "postcode": "H2V 4G9",
                        "region": "QC"
                  },
                  "name": "Yuukai Fusion Japonaise",
                  "popularity": 0.8907551097653293,
                  "price": 2
            },
            {
                  "distance": 377,
                  "location": {
                        "address": "126 Bernard Rue O",
                        "country": "CA",
                        "formatted_address": "126 Bernard Rue O, Outremont QC H2V 1V8",
                        "locality": "Outremont",
                        "postcode": "H2V 1V8",
                        "region": "QC"
                  },
                  "name": "Cafe Souvenir"
            },
            {
                  "distance": 473,
                  "location": {
                        "address": "1239 Lajoie Ave",
                        "country": "CA",
                        "formatted_address": "1239 Lajoie Ave, Outremont QC H2V 1P2",
                        "locality": "Outremont",
                        "postcode": "H2V 1P2",
                        "region": "QC"
                  },
                  "name": "HISPANIA Montr\u00e9al"
            },
            {
                  "distance": 491,
                  "location": {
                        "address": "1368 Van Horne Ave",
                        "country": "CA",
                        "formatted_address": "1368 Van Horne Ave, Outremont QC H2V 1K8",
                        "locality": "Outremont",
                        "postcode": "H2V 1K8",
                        "region": "QC"
                  },
                  "name": "Sushi Time"
            }
      ],
      "context": {
            "geo_bounds": {
                  "circle": {
                        "center": {
                              "latitude": 45.5167827,
                              "longitude": -73.61142263
                        },
                        "radius": 1000
                  }
            }
      }
}