{
      "results": [
            {
                  "distance": 865,
                  "location": {
                        "address": "2067 Crescent Rue",
                        "country": "CA",
                        "cross_street": "",
                        "formatted_address": "2067 Crescent Rue, Montr\u00e9al QC H3G 2C1",
                        "locality": "Montreal",
                        "postcode": "H3G 2C1",
                        "region": "QC"
                  },
                  "name": "Mandy's",
                  "popularity": 0.9813233345950038,
                  "price": 2,
                  "rating": 9.0
            },
            {
                  "distance": 307,
                  "location": {
                        "address": "4006 Sainte-Catherine Rue O",
                        "country": "CA",
                        "cross_street": "coin Atwater",
                        "formatted_address": "4006 Sainte-Catherine Rue O (coin Atwater), Westmount QC H3Z 1P2",
                        "locality": "Westmount",
                        "postcode": "H3Z 1P2",
                        "region": "QC"
                  },
                  "name": "Imadake",
                  "popularity": 0.9621822690638562,
                  "price": 2,
                  "rating": 8.7
            },
            {
                  "distance": 956,
                  "location": {
                        "address": "2051 Rue de la Montagne",
                        "country": "CA",
                        "cross_street": "entre De Maisonneuve & Sherbrooke",
                        "formatted_address": "2051 Rue de la Montagne (entre De Maisonneuve & Sherbrooke), Montr\u00e9al QC H3G 1Z8",
                        "locality": "Montreal",
                        "postcode": "H3G 1Z8",
                        "region": "QC"
                  },
                  "name": "Leaves Cafe",
                  "popularity": 0.9357494322482968,
                  "price": 1,
                  "rating": 8.7
            },
            {
                  "distance": 621,
                  "location": {
                        "address": "1504 Sherbrooke Rue O",
                        "country": "CA",
                        "cross_street": "",
                        "formatted_address": "1504 Sherbrooke Rue O, Montr\u00e9al QC H3G 1L3",
                        "locality": "Montreal",
                        "postcode": "H3G 1L3",
                        "region": "QC"
                  },
                  "name": "Ristorante Beatrice",
                  "popularity": 0.9627058099924299,
                  "price": 3,
                  "rating": 8.6
            },
            {
                  "distance": 893,
                  "location": {
                        "address": "1255 Crescent Rue",
                        "country": "CA",
                        "cross_street": "Sainte-Catherine",
                        "formatted_address": "1255 Crescent Rue (Sainte-Catherine), Montr\u00e9al QC H3G 2B1",
                        "locality": "Montreal",
                        "postcode": "H3G 2B1",
                        "region": "QC"
                  },
                  "name": "Gyu-Kaku BBQ",
                  "popularity": 0.9762253974261923,
                  "price": 2,
                  "rating": 8.6,
                  "store_id": "14142"
            },
            {
                  "distance": 724,
                  "location": {
                        "address": "1448 Sherbrooke Rue O",
                        "country": "CA",
                        "formatted_address": "1448 Sherbrooke Rue O, Montr\u00e9al QC H3G 1K4",
                        "locality": "Montreal",
                        "postcode": "H3G 1K4",
                        "region": "QC"
                  },
                  "name": "Cafe Aunja",
                  "popularity": 0.9581401400454201,
                  "price": 1,
                  "rating": 8.6
            },
            {
                  "distance": 979,
                  "location": {
                        "address": "2175 rue de la Montagne",
                        "address_extended": "# 100",
                        "country": "CA",
                        "cross_street": "",
                        "formatted_address": "2175 rue de la Montagne, Montr\u00e9al QC H3G 1Z8",
                        "locality": "Montreal",
                        "postcode": "H3G 1Z8",
                        "region": "QC"
                  },
                  "name": "Bar Cloakroom",
                  "popularity": 0.9470216691900075,
                  "price": 3,
                  "rating": 8.5
            },
            {
                  "distance": 810,
                  "location": {
                        "address": "1388 Blvd de Maisonneuve O",
                        "country": "CA",
                        "cross_street": "",
                        "formatted_address": "1388 Blvd de Maisonneuve O, Montr\u00e9al QC H3G 0C8",
                        "locality": "Montreal",
                        "postcode": "H3G 0C8",
                        "region": "QC"
                  },
                  "name": "Notre-Boeuf-de-Gr\u00e2ce",
                  "popularity": 0.9788394208932627,
                  "price": 1,
                  "rating": 8.4
            },
            {
                  "distance": 721,
                  "location": {
                        "address": "1254 MacKay Rue",
                        "country": "CA",
                        "formatted_address": "1254 MacKay Rue, Montr\u00e9al QC H3G 2H4",
                        "locality": "Montreal",
                        "postcode": "H3G 2H4",
                        "region": "QC"
                  },
                  "name": "Upstairs Jazz Bar & Grill",
                  "popularity": 0.9743210635881908,
                  "rating": 8.3
            },
            {
                  "distance": 724,
                  "location": {
                        "address": "1238 MacKay Rue",
                        "country": "CA",
                        "cross_street": "South of Sainte-catherine",
                        "formatted_address": "1238 MacKay Rue (South of Sainte-catherine), Montr\u00e9al QC H3G 2H4",
                        "locality": "Montreal",
                        "postcode": "H3G 2H4",
                        "region": "QC"
                  },
                  "name": "Garage Beirut",
                  "popularity": 0.9214373580620742,
                  "rating": 8.3
            },
            {
                  "distance": 525,
                  "location": {
                        "address": "1626 Blvd de Maisonneuve Ouest",
                        "country": "CA",
                        "cross_street": "",
                        "formatted_address": "1626 Blvd de Maisonneuve Ouest, Montr\u00e9al QC H3H 1J5",
                        "locality": "Montreal",
                        "postcode": "H3H 1J5",
                        "region": "QC"
                  },
                  "name": "Antep Kabab",
                  "popularity": 0.9862201930355791,
                  "price": 1,
                  "rating": 8.3
            },
            {
                  "distance": 530,
                  "location": {
                        "address": "1612 Sherbrooke Rue O",
                        "country": "CA",
                        "cross_street": "",
                        "formatted_address": "1612 Sherbrooke Rue O, Montr\u00e9al QC H3H 1C9",
                        "locality": "Montreal",
                        "postcode": "H3H 1C9",
                        "region": "QC"
                  },
                  "name": "Chez Hailar",
                  "popularity": 0.9650241294473884,
                  "price": 2,
                  "rating": 8.3
            },
            {
                  "distance": 825,
                  "location": {
                        "address": "1255 Bishop Rue",
                        "country": "CA",
                        "cross_street": "",
                        "formatted_address": "1255 Bishop Rue, Montr\u00e9al QC H3G 2E2",
                        "locality": "Montreal",
                        "postcode": "H3G 2E2",
                        "region": "QC"
                  },
                  "name": "C'Cho-Colat",
                  "popularity": 0.9571110900832702,
                  "price": 1,
                  "rating": 8.2
            },
            {
                  "distance": 834,
                  "location": {
                        "address": "2020 Crescent Rue",
                        "address_extended": "coin Maisonneuve",
                        "country": "CA",
                        "cross_street": "coin Maisonneuve",
                        "formatted_address": "2020 Crescent Rue (coin Maisonneuve), Montr\u00e9al QC H3G 2B8",
                        "locality": "Montreal",
                        "postcode": "H3G 2B8",
                        "region": "QC"
                  },
                  "name": "Restaurant Boustan",
                  "popularity": 0.9724049015897047,
                  "price": 1,
                  "rating": 8.2
            },
            {
                  "distance": 431,
                  "location": {
                        "address": "1441 Saint Mathieu Rue",
                        "country": "CA",
                        "cross_street": "entre De Maisonneuve & Ste-Catherine",
                        "formatted_address": "1441 Saint Mathieu Rue (entre De Maisonneuve & Ste-Catherine), Montr\u00e9al QC H3H 2M4",
                        "locality": "Montreal",
                        "postcode": "H3H 2M4",
                        "region": "QC"
                  },
                  "name": "Otto Yakitori Izakaya",
                  "popularity": 0.9624337623012869,
                  "price": 2,
                  "rating": 8.2
            },
            {
                  "distance": 885,
                  "location": {
                        "address": "1356 Sainte-Catherine Rue O",
                        "country": "CA",
                        "cross_street": "coin Crescent",
                        "formatted_address": "1356 Sainte-Catherine Rue O (coin Crescent), Montr\u00e9al QC H3G 1P6",
                        "locality": "Montreal",
                        "postcode": "H3G 1P6",
                        "region": "QC"
                  },
                  "name": "Les 3 Brasseurs",
                  "popularity": 0.9850728614685844,
                  "price": 2,
                  "rating": 8.2
            },
            {
                  "distance": 613,
                  "location": {
                        "address": "1515 Sainte-Catherine Rue O",
                        "country": "CA",
                        "cross_street": "boul. de Maisonneuve",
                        "formatted_address": "1515 Sainte-Catherine Rue O (boul. de Maisonneuve), Montr\u00e9al QC H3G 2W1",
                        "locality": "Montreal",
                        "postcode": "H3G 2W1",
                        "region": "QC"
                  },
                  "name": "Jugo Juice",
                  "popularity": 0.9863976154428463,
                  "price": 1,
                  "rating": 8.2
            },
            {
                  "distance": 870,
                  "location": {
                        "address": "2171 Crescent Rue",
                        "country": "CA",
                        "cross_street": "",
                        "formatted_address": "2171 Crescent Rue, Montr\u00e9al QC H3G 2C1",
                        "locality": "Montreal",
                        "postcode": "H3G 2C1",
                        "region": "QC"
                  },
                  "name": "Brass Door",
                  "popularity": 0.9442893641180924,
                  "price": 1,
                  "rating": 8.1
            },
            {
                  "distance": 865,
                  "location": {
                        "address": "1434 Crescent Rue",
                        "country": "CA",
                        "cross_street": "Rue Sainte-Catherine Ouest",
                        "formatted_address": "1434 Crescent Rue (Rue Sainte-Catherine Ouest), Montr\u00e9al QC H3G 2B6",
                        "locality": "Montreal",
                        "postcode": "H3G 2B6",
                        "region": "QC"
                  },
                  "name": "Wienstein & Gavino's",
                  "popularity": 0.974179125662377,
                  "price": 2,
                  "rating": 8.0
            },
            {
                  "distance": 273,
                  "location": {
                        "address": "1909 Sainte-Catherine Rue O",
                        "country": "CA",
                        "cross_street": "St-Marc Street",
                        "formatted_address": "1909 Sainte-Catherine Rue O (St-Marc Street), Montr\u00e9al QC H3H 1M3",
                        "locality": "Montreal",
                        "postcode": "H3H 1M3",
                        "region": "QC"
                  },
                  "name": "Sammi & Soupe Dumpling",
                  "popularity": 0.9820921650264951,
                  "price": 1,
                  "rating": 8.0
            },
            {
                  "distance": 476,
                  "location": {
                        "address": "1626 Sainte-Catherine Rue O",
                        "address_extended": "Coin Guy",
                        "country": "CA",
                        "cross_street": "Coin Guy",
                        "formatted_address": "1626 Sainte-Catherine Rue O (Coin Guy), Montr\u00e9al QC H3H 2S7",
                        "locality": "Montreal",
                        "postcode": "H3H 2S7",
                        "region": "QC"
                  },
                  "name": "Juliette & Chocolat",
                  "popularity": 0.9505819454958365,
                  "price": 2,
                  "rating": 8.0
            },
            {
                  "distance": 733,
                  "location": {
                        "address": "1244 MacKay Rue",
                        "country": "CA",
                        "cross_street": "entre St-Catherine & Ren\u00e9-L\u00e9vesque",
                        "formatted_address": "1244 MacKay Rue (entre St-Catherine & Ren\u00e9-L\u00e9vesque), Montr\u00e9al QC H3G 2H4",
                        "locality": "Montreal",
                        "postcode": "H3G 2H4",
                        "region": "QC"
                  },
                  "name": "N sur Mackay",
                  "popularity": 0.951208838001514,
                  "price": 3,
                  "rating": 7.9
            },
            {
                  "distance": 542,
                  "location": {
                        "address": "2000 Guy Rue",
                        "country": "CA",
                        "cross_street": "coin de Maisonneuve",
                        "formatted_address": "2000 Guy Rue (coin de Maisonneuve), Montr\u00e9al QC H3H 2L8",
                        "locality": "Montreal",
                        "postcode": "H3H 2L8",
                        "region": "QC"
                  },
                  "name": "Starbucks",
                  "popularity": 0.9943106548069645,
                  "price": 2,
                  "rating": 7.8,
                  "store_id": "4056-140777"
            },
            {
                  "distance": 424,
                  "location": {
                        "address": "1684 Blvd Maisonneuve Ouest",
                        "country": "CA",
                        "cross_street": "St. Mathieu",
                        "formatted_address": "1684 Blvd Maisonneuve Ouest (St. Mathieu), Montr\u00e9al QC H3H 1J7",
                        "locality": "Montreal",
                        "postcode": "H3H 1J7",
                        "region": "QC"
                  },
                  "name": "All\u00f4! Mon Coco",
                  "popularity": 0.9630843111279334,
                  "price": 1,
                  "rating": 7.8
            },
            {
                  "distance": 661,
                  "location": {
                        "address": "2002 MacKay Rue",
                        "country": "CA",
                        "cross_street": "De Maisonneuve",
                        "formatted_address": "2002 MacKay Rue (De Maisonneuve), Montr\u00e9al QC H3G 2J1",
                        "locality": "Montreal",
                        "postcode": "H3G 2J1",
                        "region": "QC"
                  },
                  "name": "Hinnawi Bros Bagel & Caf\u00e9",
                  "popularity": 0.97194360333081,
                  "price": 1,
                  "rating": 7.7
            },
            {
                  "distance": 780,
                  "location": {
                        "address": "2065A Bishop Rue",
                        "country": "CA",
                        "cross_street": "",
                        "formatted_address": "2065A Bishop Rue, Montr\u00e9al QC H3G 2E8",
                        "locality": "Montreal",
                        "postcode": "H3G 2E8",
                        "region": "QC"
                  },
                  "name": "Ramen Misoya",
                  "popularity": 0.9683360143830432,
                  "price": 2,
                  "rating": 7.7
            },
            {
                  "distance": 927,
                  "location": {
                        "address": "1219 Crescent Rue",
                        "country": "CA",
                        "cross_street": "entre Ste-Catherine & Ren\u00e9-L\u00e9vesque",
                        "formatted_address": "1219 Crescent Rue (entre Ste-Catherine & Ren\u00e9-L\u00e9vesque), Montr\u00e9al QC H3G 2B1",
                        "locality": "Montreal",
                        "postcode": "H3G 2B1",
                        "region": "QC"
                  },
                  "name": "Brutopia",
                  "popularity": 0.9817609765329296,
                  "price": 1,
                  "rating": 7.7
            },
            {
                  "distance": 113,
                  "location": {
                        "address": "1455 Lambert-Closse Rue",
                        "country": "CA",
                        "cross_street": "De Maisonneuve",
                        "formatted_address": "1455 Lambert-Closse Rue (De Maisonneuve), Montr\u00e9al QC H3H 1Z5",
                        "locality": "Montreal",
                        "postcode": "H3H 1Z5",
                        "region": "QC"
                  },
                  "name": "Shaughnessy Caf\u00e9",
                  "popularity": 0.9712575700227101,
                  "price": 1,
                  "rating": 7.7
            },
            {
                  "distance": 906,
                  "location": {
                        "address": "1225 Crescent Rue",
                        "country": "CA",
                        "cross_street": "btwn Ren\u00e9-L\u00e9vesque O & Sainte-Catherine O",
                        "formatted_address": "1225 Crescent Rue (btwn Ren\u00e9-L\u00e9vesque O & Sainte-Catherine O), Montr\u00e9al QC H3G 2B1",
                        "locality": "Montreal",
                        "postcode": "H3G 2B1",
                        "region": "QC"
                  },
                  "name": "Hurley's Irish Pub",
                  "popularity": 0.9727242619227857,
                  "price": 2,
                  "rating": 7.7
            },
            {
                  "distance": 779,
                  "location": {
                        "address": "1426 Bishop Rue",
                        "country": "CA",
                        "cross_street": "btwn boul. de Maisonneuve O & rue Ste-Catherine O",
                        "formatted_address": "1426 Bishop Rue (btwn boul. de Maisonneuve O & rue Ste-Catherine O), Montr\u00e9al QC H3G 2E6",
                        "locality": "Montreal",
                        "postcode": "H3G 2E6",
                        "region": "QC"
                  },
                  "name": "McKibbin's Irish Pub",
                  "popularity": 0.9896030469341408,
                  "price": 2,
                  "rating": 7.7
            },
            {
                  "distance": 752,
                  "location": {
                        "address": "1221 MacKay Rue",
                        "country": "CA",
                        "cross_street": "",
                        "formatted_address": "1221 MacKay Rue, Montr\u00e9al QC H3G 2H5",
                        "locality": "Montreal",
                        "postcode": "H3G 2H5",
                        "region": "QC"
                  },
                  "name": "Arabica Lounge",
                  "popularity": 0.9582465934897805,
                  "price": 1,
                  "rating": 7.6
            },
            {
                  "distance": 460,
                  "location": {
                        "address": "1662 Blvd de Maisonneuve Ouest",
                        "country": "CA",
                        "cross_street": "Saint-Mathieu",
                        "formatted_address": "1662 Blvd de Maisonneuve Ouest (Saint-Mathieu), Montr\u00e9al QC H3H 1J7",
                        "locality": "Montreal",
                        "postcode": "H3H 1J7",
                        "region": "QC"
                  },
                  "name": "Angela Pizzeria & Restaurant",
                  "popularity": 0.9539647993943982,
                  "price": 1,
                  "rating": 7.6
            },
            {
                  "distance": 491,
                  "location": {
                        "address": "1645 Blvd de Maisonneuve Ouest",
                        "country": "CA",
                        "cross_street": "Rue Pierce",
                        "formatted_address": "1645 Blvd de Maisonneuve Ouest (Rue Pierce), Montr\u00e9al QC H3H 2N3",
                        "locality": "Montreal",
                        "postcode": "H3H 2N3",
                        "region": "QC"
                  },
                  "name": "Cocktail Hawaii",
                  "popularity": 0.9786501703255109,
                  "price": 1,
                  "rating": 7.5
            },
            {
                  "distance": 551,
                  "location": {
                        "address": "1623 Sainte Catherine Rue O",
                        "country": "CA",
                        "cross_street": "",
                        "formatted_address": "1623 Sainte Catherine Rue O, Montr\u00e9al QC H3H 1L8",
                        "locality": "Montreal",
                        "postcode": "H3H 1L8",
                        "region": "QC"
                  },
                  "name": "Poulet Rouge",
                  "popularity": 0.9914600681302044,
                  "price": 1,
                  "rating": 7.4
            },
            {
                  "distance": 848,
                  "location": {
                        "address": "1211 Bishop Rue",
                        "country": "CA",
                        "cross_street": "",
                        "formatted_address": "1211 Bishop Rue, Montr\u00e9al QC H3G 2E2",
                        "locality": "Montreal",
                        "postcode": "H3G 2E2",
                        "region": "QC"
                  },
                  "name": "Kinton Ramen",
                  "popularity": 0.9660768357305072,
                  "rating": 7.3
            }
      ],
      "context": {
            "geo_bounds": {
                  "circle": {
                        "center": {
                              "latitude": 45.49175045,
                              "longitude": -73.58394474
                        },
                        "radius": 1000
                  }
            }
      }
}