{
      "results": [
            {
                  "distance": 712,
                  "location": {
                        "address": "1700 Ontario Rue E",
                        "country": "CA",
                        "cross_street": "coin Papineau",
                        "formatted_address": "1700 Ontario Rue E (coin Papineau), Montr\u00e9al QC H2L 1S7",
                        "locality": "Montreal",
                        "postcode": "H2L 1S7",
                        "region": "QC"
                  },
                  "name": "La Fabrique Arhoma",
                  "popularity": 0.953420704012112,
                  "price": 1,
                  "rating": 8.9
            },
            {
                  "distance": 788,
                  "location": {
                        "address": "1603 Ontario Rue E",
                        "country": "CA",
                        "cross_street": "",
                        "formatted_address": "1603 Ontario Rue E, Montr\u00e9al QC H2L 1S6",
                        "locality": "Montreal",
                        "postcode": "H2L 1S6",
                        "region": "QC"
                  },
                  "name": "Grenade - Resto-bar et terrasse",
                  "popularity": 0.9200534632853898,
                  "price": 2,
                  "rating": 8.0,
                  "store_id": "375355"
            },
            {
                  "distance": 724,
                  "location": {
                        "address": "1690 Ontario Rue E",
                        "country": "CA",
                        "cross_street": "entre De Champlain & Papineau",
                        "formatted_address": "1690 Ontario Rue E (entre De Champlain & Papineau), Montr\u00e9al QC H2L 1S7",
                        "locality": "Montreal",
                        "postcode": "H2L 1S7",
                        "region": "QC"
                  },
                  "name": "Au Petit Extra",
                  "popularity": 0.9349924299772899,
                  "price": 4,
                  "rating": 7.9
            },
            {
                  "distance": 975,
                  "location": {
                        "address": "1365 Ontario Rue E",
                        "country": "CA",
                        "formatted_address": "1365 Ontario Rue E, Montr\u00e9al QC H2L 1S2",
                        "locality": "Montreal",
                        "postcode": "H2L 1S2",
                        "region": "QC"
                  },
                  "name": "Poutineville",
                  "popularity": 0.9661241483724451,
                  "price": 2,
                  "rating": 7.9
            },
            {
                  "distance": 642,
                  "location": {
                        "address": "1812 Sainte-Catherine Rue E",
                        "country": "CA",
                        "cross_street": "Av Papineau",
                        "formatted_address": "1812 Sainte-Catherine Rue E (Av Papineau), Montr\u00e9al QC H2K 2H3",
                        "locality": "Montreal",
                        "postcode": "H2K 2H3",
                        "region": "QC"
                  },
                  "name": "Bar le Stud",
                  "popularity": 0.9814534443603331,
                  "price": 2,
                  "rating": 7.5
            },
            {
                  "distance": 389,
                  "location": {
                        "address": "2308 Ontario Rue E",
                        "country": "CA",
                        "cross_street": "",
                        "formatted_address": "2308 Ontario Rue E, Montr\u00e9al QC H2K 1W1",
                        "locality": "Montreal",
                        "postcode": "H2K 1W1",
                        "region": "QC"
                  },
                  "name": "Cr\u00e8merie Confiserie le Gourmandin",
                  "popularity": 0.8898679977289932,
                  "price": 1,
                  "rating": 7.4
            },
            {
                  "distance": 981,
                  "location": {
                        "address": "1333 Sainte-Catherine Rue E",
                        "country": "CA",
                        "cross_street": "coin Panet",
                        "formatted_address": "1333 Sainte-Catherine Rue E (coin Panet), Montr\u00e9al QC H2L 2H4",
                        "locality": "Montreal",
                        "postcode": "H2L 2H4",
                        "region": "QC"
                  },
                  "name": "Le Saloon Bistro Bar Inc",
                  "popularity": 0.9465721990915973,
                  "price": 2,
                  "rating": 7.3
            },
            {
                  "distance": 769,
                  "location": {
                        "address": "1652 Ontario Rue E",
                        "country": "CA",
                        "cross_street": "",
                        "formatted_address": "1652 Ontario Rue E, Montr\u00e9al QC H2L 1S7",
                        "locality": "Montreal",
                        "postcode": "H2L 1S7",
                        "region": "QC"
                  },
                  "name": "Dame Tartine D\u00e9jeuner et D\u00eener",
                  "popularity": 0.9304031037093111,
                  "price": 1,
                  "rating": 7.3
            },
            {
                  "distance": 631,
                  "location": {
                        "address": "1851 Ontario Rue E",
                        "country": "CA",
                        "cross_street": "Rue Cartier",
                        "formatted_address": "1851 Ontario Rue E (Rue Cartier), Montr\u00e9al QC H2K 1T6",
                        "locality": "Montreal",
                        "postcode": "H2K 1T6",
                        "region": "QC"
                  },
                  "name": "A Quinta",
                  "popularity": 0.9652488644965935,
                  "price": 2,
                  "rating": 7.0
            },
            {
                  "distance": 437,
                  "location": {
                        "address": "2120 Ontario Rue E",
                        "country": "CA",
                        "cross_street": "De Lormier",
                        "formatted_address": "2120 Ontario Rue E (De Lormier), Montr\u00e9al QC H2K 1V5",
                        "locality": "Montreal",
                        "postcode": "H2K 1V5",
                        "region": "QC"
                  },
                  "name": "Lafleur Restaurants",
                  "popularity": 0.9637348599545799,
                  "price": 1,
                  "rating": 6.9
            },
            {
                  "distance": 562,
                  "location": {
                        "address": "1870 Sainte-Catherine Rue E",
                        "country": "CA",
                        "cross_street": "coin Cartier",
                        "formatted_address": "1870 Sainte-Catherine Rue E (coin Cartier), Montr\u00e9al QC H2K 2H5",
                        "locality": "Montreal",
                        "postcode": "H2K 2H5",
                        "region": "QC"
                  },
                  "name": "Lafayette Hot Dog",
                  "popularity": 0.9246191332323997,
                  "price": 1,
                  "rating": 6.8
            },
            {
                  "distance": 943,
                  "location": {
                        "address": "1365 Sainte Catherine Rue E",
                        "country": "CA",
                        "cross_street": "",
                        "formatted_address": "1365 Sainte Catherine Rue E, Montr\u00e9al QC H2L 2H7",
                        "locality": "Montreal",
                        "postcode": "H2L 2H7",
                        "region": "QC"
                  },
                  "name": "District Video Lounge",
                  "popularity": 0.9562712906888721,
                  "price": 3,
                  "rating": 6.7
            },
            {
                  "distance": 508,
                  "location": {
                        "address": "2544 Ontario Rue E",
                        "country": "CA",
                        "cross_street": "coin Frontenac",
                        "formatted_address": "2544 Ontario Rue E (coin Frontenac), Montr\u00e9al QC H2K 1W4",
                        "locality": "Montreal",
                        "postcode": "H2K 1W4",
                        "region": "QC"
                  },
                  "name": "Subway",
                  "popularity": 0.8541824375473126,
                  "price": 1,
                  "rating": 6.4,
                  "store_id": "38095"
            },
            {
                  "distance": 961,
                  "location": {
                        "address": "1356 Sainte-Catherine Rue E",
                        "country": "CA",
                        "cross_street": "Dalcourt",
                        "formatted_address": "1356 Sainte-Catherine Rue E (Dalcourt), Montr\u00e9al QC H2L 2H6",
                        "locality": "Montreal",
                        "postcode": "H2L 2H6",
                        "region": "QC"
                  },
                  "name": "Sushi Shop",
                  "popularity": 0.7877673164269493,
                  "price": 2,
                  "rating": 6.3
            },
            {
                  "distance": 888,
                  "location": {
                        "address": "1453 Sainte-Catherine Rue E",
                        "country": "CA",
                        "cross_street": "",
                        "formatted_address": "1453 Sainte-Catherine Rue E, Montr\u00e9al QC H2L 2H9",
                        "locality": "Montreal",
                        "postcode": "H2L 2H9",
                        "region": "QC"
                  },
                  "name": "Toro Rosso",
                  "popularity": 0.9418645912187736,
                  "price": 4,
                  "rating": 6.3
            },
            {
                  "distance": 341,
                  "location": {
                        "address": "2033 Blvd de Maisonneuve Est Petro Canada",
                        "country": "CA",
                        "cross_street": "",
                        "formatted_address": "2033 Blvd de Maisonneuve Est Petro Canada, Montr\u00e9al QC H2K 4M2",
                        "locality": "Montreal",
                        "postcode": "H2K 4M2",
                        "region": "QC"
                  },
                  "name": "A&W Restaurant",
                  "popularity": 0.9394989591218774,
                  "price": 1,
                  "rating": 6.2,
                  "store_id": "5516"
            },
            {
                  "distance": 279,
                  "location": {
                        "address": "2155 Blvd de Maisonneuve Est",
                        "country": "CA",
                        "cross_street": "coin Delorimier",
                        "formatted_address": "2155 Blvd de Maisonneuve Est (coin Delorimier), Montr\u00e9al QC H2K 4S3",
                        "locality": "Montreal",
                        "postcode": "H2K 4S3",
                        "region": "QC"
                  },
                  "name": "Tim Hortons",
                  "popularity": 0.992631056018168,
                  "price": 1,
                  "rating": 6.1
            },
            {
                  "distance": 603,
                  "location": {
                        "address": "1830 Sainte-Catherine Rue E",
                        "country": "CA",
                        "cross_street": "Cartier",
                        "formatted_address": "1830 Sainte-Catherine Rue E (Cartier), Montr\u00e9al QC H2K 2H3",
                        "locality": "Montreal",
                        "postcode": "H2K 2H3",
                        "region": "QC"
                  },
                  "name": "Restaurant Pho an Nam",
                  "popularity": 0.9299299772899319,
                  "price": 2,
                  "rating": 6.0
            },
            {
                  "distance": 459,
                  "location": {
                        "address": "1950 Blvd de Maisonneuve Est",
                        "country": "CA",
                        "cross_street": "",
                        "formatted_address": "1950 Blvd de Maisonneuve Est, Montr\u00e9al QC H2K 2C8",
                        "locality": "Montreal",
                        "postcode": "H2K 2C8",
                        "region": "QC"
                  },
                  "name": "Bar Taboo",
                  "popularity": 0.9578326078728236,
                  "price": 2,
                  "rating": 5.8
            },
            {
                  "distance": 679,
                  "location": {
                        "address": "2700 Ontario Rue E",
                        "country": "CA",
                        "cross_street": "Bercy",
                        "formatted_address": "2700 Ontario Rue E (Bercy), Montr\u00e9al QC H2K 1W9",
                        "locality": "Montreal",
                        "postcode": "H2K 1W9",
                        "region": "QC"
                  },
                  "name": "Tim Hortons",
                  "popularity": 0.967791919000757,
                  "price": 1,
                  "rating": 5.6
            },
            {
                  "distance": 744,
                  "location": {
                        "address": "2010 Papineau Ave",
                        "country": "CA",
                        "cross_street": "coin Ontario",
                        "formatted_address": "2010 Papineau Ave (coin Ontario), Montr\u00e9al QC H2K 4J4",
                        "locality": "Montreal",
                        "postcode": "H2K 4J4",
                        "region": "QC"
                  },
                  "name": "McDonald's",
                  "popularity": 0.9692586109008327,
                  "price": 1,
                  "rating": 4.9,
                  "store_id": "23293"
            },
            {
                  "distance": 558,
                  "location": {
                        "address": "2600 Ontario Rue E",
                        "country": "CA",
                        "cross_street": "coin Du Havre",
                        "formatted_address": "2600 Ontario Rue E (coin Du Havre), Montr\u00e9al QC H2K 4K4",
                        "locality": "Montreal",
                        "postcode": "H2K 4K4",
                        "region": "QC"
                  },
                  "name": "McDonald's",
                  "popularity": 0.9883729182437547,
                  "price": 1,
                  "rating": 4.6,
                  "store_id": "10089"
            },
            {
                  "distance": 289,
                  "location": {
                        "address": "2199 Sainte-Catherine Rue E",
                        "country": "CA",
                        "cross_street": "Parthenais",
                        "formatted_address": "2199 Sainte-Catherine Rue E (Parthenais), Montr\u00e9al QC H2K 2H9",
                        "locality": "Montreal",
                        "postcode": "H2K 2H9",
                        "region": "QC"
                  },
                  "name": "Canard caf\u00e9",
                  "popularity": 0.9539766275548827,
                  "price": 1
            },
            {
                  "distance": 469,
                  "location": {
                        "address": "2054 Fullum Rue",
                        "country": "CA",
                        "cross_street": "Ontario",
                        "formatted_address": "2054 Fullum Rue (Ontario), Montr\u00e9al QC H2K 3N7",
                        "locality": "Montreal",
                        "postcode": "H2K 3N7",
                        "region": "QC"
                  },
                  "name": "Ikaros Pizzeria Enr",
                  "popularity": 0.8425908402725208,
                  "price": 1
            },
            {
                  "distance": 476,
                  "location": {
                        "address": "2043 Parthenais Rue",
                        "country": "CA",
                        "cross_street": "Larivi\u00e8re",
                        "formatted_address": "2043 Parthenais Rue (Larivi\u00e8re), Montr\u00e9al QC H2K 3T1",
                        "locality": "Montreal",
                        "postcode": "H2K 3T1",
                        "region": "QC"
                  },
                  "name": "Cafeteria Nonnini",
                  "popularity": 0.9463238077214232,
                  "price": 1
            },
            {
                  "distance": 597,
                  "location": {
                        "address": "2600 Ontario Rue E",
                        "address_extended": "# 10",
                        "country": "CA",
                        "cross_street": "Du Havre",
                        "formatted_address": "2600 Ontario Rue E (Du Havre), Montr\u00e9al QC H2K 4K4",
                        "locality": "Montreal",
                        "postcode": "H2K 4K4",
                        "region": "QC"
                  },
                  "name": "Restaurant Bercy",
                  "popularity": 0.8457844436033308,
                  "price": 2
            },
            {
                  "distance": 662,
                  "location": {
                        "address": "1821 Ontario Rue E",
                        "country": "CA",
                        "cross_street": "Goulet",
                        "formatted_address": "1821 Ontario Rue E (Goulet), Montr\u00e9al QC H2K 1T6",
                        "locality": "Montreal",
                        "postcode": "H2K 1T6",
                        "region": "QC"
                  },
                  "name": "Pizza City",
                  "popularity": 0.8540641559424679,
                  "price": 1
            },
            {
                  "distance": 693,
                  "location": {
                        "address": "2683 Ontario Rue E",
                        "country": "CA",
                        "cross_street": "",
                        "formatted_address": "2683 Ontario Rue E, Montr\u00e9al QC H2K 1X1",
                        "locality": "Montreal",
                        "postcode": "H2K 1X1",
                        "region": "QC"
                  },
                  "name": "Bar Sexe Mania",
                  "popularity": 0.9735995457986374,
                  "price": 3
            },
            {
                  "distance": 709,
                  "location": {
                        "address": "1470 Rue de Champlain",
                        "country": "CA",
                        "cross_street": "",
                        "formatted_address": "1470 Rue de Champlain, Montr\u00e9al QC H2L 2B3",
                        "locality": "Montreal",
                        "postcode": "H2L 2B3",
                        "region": "QC"
                  },
                  "name": "Caf\u00e9 l'interm\u00e8de",
                  "popularity": 0.7469601627554883,
                  "price": 1
            },
            {
                  "distance": 729,
                  "location": {
                        "address": "1659 Ste Rue",
                        "country": "CA",
                        "cross_street": "",
                        "formatted_address": "1659 Ste Rue, Montr\u00e9al QC H2L 2J5",
                        "locality": "Montreal",
                        "postcode": "H2L 2J5",
                        "region": "QC"
                  },
                  "name": "Cantine Emilia",
                  "popularity": 0.8558265518546556,
                  "price": 2
            },
            {
                  "distance": 858,
                  "location": {
                        "address": "1487 Sainte-Catherine Rue E",
                        "country": "CA",
                        "cross_street": "",
                        "formatted_address": "1487 Sainte-Catherine Rue E, Montr\u00e9al QC H2L 2H9",
                        "locality": "Montreal",
                        "postcode": "H2L 2H9",
                        "region": "QC"
                  },
                  "name": "Palme",
                  "popularity": 0.8981713663890991,
                  "price": 2
            },
            {
                  "distance": 941,
                  "location": {
                        "address": "1382 Ontario Rue E",
                        "country": "CA",
                        "cross_street": "",
                        "formatted_address": "1382 Ontario Rue E, Montr\u00e9al QC H2L 1S1",
                        "locality": "Montreal",
                        "postcode": "H2L 1S1",
                        "region": "QC"
                  },
                  "name": "Patisserie L\u2019\u00e9claircie",
                  "popularity": 0.8501490348221045
            },
            {
                  "distance": 949,
                  "location": {
                        "address": "1385 Ontario Rue E",
                        "country": "CA",
                        "cross_street": "",
                        "formatted_address": "1385 Ontario Rue E, Montr\u00e9al QC H2L 1S2",
                        "locality": "Montreal",
                        "postcode": "H2L 1S2",
                        "region": "QC"
                  },
                  "name": "Vegan Rapide - le Misanthrope",
                  "popularity": 0.8634438872066617,
                  "price": 2
            },
            {
                  "distance": 962,
                  "location": {
                        "address": "1356 Sainte-Catherine Rue E",
                        "country": "CA",
                        "cross_street": "",
                        "formatted_address": "1356 Sainte-Catherine Rue E, Montr\u00e9al QC H2L 2H6",
                        "locality": "Montreal",
                        "postcode": "H2L 2H6",
                        "region": "QC"
                  },
                  "name": "Sushi Shop",
                  "popularity": 0.8426972937168812,
                  "price": 2
            },
            {
                  "distance": 411,
                  "location": {
                        "address": "2361 Ontario Rue E",
                        "country": "CA",
                        "formatted_address": "2361 Ontario Rue E, Montreal QC H2K 1W2",
                        "locality": "Montreal",
                        "postcode": "H2K 1W2",
                        "region": "QC"
                  },
                  "name": "Cooperative de Travail Touski"
            }
      ],
      "context": {
            "geo_bounds": {
                  "circle": {
                        "center": {
                              "latitude": 45.52836602,
                              "longitude": -73.55117083
                        },
                        "radius": 1000
                  }
            }
      }
}