{
      "results": [
            {
                  "distance": 770,
                  "location": {
                        "address": "1300 ch de Chambly",
                        "country": "CA",
                        "cross_street": "",
                        "formatted_address": "1300 ch de Chambly, Longueuil QC J4J 3X3",
                        "locality": "Longueuil",
                        "postcode": "J4J 3X3",
                        "region": "QC"
                  },
                  "name": "Basha",
                  "popularity": 0.47501132417333536,
                  "price": 1,
                  "rating": 7.1
            },
            {
                  "distance": 197,
                  "location": {
                        "address": "825 Ch. de Chambly",
                        "country": "CA",
                        "cross_street": "rue de Gentilly",
                        "formatted_address": "825 Ch. de Chambly (rue de Gentilly), Longueuil QC J4H 3M2",
                        "locality": "Longueuil",
                        "postcode": "J4H 3M2",
                        "region": "QC"
                  },
                  "name": "Tim Hortons",
                  "popularity": 0.937188585233278,
                  "price": 1,
                  "rating": 6.4
            },
            {
                  "distance": 749,
                  "location": {
                        "address": "650 Roland-Therrien Blvd",
                        "country": "CA",
                        "formatted_address": "650 Roland-Therrien Blvd, Longueuil QC J4H 3V9",
                        "locality": "Longueuil",
                        "postcode": "J4H 3V9",
                        "region": "QC"
                  },
                  "name": "McDonald's",
                  "popularity": 0.9895817605314812,
                  "price": 1,
                  "rating": 6.3
            },
            {
                  "distance": 236,
                  "location": {
                        "address": "880 Chambly Ch",
                        "country": "CA",
                        "cross_street": "Rue De Gentilly E",
                        "formatted_address": "880 Chambly Ch (Rue De Gentilly E), Longueuil QC J4H 3M3",
                        "locality": "Longueuil",
                        "postcode": "J4H 3M3",
                        "region": "QC"
                  },
                  "name": "Subway",
                  "popularity": 0.9112184810508833,
                  "price": 1,
                  "rating": 6.2,
                  "store_id": "14961"
            },
            {
                  "distance": 246,
                  "location": {
                        "address": "850 Chambly Ch",
                        "country": "CA",
                        "cross_street": "Gentilly",
                        "formatted_address": "850 Chambly Ch (Gentilly), Longueuil QC J4H 3M3",
                        "locality": "Longueuil",
                        "postcode": "J4H 3M3",
                        "region": "QC"
                  },
                  "name": "Thai Express",
                  "popularity": 0.9223916654084252,
                  "price": 2,
                  "rating": 6.0
            },
            {
                  "distance": 414,
                  "location": {
                        "address": "147 Rue de Gentilly",
                        "country": "CA",
                        "cross_street": "",
                        "formatted_address": "147 Rue de Gentilly, Longueuil QC J4H 1Z4",
                        "locality": "Longueuil",
                        "postcode": "J4H 1Z4",
                        "region": "QC"
                  },
                  "name": "Bar Laitier la Frizette",
                  "popularity": 0.9657255020383512,
                  "price": 1
            },
            {
                  "distance": 510,
                  "location": {
                        "address": "1101 Ch de Chambly",
                        "country": "CA",
                        "cross_street": "",
                        "formatted_address": "1101 Ch de Chambly, Longueuil QC J4H 3M8",
                        "locality": "Longueuil",
                        "postcode": "J4H 3M8",
                        "region": "QC"
                  },
                  "name": "Wok to Go",
                  "popularity": 0.44964517590215913,
                  "price": 1
            },
            {
                  "distance": 513,
                  "location": {
                        "address": "804 Rue de Gentilly E",
                        "country": "CA",
                        "formatted_address": "804 Rue de Gentilly E, Longueuil QC J4J 5B6",
                        "locality": "Longueuil",
                        "postcode": "J4J 5B6",
                        "region": "QC"
                  },
                  "name": "Restaurant la Belle Province",
                  "popularity": 0.887060244602144,
                  "price": 1
            },
            {
                  "distance": 537,
                  "location": {
                        "address": "1159 Ch de Chambly",
                        "country": "CA",
                        "cross_street": "Leblanc Est",
                        "formatted_address": "1159 Ch de Chambly (Leblanc Est), Longueuil QC J4H 3M8",
                        "locality": "Longueuil",
                        "postcode": "J4H 3M8",
                        "region": "QC"
                  },
                  "name": "Restaurant Bun'S and Hummer",
                  "popularity": 0.8515778348180583,
                  "price": 1
            },
            {
                  "distance": 587,
                  "location": {
                        "address": "1170 Ch de Chambly",
                        "country": "CA",
                        "cross_street": "",
                        "formatted_address": "1170 Ch de Chambly, Longueuil QC J4J 3W6",
                        "locality": "Longueuil",
                        "postcode": "J4J 3W6",
                        "region": "QC"
                  },
                  "name": "Joker Pub Ludique Longueuil",
                  "popularity": 0.9376415521666919,
                  "price": 1
            },
            {
                  "distance": 700,
                  "location": {
                        "address": "407 Grant Rue",
                        "country": "CA",
                        "cross_street": "",
                        "formatted_address": "407 Grant Rue, Longueuil QC J4H 3H9",
                        "locality": "Longueuil",
                        "postcode": "J4H 3H9",
                        "region": "QC"
                  },
                  "name": "Brasserie Tremblay",
                  "popularity": 0.8138305903669032,
                  "price": 2
            },
            {
                  "distance": 810,
                  "location": {
                        "address": "160 Guillaume Rue",
                        "country": "CA",
                        "cross_street": "",
                        "formatted_address": "160 Guillaume Rue, Longueuil QC J4H 1R8",
                        "locality": "Longueuil",
                        "postcode": "J4H 1R8",
                        "region": "QC"
                  },
                  "name": "Lulu la Nantaise",
                  "popularity": 0.8941567265589612,
                  "price": 1
            },
            {
                  "distance": 873,
                  "location": {
                        "address": "1364 Ch de Chambly",
                        "country": "CA",
                        "cross_street": "",
                        "formatted_address": "1364 Ch de Chambly, Longueuil QC J4J 3X3",
                        "locality": "Longueuil",
                        "postcode": "J4J 3X3",
                        "region": "QC"
                  },
                  "name": "Cake-Toi",
                  "popularity": 0.963007700437868
            },
            {
                  "distance": 916,
                  "location": {
                        "address": "555 Roland-Therrien Blvd",
                        "country": "CA",
                        "cross_street": "",
                        "formatted_address": "555 Roland-Therrien Blvd, Longueuil QC J4H 3Y9",
                        "locality": "Longueuil",
                        "postcode": "J4H 3Y9",
                        "region": "QC"
                  },
                  "name": "Van Houtte",
                  "popularity": 0.4658009965272535
            },
            {
                  "distance": 933,
                  "location": {
                        "address": "1395 Chemi de Chambly",
                        "country": "CA",
                        "cross_street": "",
                        "formatted_address": "1395 Chemi de Chambly, Longueuil QC J4J 5C6",
                        "locality": "Longueuil",
                        "postcode": "J4J 5C6",
                        "region": "QC"
                  },
                  "name": "Le Coq du Quartier",
                  "popularity": 0.20172127434697268,
                  "price": 1
            },
            {
                  "distance": 965,
                  "location": {
                        "address": "225 Saint-Laurent Rue O",
                        "country": "CA",
                        "cross_street": "",
                        "formatted_address": "225 Saint-Laurent Rue O, Longueuil QC J4H 1M4",
                        "locality": "Longueuil",
                        "postcode": "J4H 1M4",
                        "region": "QC"
                  },
                  "name": "Restaurant le Fleuron",
                  "popularity": 0.3098293824550808,
                  "price": 3
            },
            {
                  "distance": 163,
                  "location": {
                        "address": "945 Ch de Chambly",
                        "country": "CA",
                        "formatted_address": "945 Ch de Chambly, Longueuil QC J4H 3M6",
                        "locality": "Longueuil",
                        "postcode": "J4H 3M6",
                        "region": "QC"
                  },
                  "name": "Agecem"
            },
            {
                  "distance": 239,
                  "location": {
                        "address": "886 Ch de Chambly",
                        "country": "CA",
                        "formatted_address": "886 Ch de Chambly, Longueuil QC J4H 3M3",
                        "locality": "Longueuil",
                        "postcode": "J4H 3M3",
                        "region": "QC"
                  },
                  "name": "Sushi Express Fantasia"
            },
            {
                  "distance": 239,
                  "location": {
                        "address": "886 Ch de Chambly",
                        "country": "CA",
                        "formatted_address": "886 Ch de Chambly, Longueuil QC J4H 3M3",
                        "locality": "Longueuil",
                        "postcode": "J4H 3M3",
                        "region": "QC"
                  },
                  "name": "Sushi Express Chambly"
            },
            {
                  "distance": 243,
                  "location": {
                        "address": "850 Ch de Chambly",
                        "country": "CA",
                        "formatted_address": "850 Ch de Chambly, Longueuil QC J4H 3M3",
                        "locality": "Longueuil",
                        "postcode": "J4H 3M3",
                        "region": "QC"
                  },
                  "name": "Harvey's"
            },
            {
                  "distance": 705,
                  "location": {
                        "address": "1255 ch de Chambly",
                        "country": "CA",
                        "formatted_address": "1255 ch de Chambly, Longueuil QC J4J 3W9",
                        "locality": "Longueuil",
                        "postcode": "J4J 3W9",
                        "region": "QC"
                  },
                  "name": "La Belle Province"
            },
            {
                  "distance": 852,
                  "location": {
                        "address": "1352 Ch de Chambly",
                        "country": "CA",
                        "formatted_address": "1352 Ch de Chambly, Longueuil QC J4J 3X3",
                        "locality": "Longueuil",
                        "postcode": "J4J 3X3",
                        "region": "QC"
                  },
                  "name": "Resto Bar le Surf"
            },
            {
                  "distance": 925,
                  "location": {
                        "address": "555 Roland-Therrien Blvd",
                        "address_extended": "Suite 120",
                        "country": "CA",
                        "formatted_address": "555 Roland-Therrien Blvd, Longueuil QC J4H 4E9",
                        "locality": "Longueuil",
                        "postcode": "J4H 4E9",
                        "region": "QC"
                  },
                  "name": "Le Porc du Qu\u00e9bec"
            },
            {
                  "distance": 977,
                  "location": {
                        "address": "365 Saint-Jean Rue",
                        "country": "CA",
                        "formatted_address": "365 Saint-Jean Rue, Longueuil QC J4H 2X7",
                        "locality": "Longueuil",
                        "postcode": "J4H 2X7",
                        "region": "QC"
                  },
                  "name": "McDonald's"
            },
            {
                  "distance": 988,
                  "location": {
                        "address": "1401 Ch de Chambly",
                        "country": "CA",
                        "formatted_address": "1401 Ch de Chambly, Longueuil QC J4J 3X6",
                        "locality": "Longueuil",
                        "postcode": "J4J 3X6",
                        "region": "QC"
                  },
                  "name": "Rotisserie Chanteclerc"
            },
            {
                  "distance": 995,
                  "location": {
                        "address": "1401 ch de Chambly",
                        "country": "CA",
                        "formatted_address": "1401 ch de Chambly, Longueuil QC J4J 3X6",
                        "locality": "Longueuil",
                        "postcode": "J4J 3X6",
                        "region": "QC"
                  },
                  "name": "BeaverTails"
            },
            {
                  "distance": 995,
                  "location": {
                        "address": "1401 ch de Chambly",
                        "country": "CA",
                        "formatted_address": "1401 ch de Chambly, Longueuil QC J4J 3X6",
                        "locality": "Longueuil",
                        "postcode": "J4J 3X6",
                        "region": "QC"
                  },
                  "name": "Caf\u00e9 du Coin"
            },
            {
                  "distance": 995,
                  "location": {
                        "address": "1401 ch de Chambly",
                        "country": "CA",
                        "formatted_address": "1401 ch de Chambly, Longueuil QC J4J 3X6",
                        "locality": "Longueuil",
                        "postcode": "J4J 3X6",
                        "region": "QC"
                  },
                  "name": "Chez Emi Sushi"
            }
      ],
      "context": {
            "geo_bounds": {
                  "circle": {
                        "center": {
                              "latitude": 45.53722604,
                              "longitude": -73.49506706
                        },
                        "radius": 1000
                  }
            }
      }
}