{
      "results": [
            {
                  "distance": 73,
                  "location": {
                        "address": "511 Villeray Rue",
                        "country": "CA",
                        "cross_street": "coin Berri",
                        "formatted_address": "511 Villeray Rue (coin Berri), Montr\u00e9al QC H2R 1H5",
                        "locality": "Montreal",
                        "postcode": "H2R 1H5",
                        "region": "QC"
                  },
                  "name": "Tapeo",
                  "popularity": 0.9402914458743377,
                  "price": 2,
                  "rating": 9.1
            },
            {
                  "distance": 980,
                  "location": {
                        "address": "95 Jean-Talon Rue O",
                        "country": "CA",
                        "cross_street": "Saint-Urbain",
                        "formatted_address": "95 Jean-Talon Rue O (Saint-Urbain), Montr\u00e9al QC H2R 2W8",
                        "locality": "Montreal",
                        "postcode": "H2R 2W8",
                        "region": "QC"
                  },
                  "name": "Brasserie Harricana",
                  "popularity": 0.95985522331567,
                  "rating": 8.8
            },
            {
                  "distance": 964,
                  "location": {
                        "address": "260 Pl du March\u00e9 du Nord",
                        "country": "CA",
                        "cross_street": "",
                        "formatted_address": "260 Pl du March\u00e9 du Nord, Montr\u00e9al QC H2S 1A1",
                        "locality": "Montreal",
                        "postcode": "H2S 1A1",
                        "region": "QC"
                  },
                  "name": "Caf\u00e9 Saint-Henri MJT",
                  "popularity": 0.9128146290688872,
                  "price": 1,
                  "rating": 8.7
            },
            {
                  "distance": 964,
                  "location": {
                        "address": "7129 Saint-Laurent Blvd",
                        "address_extended": "Coin avenue Shamrock",
                        "country": "CA",
                        "cross_street": "Coin avenue Shamrock",
                        "formatted_address": "7129 Saint-Laurent Blvd (Coin avenue Shamrock), Montr\u00e9al QC H2S 0B2",
                        "locality": "Montreal",
                        "postcode": "H2S 0B2",
                        "region": "QC"
                  },
                  "name": "Birra",
                  "popularity": 0.9695779712339136,
                  "price": 2,
                  "rating": 8.6
            },
            {
                  "distance": 830,
                  "location": {
                        "address": "232 Jean-Talon Rue E",
                        "country": "CA",
                        "cross_street": "coin Casgrain",
                        "formatted_address": "232 Jean-Talon Rue E (coin Casgrain), Montr\u00e9al QC H2R 1S7",
                        "locality": "Montreal",
                        "postcode": "H2R 1S7",
                        "region": "QC"
                  },
                  "name": "Le Roi du Taco",
                  "popularity": 0.9488195495836488,
                  "price": 1,
                  "rating": 8.6
            },
            {
                  "distance": 551,
                  "location": {
                        "address": "7349 Saint Hubert Rue",
                        "country": "CA",
                        "cross_street": "",
                        "formatted_address": "7349 Saint Hubert Rue, Montr\u00e9al QC H2R 2N4",
                        "locality": "Montreal",
                        "postcode": "H2R 2N4",
                        "region": "QC"
                  },
                  "name": "Mr. Azteca",
                  "popularity": 0.9330762679788039,
                  "price": 1,
                  "rating": 8.5
            },
            {
                  "distance": 522,
                  "location": {
                        "address": "709B Jarry Rue E",
                        "country": "CA",
                        "cross_street": "",
                        "formatted_address": "709B Jarry Rue E, Montr\u00e9al QC H2P 1W2",
                        "locality": "Montreal",
                        "postcode": "H2P 1W2",
                        "region": "QC"
                  },
                  "name": "Baristello & Co",
                  "popularity": 0.9224664080242241,
                  "price": 1,
                  "rating": 8.3
            },
            {
                  "distance": 501,
                  "location": {
                        "address": "8100 Saint-Denis Rue",
                        "country": "CA",
                        "cross_street": "Jarry",
                        "formatted_address": "8100 Saint-Denis Rue (Jarry), Montr\u00e9al QC H2P 2G6",
                        "locality": "Montreal",
                        "postcode": "H2P 2G6",
                        "region": "QC"
                  },
                  "name": "Etoh Brasserie",
                  "popularity": 0.9779759651778955,
                  "price": 2,
                  "rating": 8.2
            },
            {
                  "distance": 500,
                  "location": {
                        "address": "405 Jarry Rue E",
                        "country": "CA",
                        "cross_street": "coin St-Denis",
                        "formatted_address": "405 Jarry Rue E (coin St-Denis), Montr\u00e9al QC H2P 1V2",
                        "locality": "Montreal",
                        "postcode": "H2P 1V2",
                        "region": "QC"
                  },
                  "name": "Caf\u00e9 Larue et Fils Inc",
                  "popularity": 0.9481571725965178,
                  "price": 1,
                  "rating": 7.9
            },
            {
                  "distance": 904,
                  "location": {
                        "address": "7070 Henri-Julien Ave",
                        "country": "CA",
                        "cross_street": "March\u00e9 Jean-Talon",
                        "formatted_address": "7070 Henri-Julien Ave (March\u00e9 Jean-Talon), Montr\u00e9al QC H2S 3S3",
                        "locality": "Montreal",
                        "postcode": "H2S 3S3",
                        "region": "QC"
                  },
                  "name": "Cr\u00eaperie du March\u00e9",
                  "popularity": 0.9273159538228615,
                  "rating": 7.8
            },
            {
                  "distance": 567,
                  "location": {
                        "address": "300 Jarry Rue E",
                        "country": "CA",
                        "cross_street": "",
                        "formatted_address": "300 Jarry Rue E, Montr\u00e9al QC H2P 1T7",
                        "locality": "Montreal",
                        "postcode": "H2P 1T7",
                        "region": "QC"
                  },
                  "name": "Pho Ong Rau",
                  "popularity": 0.9140329295987888,
                  "price": 2,
                  "rating": 7.8
            },
            {
                  "distance": 491,
                  "location": {
                        "address": "615 Jarry Rue E",
                        "country": "CA",
                        "formatted_address": "615 Jarry Rue E, Montr\u00e9al QC H2P 1V8",
                        "locality": "Montreal",
                        "postcode": "H2P 1V8",
                        "region": "QC"
                  },
                  "name": "Restaurant Da Lillo",
                  "popularity": 0.9266180923542771,
                  "price": 2,
                  "rating": 7.5
            },
            {
                  "distance": 273,
                  "location": {
                        "address": "519 Faillon Rue E",
                        "country": "CA",
                        "formatted_address": "519 Faillon Rue E, Montr\u00e9al QC H2R 1L6",
                        "locality": "Montreal",
                        "postcode": "H2R 1L6",
                        "region": "QC"
                  },
                  "name": "Daou Restaurant",
                  "popularity": 0.9034112414837244,
                  "price": 2,
                  "rating": 7.5
            },
            {
                  "distance": 318,
                  "location": {
                        "address": "220 Villeray Rue",
                        "country": "CA",
                        "cross_street": "coin Henri-Julien",
                        "formatted_address": "220 Villeray Rue (coin Henri-Julien), Montr\u00e9al QC H2R 1G5",
                        "locality": "Montreal",
                        "postcode": "H2R 1G5",
                        "region": "QC"
                  },
                  "name": "Miss Villeray",
                  "popularity": 0.9195448523845572,
                  "price": 2,
                  "rating": 7.4
            },
            {
                  "distance": 764,
                  "location": {
                        "address": "414 Jean-Talon Rue E",
                        "country": "CA",
                        "cross_street": "Saint-Denis",
                        "formatted_address": "414 Jean-Talon Rue E (Saint-Denis), Montr\u00e9al QC H2R 1T5",
                        "locality": "Montreal",
                        "postcode": "H2R 1T5",
                        "region": "QC"
                  },
                  "name": "Ligne Rouge Souvlaki",
                  "popularity": 0.9433904239212718,
                  "price": 1,
                  "rating": 7.3
            },
            {
                  "distance": 961,
                  "location": {
                        "address": "244 Pl du March\u00e9-du-Nord",
                        "country": "CA",
                        "cross_street": "Marche Jean-Talon",
                        "formatted_address": "244 Pl du March\u00e9-du-Nord (Marche Jean-Talon), Montr\u00e9al QC H2S 1A1",
                        "locality": "Montreal",
                        "postcode": "H2S 1A1",
                        "region": "QC"
                  },
                  "name": "William J Walter",
                  "popularity": 0.4147307910673732,
                  "rating": 7.1
            },
            {
                  "distance": 910,
                  "location": {
                        "address": "8297 Saint-Dominique Rue",
                        "country": "CA",
                        "cross_street": "coin Guizot Est",
                        "formatted_address": "8297 Saint-Dominique Rue (coin Guizot Est), Montr\u00e9al QC H2P 2L2",
                        "locality": "Montreal",
                        "postcode": "H2P 2L2",
                        "region": "QC"
                  },
                  "name": "Restaurant le Coin G",
                  "popularity": 0.9301428841786525,
                  "price": 3,
                  "rating": 7.1
            },
            {
                  "distance": 472,
                  "location": {
                        "address": "552 Jarry Rue E",
                        "country": "CA",
                        "cross_street": "coin Lajeunesse",
                        "formatted_address": "552 Jarry Rue E (coin Lajeunesse), Montr\u00e9al QC H2P 1V5",
                        "locality": "Montreal",
                        "postcode": "H2P 1V5",
                        "region": "QC"
                  },
                  "name": "Taverne Jarry",
                  "popularity": 0.8387940007570023,
                  "price": 2,
                  "rating": 6.7
            },
            {
                  "distance": 768,
                  "location": {
                        "address": "323 Jean-Talon Rue E",
                        "country": "CA",
                        "cross_street": "entre Drolet & Henri-Julien",
                        "formatted_address": "323 Jean-Talon Rue E (entre Drolet & Henri-Julien), Montr\u00e9al QC H2R 1T2",
                        "locality": "Montreal",
                        "postcode": "H2R 1T2",
                        "region": "QC"
                  },
                  "name": "Tim Hortons",
                  "popularity": 0.9721683383800152,
                  "price": 1,
                  "rating": 6.6
            },
            {
                  "distance": 975,
                  "location": {
                        "address": "236 Pl du Marche du Nord",
                        "country": "CA",
                        "cross_street": "",
                        "formatted_address": "236 Pl du Marche du Nord, Montr\u00e9al QC H2S 1A1",
                        "locality": "Montreal",
                        "postcode": "H2S 1A1",
                        "region": "QC"
                  },
                  "name": "Le Caf\u00e9 du March\u00e9",
                  "popularity": 0.9081306775170326,
                  "price": 1,
                  "rating": 6.6
            },
            {
                  "distance": 813,
                  "location": {
                        "address": "1280 Jarry Rue E",
                        "country": "CA",
                        "cross_street": "",
                        "formatted_address": "1280 Jarry Rue E, Montr\u00e9al QC H2P 1X1",
                        "locality": "Montreal",
                        "postcode": "H2P 1X1",
                        "region": "QC"
                  },
                  "name": "Subway",
                  "popularity": 0.9300955715367146,
                  "price": 1,
                  "rating": 6.4,
                  "store_id": "26612"
            },
            {
                  "distance": 840,
                  "location": {
                        "address": "196 Jean-Talon Rue E",
                        "country": "CA",
                        "cross_street": "",
                        "formatted_address": "196 Jean-Talon Rue E, Montr\u00e9al QC H2R 1S7",
                        "locality": "Montreal",
                        "postcode": "H2R 1S7",
                        "region": "QC"
                  },
                  "name": "Juliette et Chocolat",
                  "popularity": 0.8424607305071915,
                  "price": 1,
                  "rating": 5.7
            },
            {
                  "distance": 775,
                  "location": {
                        "address": "7275 Saint Laurent Blvd",
                        "country": "CA",
                        "cross_street": "coin De Castelnau",
                        "formatted_address": "7275 Saint Laurent Blvd (coin De Castelnau), Montr\u00e9al QC H2R 1W5",
                        "locality": "Montreal",
                        "postcode": "H2R 1W5",
                        "region": "QC"
                  },
                  "name": "McDonald's",
                  "popularity": 0.9951504542013626,
                  "price": 1,
                  "rating": 4.8,
                  "store_id": "7956"
            },
            {
                  "distance": 274,
                  "location": {
                        "address": "7614 Saint-Hubert Rue",
                        "country": "CA",
                        "cross_street": "",
                        "formatted_address": "7614 Saint-Hubert Rue, Montr\u00e9al QC H2R 2N6",
                        "locality": "Montreal",
                        "postcode": "H2R 2N6",
                        "region": "QC"
                  },
                  "name": "Pizzellicoq Restaurant",
                  "popularity": 0.8172076078728236,
                  "price": 2
            },
            {
                  "distance": 281,
                  "location": {
                        "address": "426 Faillon Rue E",
                        "country": "CA",
                        "cross_street": "Berri",
                        "formatted_address": "426 Faillon Rue E (Berri), Montr\u00e9al QC H2R 1L4",
                        "locality": "Montreal",
                        "postcode": "H2R 1L4",
                        "region": "QC"
                  },
                  "name": "Caf\u00e9 Coquetel",
                  "popularity": 0.9526873580620742,
                  "price": 1
            },
            {
                  "distance": 477,
                  "location": {
                        "address": "608 Jarry E",
                        "country": "CA",
                        "cross_street": "",
                        "formatted_address": "608 Jarry E, Montr\u00e9al QC H2P 1V7",
                        "locality": "Montreal",
                        "postcode": "H2P 1V7",
                        "region": "QC"
                  },
                  "name": "B\u00eap",
                  "popularity": 0.8465887585162756,
                  "price": 2
            },
            {
                  "distance": 537,
                  "location": {
                        "address": "751 Jarry Rue E",
                        "country": "CA",
                        "cross_street": "",
                        "formatted_address": "751 Jarry Rue E, Montr\u00e9al QC H2P 1W3",
                        "locality": "Montreal",
                        "postcode": "H2P 1W3",
                        "region": "QC"
                  },
                  "name": "Fanfare Jarry",
                  "popularity": 0.9510314155942468,
                  "price": 1
            },
            {
                  "distance": 539,
                  "location": {
                        "address": "8099 Saint-Hubert Rue",
                        "country": "CA",
                        "cross_street": "Jarry",
                        "formatted_address": "8099 Saint-Hubert Rue (Jarry), Montr\u00e9al QC H2R 2P4",
                        "locality": "Montreal",
                        "postcode": "H2R 2P4",
                        "region": "QC"
                  },
                  "name": "Lokma P\u00e2tisserie-Caf\u00e9",
                  "popularity": 0.8353874905374716,
                  "price": 1
            },
            {
                  "distance": 622,
                  "location": {
                        "address": "7245 Saint-Hubert Rue",
                        "country": "CA",
                        "cross_street": "",
                        "formatted_address": "7245 Saint-Hubert Rue, Montr\u00e9al QC H2R 2N2",
                        "locality": "Montreal",
                        "postcode": "H2R 2N2",
                        "region": "QC"
                  },
                  "name": "Restaurant Pachamama",
                  "popularity": 0.9621025738077215,
                  "price": 2
            },
            {
                  "distance": 652,
                  "location": {
                        "address": "7217 Saint-Hubert Rue",
                        "country": "CA",
                        "cross_street": "De Castelnau",
                        "formatted_address": "7217 Saint-Hubert Rue (De Castelnau), Montr\u00e9al QC H2R 2N2",
                        "locality": "Montreal",
                        "postcode": "H2R 2N2",
                        "region": "QC"
                  },
                  "name": "Les Importations Eche",
                  "popularity": 0.9637585162755489,
                  "price": 1
            },
            {
                  "distance": 780,
                  "location": {
                        "address": "371 Guizot Rue E",
                        "country": "CA",
                        "cross_street": "",
                        "formatted_address": "371 Guizot Rue E, Montreal QC H2P 1M7",
                        "locality": "Montreal",
                        "postcode": "H2P 1M7",
                        "region": "QC"
                  },
                  "name": "Restaurant Per Te",
                  "popularity": 0.8577663701741105,
                  "price": 2
            },
            {
                  "distance": 792,
                  "location": {
                        "address": "360 Jean-Talon Rue E",
                        "country": "CA",
                        "cross_street": "",
                        "formatted_address": "360 Jean-Talon Rue E, Montr\u00e9al QC H2R 1T3",
                        "locality": "Montreal",
                        "postcode": "H2R 1T3",
                        "region": "QC"
                  },
                  "name": "PHO Jean-Talon",
                  "popularity": 0.9650714420893263,
                  "price": 2
            },
            {
                  "distance": 823,
                  "location": {
                        "address": "7093 Saint-Denis Rue",
                        "country": "CA",
                        "cross_street": "Jean-Talon",
                        "formatted_address": "7093 Saint-Denis Rue (Jean-Talon), Montr\u00e9al QC H2S 2S5",
                        "locality": "Montreal",
                        "postcode": "H2S 2S5",
                        "region": "QC"
                  },
                  "name": "Thaison 1997",
                  "popularity": 0.8101461960635882,
                  "price": 2
            },
            {
                  "distance": 870,
                  "location": {
                        "address": "1370 Villeray Rue",
                        "country": "CA",
                        "cross_street": "",
                        "formatted_address": "1370 Villeray Rue, Montr\u00e9al QC H2E 1G6",
                        "locality": "Montreal",
                        "postcode": "H2E 1G6",
                        "region": "QC"
                  },
                  "name": "Tabac",
                  "popularity": 0.9707489591218774,
                  "price": 1
            },
            {
                  "distance": 893,
                  "location": {
                        "address": "7046 Saint-Hubert Rue",
                        "country": "CA",
                        "cross_street": "",
                        "formatted_address": "7046 Saint-Hubert Rue, Montr\u00e9al QC H2S 2M9",
                        "locality": "Montreal",
                        "postcode": "H2S 2M9",
                        "region": "QC"
                  },
                  "name": "Domino's Pizza",
                  "popularity": 0.9229868470855412,
                  "price": 1,
                  "store_id": "10710"
            }
      ],
      "context": {
            "geo_bounds": {
                  "circle": {
                        "center": {
                              "latitude": 45.54218174,
                              "longitude": -73.62268656
                        },
                        "radius": 1000
                  }
            }
      }
}