{
      "results": [
            {
                  "distance": 850,
                  "location": {
                        "address": "7669 Centrale Rue",
                        "country": "CA",
                        "cross_street": "",
                        "formatted_address": "7669 Centrale Rue, Lasalle QC H8P 1L4",
                        "locality": "Lasalle",
                        "postcode": "H8P 1L4",
                        "region": "QC"
                  },
                  "name": "Restaurant Dani's Pizzeria",
                  "popularity": 0.9778340272520818,
                  "price": 1,
                  "rating": 7.4
            },
            {
                  "distance": 97,
                  "location": {
                        "address": "1111 Lapierre Rue",
                        "country": "CA",
                        "cross_street": "",
                        "formatted_address": "1111 Lapierre Rue, Lasalle QC H8N 2J4",
                        "locality": "Lasalle",
                        "postcode": "H8N 2J4",
                        "region": "QC"
                  },
                  "name": "Caf\u00e9-Inn",
                  "popularity": 0.37420751324753976
            },
            {
                  "distance": 500,
                  "location": {
                        "address": "1701 Lapierre Rue",
                        "country": "CA",
                        "cross_street": "at Jean-Chevalier",
                        "formatted_address": "1701 Lapierre Rue (at Jean-Chevalier), Lasalle QC H8N 2M4",
                        "locality": "Lasalle",
                        "postcode": "H8N 2M4",
                        "region": "QC"
                  },
                  "name": "Caf\u00e9 Pete'S Bar",
                  "popularity": 0.01359055639666919,
                  "price": 1
            },
            {
                  "distance": 563,
                  "location": {
                        "address": "7824 Champlain Blvd",
                        "country": "CA",
                        "cross_street": "Bishop Power",
                        "formatted_address": "7824 Champlain Blvd (Bishop Power), Lasalle QC H8P 1B3",
                        "locality": "Lasalle",
                        "postcode": "H8P 1B3",
                        "region": "QC"
                  },
                  "name": "Rabu Sushi",
                  "popularity": 0.23037708175624527,
                  "price": 2
            },
            {
                  "distance": 602,
                  "location": {
                        "address": "2000 Lapierre Rue",
                        "country": "CA",
                        "cross_street": "",
                        "formatted_address": "2000 Lapierre Rue, Lasalle QC H8N 1A9",
                        "locality": "Lasalle",
                        "postcode": "H8N 1A9",
                        "region": "QC"
                  },
                  "name": "Agence de Q-Bec Service a Cafe",
                  "popularity": 0.48881056018168056
            },
            {
                  "distance": 715,
                  "location": {
                        "address": "2046 Lapierre Rue",
                        "country": "CA",
                        "cross_street": "",
                        "formatted_address": "2046 Lapierre Rue, Lasalle QC H8N 2S2",
                        "locality": "Lasalle",
                        "postcode": "H8N 2S2",
                        "region": "QC"
                  },
                  "name": "Sous le Palmier",
                  "popularity": 0.6252365632096897,
                  "price": 2
            },
            {
                  "distance": 719,
                  "location": {
                        "address": "2042 Lapierre Rue",
                        "country": "CA",
                        "cross_street": "",
                        "formatted_address": "2042 Lapierre Rue, Montr\u00e9al QC H8N 2S2",
                        "locality": "Montreal",
                        "postcode": "H8N 2S2",
                        "region": "QC"
                  },
                  "name": "Viana Grillades Portugaises",
                  "popularity": 0.978307153671461,
                  "price": 2
            },
            {
                  "distance": 877,
                  "location": {
                        "address": "7685 Centrale Rue",
                        "country": "CA",
                        "cross_street": "",
                        "formatted_address": "7685 Centrale Rue, Lasalle QC H8P 1L7",
                        "locality": "Lasalle",
                        "postcode": "H8P 1L7",
                        "region": "QC"
                  },
                  "name": "Eviza Cafe",
                  "popularity": 0.9806609576078729,
                  "price": 1
            },
            {
                  "distance": 925,
                  "location": {
                        "address": "7814 Champlain Blvd",
                        "country": "CA",
                        "cross_street": "",
                        "formatted_address": "7814 Champlain Blvd, Lasalle QC H8P 1B3",
                        "locality": "Lasalle",
                        "postcode": "H8P 1B3",
                        "region": "QC"
                  },
                  "name": "Subway",
                  "popularity": 0.9309945117335352,
                  "price": 1,
                  "store_id": "#25147"
            },
            {
                  "distance": 528,
                  "location": {
                        "address": "1701 Lapierre Rue",
                        "country": "CA",
                        "formatted_address": "1701 Lapierre Rue, Lasalle QC H8N 2M4",
                        "locality": "Lasalle",
                        "postcode": "H8N 2M4",
                        "region": "QC"
                  },
                  "name": "RESTO CAFE O'Connor's"
            },
            {
                  "distance": 648,
                  "location": {
                        "address": "2019 Lapierre Rue",
                        "country": "CA",
                        "formatted_address": "2019 Lapierre Rue, Lasalle QC H8N 1B1",
                        "locality": "Lasalle",
                        "postcode": "H8N 1B1",
                        "region": "QC"
                  },
                  "name": "Marach Ice Cream and Coffee Inc"
            },
            {
                  "distance": 737,
                  "location": {
                        "address": "2046 Lapierre Rue",
                        "country": "CA",
                        "formatted_address": "2046 Lapierre Rue, Lasalle QC H8N 2S2",
                        "locality": "Lasalle",
                        "postcode": "H8N 2S2",
                        "region": "QC"
                  },
                  "name": "Caffe Lupo"
            },
            {
                  "distance": 747,
                  "location": {
                        "address": "7546 Centrale Rue",
                        "country": "CA",
                        "formatted_address": "7546 Centrale Rue, Lasalle QC H8P 1K3",
                        "locality": "Lasalle",
                        "postcode": "H8P 1K3",
                        "region": "QC"
                  },
                  "name": "Le Bronx Grill"
            },
            {
                  "distance": 794,
                  "location": {
                        "address": "7610 Centrale Rue",
                        "country": "CA",
                        "formatted_address": "7610 Centrale Rue, Lasalle QC H8P 1K9",
                        "locality": "Lasalle",
                        "postcode": "H8P 1K9",
                        "region": "QC"
                  },
                  "name": "Centrale Pizzeria"
            },
            {
                  "distance": 801,
                  "location": {
                        "address": "7610 Centrale Rue",
                        "country": "CA",
                        "formatted_address": "7610 Centrale Rue, Montreal QC",
                        "locality": "Montreal",
                        "region": "QC"
                  },
                  "name": "Centrales"
            },
            {
                  "distance": 803,
                  "location": {
                        "address": "7624 Centrale Rue",
                        "country": "CA",
                        "formatted_address": "7624 Centrale Rue, Lasalle QC H8P 1K9",
                        "locality": "Lasalle",
                        "postcode": "H8P 1K9",
                        "region": "QC"
                  },
                  "name": "Restaurant Central 75"
            },
            {
                  "distance": 810,
                  "location": {
                        "address": "7624 Centrale Rue",
                        "country": "CA",
                        "formatted_address": "7624 Centrale Rue, Lasalle QC H8P 1K9",
                        "locality": "Lasalle",
                        "postcode": "H8P 1K9",
                        "region": "QC"
                  },
                  "name": "Restaurant Kim"
            },
            {
                  "distance": 837,
                  "location": {
                        "address": "189 8e Ave",
                        "country": "CA",
                        "formatted_address": "189 8e Ave, Lasalle QC H8P 2M9",
                        "locality": "Lasalle",
                        "postcode": "H8P 2M9",
                        "region": "QC"
                  },
                  "name": "Pott's Pastries"
            },
            {
                  "distance": 885,
                  "location": {
                        "address": "7695 Centrale Rue",
                        "country": "CA",
                        "formatted_address": "7695 Centrale Rue, Lasalle QC H8P 1L7",
                        "locality": "Lasalle",
                        "postcode": "H8P 1L7",
                        "region": "QC"
                  },
                  "name": "Almondo Pizzeria"
            },
            {
                  "distance": 917,
                  "location": {
                        "address": "7852 Champlain Blvd",
                        "country": "CA",
                        "formatted_address": "7852 Champlain Blvd, Lasalle QC H8P 1B3",
                        "locality": "Lasalle",
                        "postcode": "H8P 1B3",
                        "region": "QC"
                  },
                  "name": "Subway Place Lasalle"
            }
      ],
      "context": {
            "geo_bounds": {
                  "circle": {
                        "center": {
                              "latitude": 45.43605512,
                              "longitude": -73.60577524
                        },
                        "radius": 1000
                  }
            }
      }
}