{
      "results": [
            {
                  "distance": 970,
                  "location": {
                        "address": "6588 Monk Blvd",
                        "country": "CA",
                        "cross_street": "",
                        "formatted_address": "6588 Monk Blvd, Montr\u00e9al QC H4E 3J1",
                        "locality": "Montreal",
                        "postcode": "H4E 3J1",
                        "region": "QC"
                  },
                  "name": "Restaurant Pizza Nino",
                  "popularity": 0.9347795230885693,
                  "price": 4,
                  "rating": 7.9
            },
            {
                  "distance": 799,
                  "location": {
                        "address": "2376 Allard Rue",
                        "country": "CA",
                        "cross_street": "",
                        "formatted_address": "2376 Allard Rue, Montr\u00e9al QC H4E 2K9",
                        "locality": "Montreal",
                        "postcode": "H4E 2K9",
                        "region": "QC"
                  },
                  "name": "Caf\u00e9 Central",
                  "popularity": 0.9587906888720666,
                  "price": 1,
                  "rating": 7.8
            },
            {
                  "distance": 887,
                  "location": {
                        "address": "5810 Rue de Verdun",
                        "country": "CA",
                        "cross_street": "Manning",
                        "formatted_address": "5810 Rue de Verdun (Manning), Verdun QC H4H 1L9",
                        "locality": "Verdun",
                        "postcode": "H4H 1L9",
                        "region": "QC"
                  },
                  "name": "Frejus St Raphael Cafe",
                  "popularity": 0.9233535200605602,
                  "price": 1,
                  "rating": 7.4
            },
            {
                  "distance": 988,
                  "location": {
                        "address": "5561 Rue de Verdun",
                        "country": "CA",
                        "cross_street": "Egan",
                        "formatted_address": "5561 Rue de Verdun (Egan), Verdun QC H4H 1L2",
                        "locality": "Verdun",
                        "postcode": "H4H 1L2",
                        "region": "QC"
                  },
                  "name": "Restaurant Bingo Regd",
                  "popularity": 0.9477313588190764,
                  "price": 1,
                  "rating": 7.3
            },
            {
                  "distance": 878,
                  "location": {
                        "address": "2437 Allard Rue",
                        "country": "CA",
                        "cross_street": "Beaulieu",
                        "formatted_address": "2437 Allard Rue (Beaulieu), Montr\u00e9al QC H4E 2L3",
                        "locality": "Montreal",
                        "postcode": "H4E 2L3",
                        "region": "QC"
                  },
                  "name": "Gourmet Aldo",
                  "popularity": 0.8908024224072673,
                  "price": 1
            },
            {
                  "distance": 889,
                  "location": {
                        "address": "6688 Monk Blvd",
                        "country": "CA",
                        "cross_street": "Boul allard",
                        "formatted_address": "6688 Monk Blvd (Boul allard), Montr\u00e9al QC H4E 3J1",
                        "locality": "Montreal",
                        "postcode": "H4E 3J1",
                        "region": "QC"
                  },
                  "name": "Sports Rock Cafe",
                  "popularity": 0.9659230696442089
            },
            {
                  "distance": 976,
                  "location": {
                        "address": "5583 Rue de Verdun",
                        "country": "CA",
                        "cross_street": "",
                        "formatted_address": "5583 Rue de Verdun, Montr\u00e9al QC H4H 1L2",
                        "locality": "Montreal",
                        "postcode": "H4H 1L2",
                        "region": "QC"
                  },
                  "name": "Pizzeria Geppetto",
                  "popularity": 0.904333838001514,
                  "price": 2
            },
            {
                  "distance": 1029,
                  "location": {
                        "address": "6556 Monk Blvd",
                        "country": "CA",
                        "cross_street": "Springland",
                        "formatted_address": "6556 Monk Blvd (Springland), Montr\u00e9al QC H4E 3J1",
                        "locality": "Montreal",
                        "postcode": "H4E 3J1",
                        "region": "QC"
                  },
                  "name": "Ville-\u00c9mard Bagels",
                  "popularity": 0.8834689629068887,
                  "price": 1
            },
            {
                  "distance": 152,
                  "location": {
                        "address": "6300 Beurling Rue",
                        "country": "CA",
                        "formatted_address": "6300 Beurling Rue, Verdun QC H4H 1C8",
                        "locality": "Verdun",
                        "postcode": "H4H 1C8",
                        "region": "QC"
                  },
                  "name": "Les Grands Burlesques"
            },
            {
                  "distance": 466,
                  "location": {
                        "address": "7001 Blvd de la V\u00e9rendrye",
                        "country": "CA",
                        "formatted_address": "7001 Blvd de la V\u00e9rendrye, Montreal QC H4E 3R9",
                        "locality": "Montreal",
                        "postcode": "H4E 3R9",
                        "region": "QC"
                  },
                  "name": "Restaurant Pizzeria"
            },
            {
                  "distance": 475,
                  "location": {
                        "address": "7001 Blvd de la V\u00e9rendrye",
                        "country": "CA",
                        "formatted_address": "7001 Blvd de la V\u00e9rendrye, Montreal QC H4E 3R9",
                        "locality": "Montreal",
                        "postcode": "H4E 3R9",
                        "region": "QC"
                  },
                  "name": "La Verendrye"
            },
            {
                  "distance": 788,
                  "location": {
                        "address": "5433 Bannantyne Rue",
                        "country": "CA",
                        "formatted_address": "5433 Bannantyne Rue, Verdun QC H4H 1G1",
                        "locality": "Verdun",
                        "postcode": "H4H 1G1",
                        "region": "QC"
                  },
                  "name": "Frejus St Raphael Cafe"
            },
            {
                  "distance": 876,
                  "location": {
                        "address": "6723 Monk Blvd",
                        "country": "CA",
                        "formatted_address": "6723 Monk Blvd, Montreal QC H4E 3J2",
                        "locality": "Montreal",
                        "postcode": "H4E 3J2",
                        "region": "QC"
                  },
                  "name": "Yasolo Fine Epicerie Exotique"
            },
            {
                  "distance": 876,
                  "location": {
                        "address": "6717 Monk Blvd",
                        "country": "CA",
                        "formatted_address": "6717 Monk Blvd, Montreal QC H4E 3J2",
                        "locality": "Montreal",
                        "postcode": "H4E 3J2",
                        "region": "QC"
                  },
                  "name": "Kurde Pizza Restaurant"
            },
            {
                  "distance": 876,
                  "location": {
                        "address": "6723 Monk Blvd",
                        "country": "CA",
                        "formatted_address": "6723 Monk Blvd, Montreal QC H4E 3J2",
                        "locality": "Montreal",
                        "postcode": "H4E 3J2",
                        "region": "QC"
                  },
                  "name": "Maison Tsui Yuen"
            },
            {
                  "distance": 883,
                  "location": {
                        "address": "6717 Monk Blvd",
                        "country": "CA",
                        "formatted_address": "6717 Monk Blvd, Montreal QC H4E 3J2",
                        "locality": "Montreal",
                        "postcode": "H4E 3J2",
                        "region": "QC"
                  },
                  "name": "Restaurant Sizzles"
            },
            {
                  "distance": 903,
                  "location": {
                        "address": "5810 rue de Verdun",
                        "country": "CA",
                        "formatted_address": "5810 rue de Verdun, Verdun QC H4H 1L9",
                        "locality": "Verdun",
                        "postcode": "H4H 1L9",
                        "region": "QC"
                  },
                  "name": "Cafe Frejus"
            },
            {
                  "distance": 959,
                  "location": {
                        "address": "2600 Allard Rue",
                        "country": "CA",
                        "formatted_address": "2600 Allard Rue, Montreal QC H4E 2L6",
                        "locality": "Montreal",
                        "postcode": "H4E 2L6",
                        "region": "QC"
                  },
                  "name": "Au Rendez Vous Snack Bar"
            },
            {
                  "distance": 962,
                  "location": {
                        "address": "6574 Monk Blvd",
                        "country": "CA",
                        "formatted_address": "6574 Monk Blvd, Montreal QC H4E 3J1",
                        "locality": "Montreal",
                        "postcode": "H4E 3J1",
                        "region": "QC"
                  },
                  "name": "Caff\u00e8 Napoletana"
            }
      ],
      "context": {
            "geo_bounds": {
                  "circle": {
                        "center": {
                              "latitude": 45.44791581,
                              "longitude": -73.58381867
                        },
                        "radius": 1000
                  }
            }
      }
}