{
      "results": [
            {
                  "distance": 286,
                  "location": {
                        "address": "5252 Pare Rue",
                        "country": "CA",
                        "cross_street": "Decarie",
                        "formatted_address": "5252 Pare Rue (Decarie), Montr\u00e9al QC H4P 1P5",
                        "locality": "Montreal",
                        "postcode": "H4P 1P5",
                        "region": "QC"
                  },
                  "name": "Epicure Market",
                  "popularity": 0.9847535011355034,
                  "rating": 8.7
            },
            {
                  "distance": 632,
                  "location": {
                        "address": "8105 Decarie Blvd",
                        "country": "CA",
                        "cross_street": "",
                        "formatted_address": "8105 Decarie Blvd, Montr\u00e9al QC H4P 2H5",
                        "locality": "Montreal",
                        "postcode": "H4P 2H5",
                        "region": "QC"
                  },
                  "name": "Rib'N Reef Steakhouse",
                  "popularity": 0.9391914269492808,
                  "price": 4,
                  "rating": 8.4,
                  "store_id": "1020-048"
            },
            {
                  "distance": 259,
                  "location": {
                        "address": "7700 Decarie Blvd",
                        "country": "CA",
                        "cross_street": "coin Par\u00e9",
                        "formatted_address": "7700 Decarie Blvd (coin Par\u00e9), Montr\u00e9al QC H4P 2H4",
                        "locality": "Montreal",
                        "postcode": "H4P 2H4",
                        "region": "QC"
                  },
                  "name": "Gibeau Orange Julep",
                  "popularity": 0.9949966881150644,
                  "price": 1,
                  "rating": 8.3
            },
            {
                  "distance": 879,
                  "location": {
                        "address": "6892 Victoria Ave",
                        "country": "CA",
                        "formatted_address": "6892 Victoria Ave, Montr\u00e9al QC H3W 2T4",
                        "locality": "Montreal",
                        "postcode": "H3W 2T4",
                        "region": "QC"
                  },
                  "name": "Caribbean Curry House",
                  "popularity": 0.9865986941710825,
                  "price": 2,
                  "rating": 8.3
            },
            {
                  "distance": 38,
                  "location": {
                        "address": "7340 Decarie Blvd",
                        "country": "CA",
                        "cross_street": "Rue des Jockeys",
                        "formatted_address": "7340 Decarie Blvd (Rue des Jockeys), Montr\u00e9al QC H4P 2N1",
                        "locality": "Montreal",
                        "postcode": "H4P 2N1",
                        "region": "QC"
                  },
                  "name": "Wendy's",
                  "popularity": 0.9891535768357305,
                  "price": 1,
                  "rating": 8.2,
                  "store_id": "6663"
            },
            {
                  "distance": 88,
                  "location": {
                        "address": "5385 des Jockeys Rue",
                        "country": "CA",
                        "formatted_address": "5385 des Jockeys Rue, Montr\u00e9al QC H4P 2T8",
                        "locality": "Montreal",
                        "postcode": "H4P 2T8",
                        "region": "QC"
                  },
                  "name": "B\u00e2ton Rouge Steakhouse & Bar",
                  "popularity": 0.9934353709311128,
                  "price": 3,
                  "rating": 7.9,
                  "store_id": "4016"
            },
            {
                  "distance": 380,
                  "location": {
                        "address": "5195 Pare Rue",
                        "country": "CA",
                        "cross_street": "at Mountain Sights Ave.",
                        "formatted_address": "5195 Pare Rue (at Mountain Sights Ave.), Montr\u00e9al QC H4P 1P4",
                        "locality": "Montreal",
                        "postcode": "H4P 1P4",
                        "region": "QC"
                  },
                  "name": "Pushap Sweets",
                  "popularity": 0.9667746971990916,
                  "price": 1,
                  "rating": 7.8
            },
            {
                  "distance": 107,
                  "location": {
                        "address": "5375 des Jockeys Rue",
                        "address_extended": "H003",
                        "country": "CA",
                        "cross_street": "",
                        "formatted_address": "5375 des Jockeys Rue, Montr\u00e9al QC H4P 2T8",
                        "locality": "Montreal",
                        "postcode": "H4P 2T8",
                        "region": "QC"
                  },
                  "name": "Subway",
                  "popularity": 0.8838238077214232,
                  "price": 1,
                  "rating": 7.1,
                  "store_id": "#25494"
            },
            {
                  "distance": 544,
                  "location": {
                        "address": "8000 Decarie Blvd",
                        "address_extended": "Ferrier",
                        "country": "CA",
                        "cross_street": "Ferrier",
                        "formatted_address": "8000 Decarie Blvd (Ferrier), Montr\u00e9al QC H4P 2S4",
                        "locality": "Montreal",
                        "postcode": "H4P 2S4",
                        "region": "QC"
                  },
                  "name": "La Prep",
                  "popularity": 0.939120457986374,
                  "price": 1,
                  "rating": 7.0
            },
            {
                  "distance": 877,
                  "location": {
                        "address": "6415 Decarie Blvd",
                        "country": "CA",
                        "cross_street": "",
                        "formatted_address": "6415 Decarie Blvd, Montr\u00e9al QC H3W 3E1",
                        "locality": "Montreal",
                        "postcode": "H3W 3E1",
                        "region": "QC"
                  },
                  "name": "Pizza Pita",
                  "popularity": 0.8919970666161998,
                  "price": 1,
                  "rating": 7.0
            },
            {
                  "distance": 78,
                  "location": {
                        "address": "5300 Jean-Talon Rue O",
                        "country": "CA",
                        "cross_street": "",
                        "formatted_address": "5300 Jean-Talon Rue O, Montr\u00e9al QC H4P 2T5",
                        "locality": "Montreal",
                        "postcode": "H4P 2T5",
                        "region": "QC"
                  },
                  "name": "Burger King",
                  "popularity": 0.9929267600302801,
                  "price": 1,
                  "rating": 6.8,
                  "store_id": "8497"
            },
            {
                  "distance": 50,
                  "location": {
                        "address": "7340 Decarie Blvd",
                        "country": "CA",
                        "cross_street": "Jean-Talon",
                        "formatted_address": "7340 Decarie Blvd (Jean-Talon), Montr\u00e9al QC H4P 2N1",
                        "locality": "Montreal",
                        "postcode": "H4P 2N1",
                        "region": "QC"
                  },
                  "name": "Tim Hortons",
                  "popularity": 0.9927611657834974,
                  "price": 1,
                  "rating": 6.7
            },
            {
                  "distance": 210,
                  "location": {
                        "address": "7373 Decarie Blvd",
                        "country": "CA",
                        "cross_street": "",
                        "formatted_address": "7373 Decarie Blvd, Montr\u00e9al QC H4P 2G8",
                        "locality": "Montreal",
                        "postcode": "H4P 2G8",
                        "region": "QC"
                  },
                  "name": "Kanda Sushi Bar",
                  "popularity": 0.978602857683573,
                  "price": 2,
                  "rating": 6.5
            },
            {
                  "distance": 213,
                  "location": {
                        "address": "5510 Jean-Talon Rue O",
                        "address_extended": "SmartCentres Montreal Decarie",
                        "country": "CA",
                        "cross_street": "",
                        "formatted_address": "5510 Jean-Talon Rue O, Montr\u00e9al QC H4P 2T5",
                        "locality": "Montreal",
                        "postcode": "H4P 2T5",
                        "region": "QC"
                  },
                  "name": "Thai Express",
                  "popularity": 0.9781888720666162,
                  "price": 2,
                  "rating": 6.4
            },
            {
                  "distance": 305,
                  "location": {
                        "address": "7657 Decarie Blvd",
                        "country": "CA",
                        "cross_street": "",
                        "formatted_address": "7657 Decarie Blvd, Montr\u00e9al QC H4P 2H2",
                        "locality": "Montreal",
                        "postcode": "H4P 2H2",
                        "region": "QC"
                  },
                  "name": "Eggspectation",
                  "popularity": 0.9632144208932627,
                  "price": 1,
                  "rating": 6.2
            },
            {
                  "distance": 171,
                  "location": {
                        "address": "7475 Decarie Blvd",
                        "country": "CA",
                        "cross_street": "",
                        "formatted_address": "7475 Decarie Blvd, Montr\u00e9al QC H4P 2G9",
                        "locality": "Montreal",
                        "postcode": "H4P 2G9",
                        "region": "QC"
                  },
                  "name": "Harvey's",
                  "popularity": 0.9934235427706283,
                  "price": 2,
                  "rating": 6.1,
                  "store_id": "2346"
            },
            {
                  "distance": 188,
                  "location": {
                        "address": "7555 Decarie Blvd",
                        "country": "CA",
                        "cross_street": "",
                        "formatted_address": "7555 Decarie Blvd, Montreal QC H4P 2G9",
                        "locality": "Montreal",
                        "postcode": "H4P 2G9",
                        "region": "QC"
                  },
                  "name": "La Belle Province",
                  "popularity": 0.9688682816048448,
                  "price": 1,
                  "rating": 5.8
            },
            {
                  "distance": 165,
                  "location": {
                        "address": "7570 Decarie Blvd",
                        "country": "CA",
                        "formatted_address": "7570 Decarie Blvd, Montr\u00e9al QC H4P 2N1",
                        "locality": "Montreal",
                        "postcode": "H4P 2N1",
                        "region": "QC"
                  },
                  "name": "McDonald's",
                  "popularity": 0.9980010408781226,
                  "price": 1,
                  "rating": 5.4,
                  "store_id": "40220"
            },
            {
                  "distance": 73,
                  "location": {
                        "address": "5405 des Jockeys Rue",
                        "address_extended": "Unit E2",
                        "country": "CA",
                        "cross_street": "",
                        "formatted_address": "5405 des Jockeys Rue, Montr\u00e9al QC H4P 2T7",
                        "locality": "Montreal",
                        "postcode": "H4P 2T7",
                        "region": "QC"
                  },
                  "name": "All\u00f4! Mon Coco",
                  "popularity": 0.9835233724451173,
                  "price": 1
            },
            {
                  "distance": 144,
                  "location": {
                        "address": "7507 Decarie Blvd",
                        "country": "CA",
                        "cross_street": "",
                        "formatted_address": "7507 Decarie Blvd, Montr\u00e9al QC H4P 2G9",
                        "locality": "Montreal",
                        "postcode": "H4P 2G9",
                        "region": "QC"
                  },
                  "name": "Sexe d'Or",
                  "popularity": 0.029002649507948525,
                  "price": 3
            },
            {
                  "distance": 154,
                  "location": {
                        "address": "5475 des Jockeys Rue",
                        "country": "CA",
                        "cross_street": "",
                        "formatted_address": "5475 des Jockeys Rue, Montr\u00e9al QC H4P 2T7",
                        "locality": "Montreal",
                        "postcode": "H4P 2T7",
                        "region": "QC"
                  },
                  "name": "Bomboloni Boss",
                  "popularity": 0.7915404996214989,
                  "price": 1
            },
            {
                  "distance": 180,
                  "location": {
                        "address": "5485 des Jockeys Rue",
                        "country": "CA",
                        "cross_street": "",
                        "formatted_address": "5485 des Jockeys Rue, Montr\u00e9al QC H4P 2T7",
                        "locality": "Montreal",
                        "postcode": "H4P 2T7",
                        "region": "QC"
                  },
                  "name": "La Cage",
                  "popularity": 0.9657574753974262,
                  "price": 2
            },
            {
                  "distance": 328,
                  "location": {
                        "address": "5150 Jean-Talon Rue O",
                        "country": "CA",
                        "cross_street": "Mountain sights",
                        "formatted_address": "5150 Jean-Talon Rue O (Mountain sights), Montr\u00e9al QC H4P 1W9",
                        "locality": "Montreal",
                        "postcode": "H4P 1W9",
                        "region": "QC"
                  },
                  "name": "Boustan",
                  "popularity": 0.9758587244511734,
                  "price": 2
            },
            {
                  "distance": 340,
                  "location": {
                        "address": "7657 Decarie Blvd",
                        "country": "CA",
                        "cross_street": "Par\u00e9",
                        "formatted_address": "7657 Decarie Blvd (Par\u00e9), Montr\u00e9al QC H4P 2H2",
                        "locality": "Montreal",
                        "postcode": "H4P 2H2",
                        "region": "QC"
                  },
                  "name": "Otago",
                  "popularity": 0.5239638531415595,
                  "price": 2
            },
            {
                  "distance": 371,
                  "location": {
                        "address": "5195 Par\u00e9",
                        "country": "CA",
                        "cross_street": "Mountain Sights",
                        "formatted_address": "5195 Par\u00e9 (Mountain Sights), Saint-Laurent QC",
                        "locality": "Saint-Laurent",
                        "region": "QC"
                  },
                  "name": "Restaurant Pushab",
                  "popularity": 0.9359386828160484,
                  "price": 2
            },
            {
                  "distance": 467,
                  "location": {
                        "address": "7965 Decarie Blvd",
                        "country": "CA",
                        "cross_street": "",
                        "formatted_address": "7965 Decarie Blvd, Montr\u00e9al QC H4P 2H5",
                        "locality": "Montreal",
                        "postcode": "H4P 2H5",
                        "region": "QC"
                  },
                  "name": "Arahova",
                  "popularity": 0.9576551854655564,
                  "price": 2
            },
            {
                  "distance": 489,
                  "location": {
                        "address": "6900 Decarie Blvd",
                        "address_extended": "M240",
                        "country": "CA",
                        "cross_street": "",
                        "formatted_address": "6900 Decarie Blvd, Montr\u00e9al QC H3X 2T8",
                        "locality": "Montreal",
                        "postcode": "H3X 2T8",
                        "region": "QC"
                  },
                  "name": "Elna Bistro",
                  "popularity": 0.96875
            },
            {
                  "distance": 497,
                  "location": {
                        "address": "6939 Blvd D\u00e9carie",
                        "country": "CA",
                        "cross_street": "",
                        "formatted_address": "6939 Blvd D\u00e9carie, Montr\u00e9al QC H3W 3C1",
                        "locality": "Montreal",
                        "postcode": "H3W 3C1",
                        "region": "QC"
                  },
                  "name": "Blandino",
                  "popularity": 0.9300600870552612,
                  "price": 2
            },
            {
                  "distance": 687,
                  "location": {
                        "address": "5605 Pare Rue",
                        "country": "CA",
                        "cross_street": "Devonshire",
                        "formatted_address": "5605 Pare Rue (Devonshire), Mont-Royal QC H4P 1P7",
                        "locality": "Mont-Royal",
                        "postcode": "H4P 1P7",
                        "region": "QC"
                  },
                  "name": "Maison Mash",
                  "popularity": 0.8280658591975776,
                  "price": 1
            },
            {
                  "distance": 754,
                  "location": {
                        "address": "5473 Royalmount Ave",
                        "country": "CA",
                        "cross_street": "",
                        "formatted_address": "5473 Royalmount Ave, Mont-Royal QC H4P 1J3",
                        "locality": "Mont-Royal",
                        "postcode": "H4P 1J3",
                        "region": "QC"
                  },
                  "name": "Cafe Royale",
                  "popularity": 0.28242098788796366,
                  "price": 2
            },
            {
                  "distance": 882,
                  "location": {
                        "address": "6400 Decarie Blvd",
                        "country": "CA",
                        "cross_street": "",
                        "formatted_address": "6400 Decarie Blvd, Montr\u00e9al QC H3X 2K2",
                        "locality": "Montreal",
                        "postcode": "H3X 2K2",
                        "region": "QC"
                  },
                  "name": "California Pizza",
                  "popularity": 0.9562121498864496,
                  "price": 1
            },
            {
                  "distance": 147,
                  "location": {
                        "address": "5372 Jean Talon Rue O",
                        "country": "CA",
                        "formatted_address": "5372 Jean Talon Rue O, Montreal QC H4P 2T5",
                        "locality": "Montreal",
                        "postcode": "H4P 2T5",
                        "region": "QC"
                  },
                  "name": "Classico Burger"
            },
            {
                  "distance": 187,
                  "location": {
                        "address": "5485 des Jockeys Rue",
                        "country": "CA",
                        "formatted_address": "5485 des Jockeys Rue, Montreal QC H4P 2T7",
                        "locality": "Montreal",
                        "postcode": "H4P 2T7",
                        "region": "QC"
                  },
                  "name": "P.F. Chang's China Bistro"
            },
            {
                  "distance": 334,
                  "location": {
                        "address": "7355 Mtn Sights Ave",
                        "country": "CA",
                        "formatted_address": "7355 Mtn Sights Ave, Montreal QC H4P 2A7",
                        "locality": "Montreal",
                        "postcode": "H4P 2A7",
                        "region": "QC"
                  },
                  "name": "Tokyo Sukiyaki Restaurant"
            },
            {
                  "distance": 449,
                  "location": {
                        "address": "6900 Decarie Blvd",
                        "country": "CA",
                        "formatted_address": "6900 Decarie Blvd, Cote Saint-Luc QC H3X 2T8",
                        "locality": "Cote Saint-Luc",
                        "postcode": "H3X 2T8",
                        "region": "QC"
                  },
                  "name": "Jilly's"
            }
      ],
      "context": {
            "geo_bounds": {
                  "circle": {
                        "center": {
                              "latitude": 45.49404432,
                              "longitude": -73.65449488
                        },
                        "radius": 1000
                  }
            }
      }
}