{
      "results": [
            {
                  "distance": 912,
                  "location": {
                        "address": "4005 Ontario Rue E",
                        "country": "CA",
                        "cross_street": "",
                        "formatted_address": "4005 Ontario Rue E, Montr\u00e9al QC H1W 1T1",
                        "locality": "Montreal",
                        "postcode": "H1W 1T1",
                        "region": "QC"
                  },
                  "name": "\u00c9tat-Major",
                  "popularity": 0.9057295609386828,
                  "price": 2,
                  "rating": 8.7
            },
            {
                  "distance": 910,
                  "location": {
                        "address": "4255 Ontario Rue E",
                        "country": "CA",
                        "cross_street": "",
                        "formatted_address": "4255 Ontario Rue E, Montr\u00e9al QC H1V 1K4",
                        "locality": "Montreal",
                        "postcode": "H1V 1K4",
                        "region": "QC"
                  },
                  "name": "H\u00e9licopt\u00e8re",
                  "popularity": 0.910744700984103,
                  "price": 2,
                  "rating": 8.6
            },
            {
                  "distance": 913,
                  "location": {
                        "address": "4271 Ontario Rue E",
                        "country": "CA",
                        "formatted_address": "4271 Ontario Rue E, Montr\u00e9al QC H1V 1K4",
                        "locality": "Montreal",
                        "postcode": "H1V 1K4",
                        "region": "QC"
                  },
                  "name": "L'Olive Noire",
                  "popularity": 0.8508114118092355,
                  "price": 2,
                  "rating": 8.4
            },
            {
                  "distance": 927,
                  "location": {
                        "address": "4317 Ontario Rue E",
                        "country": "CA",
                        "cross_street": "Letourneux",
                        "formatted_address": "4317 Ontario Rue E (Letourneux), Montr\u00e9al QC H1V 1K5",
                        "locality": "Montreal",
                        "postcode": "H1V 1K5",
                        "region": "QC"
                  },
                  "name": "Les gourmandises de Marie-Antoinette",
                  "popularity": 0.9419828728236185,
                  "price": 2,
                  "rating": 8.3
            },
            {
                  "distance": 192,
                  "location": {
                        "address": "3974 Pierre de Coubertin Ave",
                        "country": "CA",
                        "cross_street": "",
                        "formatted_address": "3974 Pierre de Coubertin Ave, Montr\u00e9al QC H1W 1E7",
                        "locality": "Montreal",
                        "postcode": "H1W 1E7",
                        "region": "QC"
                  },
                  "name": "Fusion Express",
                  "popularity": 0.9321300151400455,
                  "price": 2,
                  "rating": 8.0
            },
            {
                  "distance": 379,
                  "location": {
                        "address": "3971 Hochelaga Rue",
                        "country": "CA",
                        "cross_street": "",
                        "formatted_address": "3971 Hochelaga Rue, Montr\u00e9al QC H1W 1K2",
                        "locality": "Montreal",
                        "postcode": "H1W 1K2",
                        "region": "QC"
                  },
                  "name": "Poutine Centrale",
                  "popularity": 0.9448807721423165,
                  "price": 2,
                  "rating": 7.9
            },
            {
                  "distance": 812,
                  "location": {
                        "address": "2225 Bennett Ave",
                        "country": "CA",
                        "cross_street": "",
                        "formatted_address": "2225 Bennett Ave, Montr\u00e9al QC H1V 2T4",
                        "locality": "Montreal",
                        "postcode": "H1V 2T4",
                        "region": "QC"
                  },
                  "name": "Hoche Glac\u00e9",
                  "popularity": 0.9444549583648751,
                  "price": 1,
                  "rating": 7.7
            },
            {
                  "distance": 899,
                  "location": {
                        "address": "4223 Ontario Rue E",
                        "country": "CA",
                        "cross_street": "coin Desjardins",
                        "formatted_address": "4223 Ontario Rue E (coin Desjardins), Montr\u00e9al QC H1V 1K2",
                        "locality": "Montreal",
                        "postcode": "H1V 1K2",
                        "region": "QC"
                  },
                  "name": "New Casa de la Pizza",
                  "popularity": 0.8993660105980318,
                  "price": 1,
                  "rating": 7.4
            },
            {
                  "distance": 982,
                  "location": {
                        "address": "25 Simon Valois Pl",
                        "country": "CA",
                        "cross_street": "coin Ontario",
                        "formatted_address": "25 Simon Valois Pl (coin Ontario), Montr\u00e9al QC H1W 0A6",
                        "locality": "Montreal",
                        "postcode": "H1W 0A6",
                        "region": "QC"
                  },
                  "name": "Le Valois",
                  "popularity": 0.8502436601059803,
                  "price": 2,
                  "rating": 7.4
            },
            {
                  "distance": 962,
                  "location": {
                        "address": "3882 Ontario Rue E",
                        "country": "CA",
                        "cross_street": "",
                        "formatted_address": "3882 Ontario Rue E, Montr\u00e9al QC H1W 1S6",
                        "locality": "Montreal",
                        "postcode": "H1W 1S6",
                        "region": "QC"
                  },
                  "name": "Le Blind Pig",
                  "popularity": 0.9555379447388342,
                  "price": 1,
                  "rating": 7.3
            },
            {
                  "distance": 966,
                  "location": {
                        "address": "3860 Ontario Rue E",
                        "country": "CA",
                        "cross_street": "Bourbonni\u00e8re",
                        "formatted_address": "3860 Ontario Rue E (Bourbonni\u00e8re), Montr\u00e9al QC H1W 1S4",
                        "locality": "Montreal",
                        "postcode": "H1W 1S4",
                        "region": "QC"
                  },
                  "name": "Restaurant la Pataterie Inc",
                  "popularity": 0.9558573050719152,
                  "price": 1,
                  "rating": 7.3
            },
            {
                  "distance": 924,
                  "location": {
                        "address": "3971 Ontario Rue E",
                        "country": "CA",
                        "cross_street": "coin Charlemagne",
                        "formatted_address": "3971 Ontario Rue E (coin Charlemagne), Montr\u00e9al QC H1W 1T1",
                        "locality": "Montreal",
                        "postcode": "H1W 1T1",
                        "region": "QC"
                  },
                  "name": "Le Tr\u00e8fle - Taverne Irlandaise",
                  "popularity": 0.9477668433005298,
                  "rating": 7.2
            },
            {
                  "distance": 880,
                  "location": {
                        "address": "2009 Ave de la Salle",
                        "country": "CA",
                        "cross_street": "",
                        "formatted_address": "2009 Ave de la Salle, Montr\u00e9al QC H1V 2K6",
                        "locality": "Montreal",
                        "postcode": "H1V 2K6",
                        "region": "QC"
                  },
                  "name": "H\u00e9lico",
                  "popularity": 0.9399366010598031,
                  "price": 1,
                  "rating": 6.9
            },
            {
                  "distance": 305,
                  "location": {
                        "address": "3929 Sherbrooke Rue E",
                        "country": "CA",
                        "cross_street": "Orleans",
                        "formatted_address": "3929 Sherbrooke Rue E (Orleans), Montr\u00e9al QC H1X 3E3",
                        "locality": "Montreal",
                        "postcode": "H1X 3E3",
                        "region": "QC"
                  },
                  "name": "Restaurant la Belle Province",
                  "popularity": 0.9721091975775927,
                  "price": 1,
                  "rating": 6.3
            },
            {
                  "distance": 388,
                  "location": {
                        "address": "3881 Sherbrooke Rue E",
                        "country": "CA",
                        "cross_street": "coin Av. Bourbonni\u00e8re",
                        "formatted_address": "3881 Sherbrooke Rue E (coin Av. Bourbonni\u00e8re), Montr\u00e9al QC H1X 2A5",
                        "locality": "Montreal",
                        "postcode": "H1X 2A5",
                        "region": "QC"
                  },
                  "name": "Tim Hortons",
                  "popularity": 0.9890116389099167,
                  "price": 1,
                  "rating": 6.2
            },
            {
                  "distance": 794,
                  "location": {
                        "address": "4825 Pierre de Coubertin Ave",
                        "country": "CA",
                        "cross_street": "Viau",
                        "formatted_address": "4825 Pierre de Coubertin Ave (Viau), Montr\u00e9al QC",
                        "locality": "Montreal",
                        "region": "QC"
                  },
                  "name": "Pizza Pizza",
                  "popularity": 0.611610522331567,
                  "price": 1,
                  "rating": 6.2
            },
            {
                  "distance": 950,
                  "location": {
                        "address": "3905 Ontario Rue E",
                        "country": "CA",
                        "cross_street": "",
                        "formatted_address": "3905 Ontario Rue E, Montr\u00e9al QC H1W 1S7",
                        "locality": "Montreal",
                        "postcode": "H1W 1S7",
                        "region": "QC"
                  },
                  "name": "Burrito Revolucion",
                  "popularity": 0.5280800529901589,
                  "rating": 6.0
            },
            {
                  "distance": 928,
                  "location": {
                        "address": "3982 Ontario Rue E",
                        "country": "CA",
                        "formatted_address": "3982 Ontario Rue E, Montr\u00e9al QC H1W 1S9",
                        "locality": "Montreal",
                        "postcode": "H1W 1S9",
                        "region": "QC"
                  },
                  "name": "Gerry's Restaurant Delicatessen",
                  "popularity": 0.9548400832702498,
                  "price": 3,
                  "rating": 5.8
            },
            {
                  "distance": 324,
                  "location": {
                        "address": "4240 Hochelaga Rue",
                        "country": "CA",
                        "formatted_address": "4240 Hochelaga Rue, Montr\u00e9al QC H1V 1B7",
                        "locality": "Montreal",
                        "postcode": "H1V 1B7",
                        "region": "QC"
                  },
                  "name": "Brasserie 99",
                  "popularity": 0.9025596139288418,
                  "price": 1,
                  "rating": 5.6
            },
            {
                  "distance": 446,
                  "location": {
                        "address": "3881 Rachel Rue E",
                        "country": "CA",
                        "cross_street": "Bourbonni\u00e8re",
                        "formatted_address": "3881 Rachel Rue E (Bourbonni\u00e8re), Montr\u00e9al QC H1X 1Z2",
                        "locality": "Montreal",
                        "postcode": "H1X 1Z2",
                        "region": "QC"
                  },
                  "name": "Le Botocoin",
                  "popularity": 0.9011757191521574,
                  "price": 1
            },
            {
                  "distance": 458,
                  "location": {
                        "address": "3800 Sherbrooke Rue E",
                        "country": "CA",
                        "cross_street": "",
                        "formatted_address": "3800 Sherbrooke Rue E, Montr\u00e9al QC H1X 2A2",
                        "locality": "Montreal",
                        "postcode": "H1X 2A2",
                        "region": "QC"
                  },
                  "name": "Caf\u00e9 l'Escale",
                  "popularity": 0.9066403292959879,
                  "price": 1
            },
            {
                  "distance": 737,
                  "location": {
                        "address": "3667 Hochelaga Rue",
                        "country": "CA",
                        "cross_street": "Chambly",
                        "formatted_address": "3667 Hochelaga Rue (Chambly), Montr\u00e9al QC H1W 1J2",
                        "locality": "Montreal",
                        "postcode": "H1W 1J2",
                        "region": "QC"
                  },
                  "name": "Bistro King Creole",
                  "popularity": 0.007901211203633612,
                  "price": 2
            },
            {
                  "distance": 771,
                  "location": {
                        "address": "4535 Rue de Rouen",
                        "country": "CA",
                        "cross_street": "",
                        "formatted_address": "4535 Rue de Rouen, Montr\u00e9al QC H1V 2W4",
                        "locality": "Montreal",
                        "postcode": "H1V 2W4",
                        "region": "QC"
                  },
                  "name": "Bocal",
                  "popularity": 0.9737533118849356,
                  "price": 1
            },
            {
                  "distance": 797,
                  "location": {
                        "address": "3537 Rachel Rue E",
                        "country": "CA",
                        "cross_street": "",
                        "formatted_address": "3537 Rachel Rue E, Montr\u00e9al QC H1W 1A8",
                        "locality": "Montreal",
                        "postcode": "H1W 1A8",
                        "region": "QC"
                  },
                  "name": "Jardin des Delices",
                  "popularity": 0.9223599545798638,
                  "price": 2
            },
            {
                  "distance": 851,
                  "location": {
                        "address": "2030 Pie-Ix Blvd",
                        "country": "CA",
                        "cross_street": "Ontario",
                        "formatted_address": "2030 Pie-Ix Blvd (Ontario), Montr\u00e9al QC H1V 2C8",
                        "locality": "Montreal",
                        "postcode": "H1V 2C8",
                        "region": "QC"
                  },
                  "name": "American Can Company Building",
                  "popularity": 0.9969838190764573
            },
            {
                  "distance": 875,
                  "location": {
                        "address": "3497 Hochelaga Rue",
                        "country": "CA",
                        "cross_street": "Aylwin",
                        "formatted_address": "3497 Hochelaga Rue (Aylwin), Montr\u00e9al QC H1W 1C4",
                        "locality": "Montreal",
                        "postcode": "H1W 1C4",
                        "region": "QC"
                  },
                  "name": "Morelli",
                  "popularity": 0.0682366578349735,
                  "price": 2
            },
            {
                  "distance": 904,
                  "location": {
                        "address": "4043 Ontario Rue E",
                        "country": "CA",
                        "cross_street": "",
                        "formatted_address": "4043 Ontario Rue E, Montr\u00e9al QC H1W 1T3",
                        "locality": "Montreal",
                        "postcode": "H1W 1T3",
                        "region": "QC"
                  },
                  "name": "Le Flamant",
                  "popularity": 0.8257120552611658,
                  "price": 2
            },
            {
                  "distance": 907,
                  "location": {
                        "address": "4045 Ontario Rue E",
                        "country": "CA",
                        "cross_street": "",
                        "formatted_address": "4045 Ontario Rue E, Montr\u00e9al QC H1W 1T3",
                        "locality": "Montreal",
                        "postcode": "H1W 1T3",
                        "region": "QC"
                  },
                  "name": "Wolfgang Social Club",
                  "popularity": 0.8224711392884179,
                  "price": 1
            },
            {
                  "distance": 919,
                  "location": {
                        "address": "4315 Ontario Rue E",
                        "country": "CA",
                        "cross_street": "",
                        "formatted_address": "4315 Ontario Rue E, Montr\u00e9al QC H1V 1K5",
                        "locality": "Montreal",
                        "postcode": "H1V 1K5",
                        "region": "QC"
                  },
                  "name": "Hoa Anh-D\u0101o",
                  "popularity": 0.1645415404996215,
                  "price": 2
            },
            {
                  "distance": 920,
                  "location": {
                        "address": "3979 Ontario Rue E",
                        "country": "CA",
                        "cross_street": "",
                        "formatted_address": "3979 Ontario Rue E, Montr\u00e9al QC H1W 1T1",
                        "locality": "Montreal",
                        "postcode": "H1W 1T1",
                        "region": "QC"
                  },
                  "name": "\u00d4-Big",
                  "popularity": 0.2312523656320969,
                  "price": 1
            },
            {
                  "distance": 924,
                  "location": {
                        "address": "3979 Ontario Rue E",
                        "country": "CA",
                        "cross_street": "",
                        "formatted_address": "3979 Ontario Rue E, Montr\u00e9al QC H1W 1T1",
                        "locality": "Montreal",
                        "postcode": "H1W 1T1",
                        "region": "QC"
                  },
                  "name": "Pizzeria Bros",
                  "popularity": 0.892884178652536,
                  "price": 1
            },
            {
                  "distance": 939,
                  "location": {
                        "address": "3905 Ontario Rue E",
                        "country": "CA",
                        "cross_street": "",
                        "formatted_address": "3905 Ontario Rue E, Montr\u00e9al QC H1W 1S7",
                        "locality": "Montreal",
                        "postcode": "H1W 1S7",
                        "region": "QC"
                  },
                  "name": "Pizza Fugazzi",
                  "popularity": 0.8975563020439061,
                  "price": 1
            },
            {
                  "distance": 964,
                  "location": {
                        "address": "5 Simon Valois Pl",
                        "country": "CA",
                        "cross_street": "Ontario",
                        "formatted_address": "5 Simon Valois Pl (Ontario), Montr\u00e9al QC H1W 0A6",
                        "locality": "Montreal",
                        "postcode": "H1W 0A6",
                        "region": "QC"
                  },
                  "name": "Bar Laitier",
                  "popularity": 0.4559637585162756,
                  "price": 1
            },
            {
                  "distance": 972,
                  "location": {
                        "address": "3870 Ontario Rue E",
                        "country": "CA",
                        "cross_street": "Bourbonni\u00e8re",
                        "formatted_address": "3870 Ontario Rue E (Bourbonni\u00e8re), Montr\u00e9al QC H1W 1S6",
                        "locality": "Montreal",
                        "postcode": "H1W 1S6",
                        "region": "QC"
                  },
                  "name": "Comptoir Sushi \u00e0 la Maison",
                  "popularity": 0.6364141748675246,
                  "price": 2
            },
            {
                  "distance": 104,
                  "location": {
                        "address": "4141 Pierre-De Coubertin Ave",
                        "country": "CA",
                        "formatted_address": "4141 Pierre-De Coubertin Ave, Montreal QC H1V 3N7",
                        "locality": "Montreal",
                        "postcode": "H1V 3N7",
                        "region": "QC"
                  },
                  "name": "Les Dimanches Salsa Folie"
            }
      ],
      "context": {
            "geo_bounds": {
                  "circle": {
                        "center": {
                              "latitude": 45.5543734,
                              "longitude": -73.55137467
                        },
                        "radius": 1000
                  }
            }
      }
}