{
      "results": [
            {
                  "distance": 575,
                  "location": {
                        "address": "900 le Corbusier Blvd",
                        "country": "CA",
                        "cross_street": "au Quartier Laval",
                        "formatted_address": "900 le Corbusier Blvd (au Quartier Laval), Laval QC H7N 0A8",
                        "locality": "Laval",
                        "postcode": "H7N 0A8",
                        "region": "QC"
                  },
                  "name": "Starbucks",
                  "popularity": 0.9492100330268678,
                  "price": 1,
                  "rating": 7.8,
                  "store_id": "6021-146644"
            },
            {
                  "distance": 962,
                  "location": {
                        "address": "3208 Saint-Martin Blvd O",
                        "country": "CA",
                        "cross_street": "",
                        "formatted_address": "3208 Saint-Martin Blvd O, Laval QC H7T 1A1",
                        "locality": "Laval",
                        "postcode": "H7T 1A1",
                        "region": "QC"
                  },
                  "name": "D\u00e9jeuner Cosmopolitain",
                  "popularity": 0.939212710881014,
                  "price": 1,
                  "rating": 7.2
            },
            {
                  "distance": 757,
                  "location": {
                        "address": "1565 Daniel-Johnson Blvd",
                        "country": "CA",
                        "cross_street": "",
                        "formatted_address": "1565 Daniel-Johnson Blvd, Laval QC H7V 4C2",
                        "locality": "Laval",
                        "postcode": "H7V 4C2",
                        "region": "QC"
                  },
                  "name": "Casa Grecque",
                  "popularity": 0.8711059537623851,
                  "price": 2,
                  "rating": 7.1
            },
            {
                  "distance": 797,
                  "location": {
                        "address": "1130 le Corbusier Blvd",
                        "country": "CA",
                        "cross_street": "",
                        "formatted_address": "1130 le Corbusier Blvd, Laval QC H7N 0A8",
                        "locality": "Laval",
                        "postcode": "H7N 0A8",
                        "region": "QC"
                  },
                  "name": "Restaurant Amir",
                  "popularity": 0.9130590020530215,
                  "price": 2,
                  "rating": 7.0
            },
            {
                  "distance": 727,
                  "location": {
                        "address": "1450 Daniel-Johnson Blvd",
                        "country": "CA",
                        "formatted_address": "1450 Daniel-Johnson Blvd, Laval QC H7V 4B5",
                        "locality": "Laval",
                        "postcode": "H7V 4B5",
                        "region": "QC"
                  },
                  "name": "Restaurant Eggsquis",
                  "popularity": 0.9235026332232438,
                  "price": 1,
                  "rating": 6.9
            },
            {
                  "distance": 960,
                  "location": {
                        "address": "3204 Saint-Martin Blvd O",
                        "country": "CA",
                        "cross_street": "",
                        "formatted_address": "3204 Saint-Martin Blvd O, Laval QC H7T 1A1",
                        "locality": "Laval",
                        "postcode": "H7T 1A1",
                        "region": "QC"
                  },
                  "name": "Restaurant Soya",
                  "popularity": 0.8574488976167098,
                  "price": 3,
                  "rating": 6.9
            },
            {
                  "distance": 920,
                  "location": {
                        "address": "2981 Saint-Martin Blvd O",
                        "country": "CA",
                        "cross_street": "Centropolis",
                        "formatted_address": "2981 Saint-Martin Blvd O (Centropolis), Laval QC H7T 2Y8",
                        "locality": "Laval",
                        "postcode": "H7T 2Y8",
                        "region": "QC"
                  },
                  "name": "Restaurant l'Aromate",
                  "popularity": 0.9060073194679996,
                  "price": 3,
                  "rating": 6.8
            },
            {
                  "distance": 854,
                  "location": {
                        "address": "1600 le Corbusier Blvd",
                        "address_extended": "Unit 100A",
                        "country": "CA",
                        "cross_street": "Centre Laval",
                        "formatted_address": "1600 le Corbusier Blvd (Centre Laval), Laval QC H7S 1Y9",
                        "locality": "Laval",
                        "postcode": "H7S 1Y9",
                        "region": "QC"
                  },
                  "name": "Subway",
                  "popularity": 0.8849415335178077,
                  "price": 1,
                  "rating": 6.5,
                  "store_id": "19407"
            },
            {
                  "distance": 740,
                  "location": {
                        "address": "840 le Corbusier Blvd",
                        "country": "CA",
                        "cross_street": "",
                        "formatted_address": "840 le Corbusier Blvd, Laval QC H7N 0A8",
                        "locality": "Laval",
                        "postcode": "H7N 0A8",
                        "region": "QC"
                  },
                  "name": "Panda Peng",
                  "popularity": 0.8669999107381952,
                  "price": 1,
                  "rating": 6.4
            },
            {
                  "distance": 771,
                  "location": {
                        "address": "1340 le Corbusier Blvd",
                        "address_extended": "C2",
                        "country": "CA",
                        "formatted_address": "1340 le Corbusier Blvd, Laval QC H7N 0A7",
                        "locality": "Laval",
                        "postcode": "H7N 0A7",
                        "region": "QC"
                  },
                  "name": "Tim Hortons",
                  "popularity": 0.9643845398553959,
                  "price": 1,
                  "rating": 6.1
            },
            {
                  "distance": 773,
                  "location": {
                        "address": "1110 le Corbusier Blvd",
                        "country": "CA",
                        "formatted_address": "1110 le Corbusier Blvd, Laval QC H7N 0A8",
                        "locality": "Laval",
                        "postcode": "H7N 0A8",
                        "region": "QC"
                  },
                  "name": "Kanda Sushi Bar",
                  "popularity": 0.8972596625903776,
                  "price": 2,
                  "rating": 6.1
            },
            {
                  "distance": 703,
                  "location": {
                        "address": "1020 le Corbusier Blvd",
                        "address_extended": "Quartier Laval",
                        "country": "CA",
                        "cross_street": "",
                        "formatted_address": "1020 le Corbusier Blvd, Laval QC H7N 0A8",
                        "locality": "Laval",
                        "postcode": "H7N 0A8",
                        "region": "QC"
                  },
                  "name": "Thai Express",
                  "popularity": 0.8977952334196198,
                  "price": 2,
                  "rating": 5.9,
                  "store_id": "74"
            },
            {
                  "distance": 816,
                  "location": {
                        "address": "1600 le Corbusier Blvd",
                        "address_extended": "# 72",
                        "country": "CA",
                        "cross_street": "au Centre Laval",
                        "formatted_address": "1600 le Corbusier Blvd (au Centre Laval), Laval QC H7S 1Y9",
                        "locality": "Laval",
                        "postcode": "H7S 1Y9",
                        "region": "QC"
                  },
                  "name": "Nickels Restaurant",
                  "popularity": 0.9856288494153351,
                  "price": 1,
                  "rating": 5.9
            },
            {
                  "distance": 776,
                  "location": {
                        "address": "1120 le Corbusier Blvd",
                        "address_extended": "Unit H-2",
                        "country": "CA",
                        "cross_street": "",
                        "formatted_address": "1120 le Corbusier Blvd, Laval QC H7N 0A8",
                        "locality": "Laval",
                        "postcode": "H7N 0A8",
                        "region": "QC"
                  },
                  "name": "Subway",
                  "popularity": 0.7929126126930287,
                  "price": 1,
                  "rating": 5.5
            },
            {
                  "distance": 939,
                  "location": {
                        "address": "1730 Pierre-Peladeau Ave",
                        "country": "CA",
                        "cross_street": "au Centropolis",
                        "formatted_address": "1730 Pierre-Peladeau Ave (au Centropolis), Laval QC H7T 2Z1",
                        "locality": "Laval",
                        "postcode": "H7T 2Z1",
                        "region": "QC"
                  },
                  "name": "L'Academie Restaurant",
                  "popularity": 0.917879139516201,
                  "price": 3,
                  "rating": 5.4
            },
            {
                  "distance": 813,
                  "location": {
                        "address": "1600 le Corbusier Blvd",
                        "address_extended": "# 74",
                        "country": "CA",
                        "cross_street": "Souvenir",
                        "formatted_address": "1600 le Corbusier Blvd (Souvenir), Laval QC H7S 1Y9",
                        "locality": "Laval",
                        "postcode": "H7S 1Y9",
                        "region": "QC"
                  },
                  "name": "Buffet Chinois Fu Lam",
                  "popularity": 0.8622690350798893,
                  "price": 1,
                  "rating": 4.7
            },
            {
                  "distance": 716,
                  "location": {
                        "address": "840 le Corbusier Blvd",
                        "country": "CA",
                        "cross_street": "",
                        "formatted_address": "840 le Corbusier Blvd, Laval QC H7N 0A8",
                        "locality": "Laval",
                        "postcode": "H7N 0A8",
                        "region": "QC"
                  },
                  "name": "Panda d'or",
                  "popularity": 0.9024368472730518,
                  "price": 1
            },
            {
                  "distance": 730,
                  "location": {
                        "address": "1700 Jacques-Tetreault Rue",
                        "country": "CA",
                        "cross_street": "at Rue Lucien-Paiment",
                        "formatted_address": "1700 Jacques-Tetreault Rue (at Rue Lucien-Paiment), Laval QC H7N 0B6",
                        "locality": "Laval",
                        "postcode": "H7N 0B6",
                        "region": "QC"
                  },
                  "name": "Mikacchino",
                  "popularity": 0.2917968401321075,
                  "price": 1
            },
            {
                  "distance": 733,
                  "location": {
                        "address": "1600 le Corbusier Blvd",
                        "address_extended": "Centre Laval",
                        "country": "CA",
                        "cross_street": "Boulevard du Souvenir",
                        "formatted_address": "1600 le Corbusier Blvd (Boulevard du Souvenir), Laval QC H7S 1Y9",
                        "locality": "Laval",
                        "postcode": "H7S 1Y9",
                        "region": "QC"
                  },
                  "name": "Valentine",
                  "popularity": 0.8082656431313041,
                  "price": 1
            },
            {
                  "distance": 740,
                  "location": {
                        "address": "1600 le Corbusier Blvd",
                        "country": "CA",
                        "cross_street": "",
                        "formatted_address": "1600 le Corbusier Blvd, Laval QC H7S 1Y9",
                        "locality": "Laval",
                        "postcode": "H7S 1Y9",
                        "region": "QC"
                  },
                  "name": "Va\u00ef Burger",
                  "popularity": 0.2435954655003124
            },
            {
                  "distance": 771,
                  "location": {
                        "address": "1100 le Corbusier Blvd",
                        "country": "CA",
                        "formatted_address": "1100 le Corbusier Blvd, Laval QC H7N 0A8",
                        "locality": "Laval",
                        "postcode": "H7N 0A8",
                        "region": "QC"
                  },
                  "name": "Bellepros",
                  "popularity": 0.9041328215656521,
                  "price": 1
            },
            {
                  "distance": 793,
                  "location": {
                        "address": "1600 le Corbusier Blvd",
                        "address_extended": "# 2F",
                        "country": "CA",
                        "cross_street": "",
                        "formatted_address": "1600 le Corbusier Blvd, Laval QC H7S 1Y9",
                        "locality": "Laval",
                        "postcode": "H7S 1Y9",
                        "region": "QC"
                  },
                  "name": "Pizza Az",
                  "popularity": 0.7326608944032849
            },
            {
                  "distance": 817,
                  "location": {
                        "address": "1550 Daniel-Johnson Blvd",
                        "country": "CA",
                        "cross_street": "",
                        "formatted_address": "1550 Daniel-Johnson Blvd, Laval QC H7V 3V7",
                        "locality": "Laval",
                        "postcode": "H7V 3V7",
                        "region": "QC"
                  },
                  "name": "Poissonnerie Sami",
                  "popularity": 0.9257341783450861,
                  "price": 1
            },
            {
                  "distance": 902,
                  "location": {
                        "address": "2981 Saint-Martin Blvd O",
                        "country": "CA",
                        "cross_street": "",
                        "formatted_address": "2981 Saint-Martin Blvd O, Laval QC H7T 2Y8",
                        "locality": "Laval",
                        "postcode": "H7T 2Y8",
                        "region": "QC"
                  },
                  "name": "Restaurant Bistro l'Aromate",
                  "popularity": 0.5065607426582166,
                  "price": 2
            },
            {
                  "distance": 910,
                  "location": {
                        "address": "3010 Saint-Martin Blvd O",
                        "country": "CA",
                        "cross_street": "",
                        "formatted_address": "3010 Saint-Martin Blvd O, Laval QC H7T 2J2",
                        "locality": "Laval",
                        "postcode": "H7T 2J2",
                        "region": "QC"
                  },
                  "name": "Ocakbasi Mardin Palace",
                  "popularity": 0.9707221280014282,
                  "price": 2
            },
            {
                  "distance": 921,
                  "location": {
                        "address": "1950 Claude-Gagne Rue",
                        "country": "CA",
                        "cross_street": "",
                        "formatted_address": "1950 Claude-Gagne Rue, Laval QC H7N 0E4",
                        "locality": "Laval",
                        "postcode": "H7N 0E4",
                        "region": "QC"
                  },
                  "name": "Westwood Bar & Grill",
                  "popularity": 0.9470677497098992,
                  "price": 2
            },
            {
                  "distance": 930,
                  "location": {
                        "address": "1950 Claude Gagne Rue",
                        "address_extended": "Unit 306",
                        "country": "CA",
                        "cross_street": "",
                        "formatted_address": "1950 Claude Gagne Rue, Laval QC H7N 5H9",
                        "locality": "Laval",
                        "postcode": "H7N 5H9",
                        "region": "QC"
                  },
                  "name": "Tiger Sugar",
                  "popularity": 0.9276086762474337
            },
            {
                  "distance": 1003,
                  "location": {
                        "address": "3220 Saint-Martin Blvd O",
                        "country": "CA",
                        "cross_street": "",
                        "formatted_address": "3220 Saint-Martin Blvd O, Laval QC H7T 1A1",
                        "locality": "Laval",
                        "postcode": "H7T 1A1",
                        "region": "QC"
                  },
                  "name": "Papa John's Pizza",
                  "popularity": 0.848344193519593,
                  "price": 1
            },
            {
                  "distance": 706,
                  "location": {
                        "address": "1446 Daniel Johnson Blvd",
                        "country": "CA",
                        "formatted_address": "1446 Daniel Johnson Blvd, Laval QC H7V 4B5",
                        "locality": "Laval",
                        "postcode": "H7V 4B5",
                        "region": "QC"
                  },
                  "name": "Boulangerie Al Touras"
            },
            {
                  "distance": 730,
                  "location": {
                        "address": "1600 le Corbusier Blvd",
                        "country": "CA",
                        "formatted_address": "1600 le Corbusier Blvd, Laval QC H7S 1Y9",
                        "locality": "Laval",
                        "postcode": "H7S 1Y9",
                        "region": "QC"
                  },
                  "name": "Jack Saloon"
            },
            {
                  "distance": 730,
                  "location": {
                        "address": "1600 le Corbusier Blvd",
                        "country": "CA",
                        "formatted_address": "1600 le Corbusier Blvd, Laval QC H7S 1Y9",
                        "locality": "Laval",
                        "postcode": "H7S 1Y9",
                        "region": "QC"
                  },
                  "name": "St-Laurent Coiffure"
            },
            {
                  "distance": 764,
                  "location": {
                        "address": "2800 Saint-Martin Blvd O",
                        "country": "CA",
                        "formatted_address": "2800 Saint-Martin Blvd O, Laval QC H7T 2S9",
                        "locality": "Laval",
                        "postcode": "H7T 2S9",
                        "region": "QC"
                  },
                  "name": "Casse-Cro\u00fbte du Palais"
            },
            {
                  "distance": 765,
                  "location": {
                        "address": "1120 le Corbusier Blvd",
                        "country": "CA",
                        "formatted_address": "1120 le Corbusier Blvd, Laval QC H7N 0A8",
                        "locality": "Laval",
                        "postcode": "H7N 0A8",
                        "region": "QC"
                  },
                  "name": "A&W Restaurant"
            },
            {
                  "distance": 788,
                  "location": {
                        "address": "1625A Daniel Johnson Blvd",
                        "country": "CA",
                        "formatted_address": "1625A Daniel Johnson Blvd, Laval QC H7V 4C2",
                        "locality": "Laval",
                        "postcode": "H7V 4C2",
                        "region": "QC"
                  },
                  "name": "Tutti Frutti"
            },
            {
                  "distance": 797,
                  "location": {
                        "address": "780 le Corbusier Blvd",
                        "country": "CA",
                        "formatted_address": "780 le Corbusier Blvd, Laval QC H7N 0A8",
                        "locality": "Laval",
                        "postcode": "H7N 0A8",
                        "region": "QC"
                  },
                  "name": "D\u00e9jeuners Eggstyle"
            }
      ],
      "context": {
            "geo_bounds": {
                  "circle": {
                        "center": {
                              "latitude": 45.55456685,
                              "longitude": -73.73447299
                        },
                        "radius": 1000
                  }
            }
      }
}