{
      "results": [
            {
                  "distance": 681,
                  "location": {
                        "address": "4526 Belanger Rue",
                        "country": "CA",
                        "cross_street": "",
                        "formatted_address": "4526 Belanger Rue, Montr\u00e9al QC H1T 1B6",
                        "locality": "Montreal",
                        "postcode": "H1T 1B6",
                        "region": "QC"
                  },
                  "name": "Poissonnerie Rayan",
                  "popularity": 0.9850018925056775,
                  "price": 3,
                  "rating": 7.8
            },
            {
                  "distance": 667,
                  "location": {
                        "address": "4310 Belanger Rue",
                        "country": "CA",
                        "cross_street": "",
                        "formatted_address": "4310 Belanger Rue, Montr\u00e9al QC H1T 1A7",
                        "locality": "Montreal",
                        "postcode": "H1T 1A7",
                        "region": "QC"
                  },
                  "name": "Restobar Chez Toutou",
                  "popularity": 0.9815717259651779,
                  "price": 2,
                  "rating": 7.5
            },
            {
                  "distance": 977,
                  "location": {
                        "address": "4028 Masson Rue",
                        "country": "CA",
                        "cross_street": "Btw Jean-d'Arc & Pie-IX",
                        "formatted_address": "4028 Masson Rue (Btw Jean-d'Arc & Pie-IX), Montr\u00e9al QC H1X 1T8",
                        "locality": "Montreal",
                        "postcode": "H1X 1T8",
                        "region": "QC"
                  },
                  "name": "Restaurant Chez la M\u00e8re",
                  "popularity": 0.9612036336109009,
                  "price": 1,
                  "rating": 7.4
            },
            {
                  "distance": 388,
                  "location": {
                        "address": "4023 Beaubien Rue E",
                        "country": "CA",
                        "formatted_address": "4023 Beaubien Rue E, Montr\u00e9al QC H1X 1H7",
                        "locality": "Montreal",
                        "postcode": "H1X 1H7",
                        "region": "QC"
                  },
                  "name": "Beaubien Deli",
                  "popularity": 0.9816072104466314,
                  "price": 2,
                  "rating": 7.2
            },
            {
                  "distance": 713,
                  "location": {
                        "address": "4200 Belanger Rue",
                        "country": "CA",
                        "cross_street": "entre la 23e avenue et la 24e avenue",
                        "formatted_address": "4200 Belanger Rue (entre la 23e avenue et la 24e avenue), Montr\u00e9al QC H1T 1A3",
                        "locality": "Montreal",
                        "postcode": "H1T 1A3",
                        "region": "QC"
                  },
                  "name": "Le Plan de Match",
                  "popularity": 0.9363290121120363,
                  "price": 2,
                  "rating": 6.6
            },
            {
                  "distance": 916,
                  "location": {
                        "address": "4100 Jean-Talon St E",
                        "address_extended": "Le Boulevard Shopping Centre",
                        "country": "CA",
                        "cross_street": "",
                        "formatted_address": "4100 Jean-Talon St E, Montreal QC H1S 2V4",
                        "locality": "Montreal",
                        "postcode": "H1S 2V4",
                        "region": "QC"
                  },
                  "name": "Subway",
                  "popularity": 0.9066048448145344,
                  "price": 1,
                  "rating": 6.4,
                  "store_id": "26167"
            },
            {
                  "distance": 444,
                  "location": {
                        "address": "3975 Beaubien Rue E",
                        "address_extended": "Magasins Couche Tard C-Store",
                        "country": "CA",
                        "cross_street": "21e Avenue",
                        "formatted_address": "3975 Beaubien Rue E (21e Avenue), Montr\u00e9al QC H1X 1H5",
                        "locality": "Montreal",
                        "postcode": "H1X 1H5",
                        "region": "QC"
                  },
                  "name": "Subway",
                  "popularity": 0.8886496971990916,
                  "price": 1,
                  "rating": 6.2,
                  "store_id": "29727"
            },
            {
                  "distance": 256,
                  "location": {
                        "address": "4111 Beaubien Rue E",
                        "country": "CA",
                        "cross_street": "",
                        "formatted_address": "4111 Beaubien Rue E, Montr\u00e9al QC H1T 1S3",
                        "locality": "Montreal",
                        "postcode": "H1T 1S3",
                        "region": "QC"
                  },
                  "name": "La Grotta del Mare",
                  "popularity": 0.30545041635124903,
                  "price": 2
            },
            {
                  "distance": 492,
                  "location": {
                        "address": "4201 Rosemont Blvd",
                        "country": "CA",
                        "cross_street": "23e avenue",
                        "formatted_address": "4201 Rosemont Blvd (23e avenue), Montr\u00e9al QC H1T 2C6",
                        "locality": "Montreal",
                        "postcode": "H1T 2C6",
                        "region": "QC"
                  },
                  "name": "Aux Sept Bonheurs Restaurant",
                  "popularity": 0.8941497918243755,
                  "price": 1
            },
            {
                  "distance": 645,
                  "location": {
                        "address": "4444A Belanger Rue",
                        "country": "CA",
                        "cross_street": "",
                        "formatted_address": "4444A Belanger Rue, Montreal QC H1T 1B5",
                        "locality": "Montreal",
                        "postcode": "H1T 1B5",
                        "region": "QC"
                  },
                  "name": "Cornet Glac\u00e9",
                  "popularity": 0.10896101438304315,
                  "price": 1
            },
            {
                  "distance": 668,
                  "location": {
                        "address": "4326 Belanger Rue",
                        "country": "CA",
                        "cross_street": "26e Avenue",
                        "formatted_address": "4326 Belanger Rue (26e Avenue), Montr\u00e9al QC H1T 1A7",
                        "locality": "Montreal",
                        "postcode": "H1T 1A7",
                        "region": "QC"
                  },
                  "name": "Sushi Bako",
                  "popularity": 0.10050387963663891,
                  "price": 2
            },
            {
                  "distance": 688,
                  "location": {
                        "address": "4541 Belanger Rue",
                        "country": "CA",
                        "cross_street": "30th Ave",
                        "formatted_address": "4541 Belanger Rue (30th Ave), Montr\u00e9al QC H1T 1B7",
                        "locality": "Montreal",
                        "postcode": "H1T 1B7",
                        "region": "QC"
                  },
                  "name": "Akwaba",
                  "popularity": 0.9619842922028766,
                  "price": 2
            },
            {
                  "distance": 759,
                  "location": {
                        "address": "4931 Beaubien Rue E",
                        "country": "CA",
                        "cross_street": "coin Viau",
                        "formatted_address": "4931 Beaubien Rue E (coin Viau), Montr\u00e9al QC H1T 1V1",
                        "locality": "Montreal",
                        "postcode": "H1T 1V1",
                        "region": "QC"
                  },
                  "name": "Sachi Sushi",
                  "popularity": 0.8922099735049205,
                  "price": 2
            },
            {
                  "distance": 824,
                  "location": {
                        "address": "7001 Pie-Ix Blvd",
                        "country": "CA",
                        "cross_street": "",
                        "formatted_address": "7001 Pie-Ix Blvd, Montr\u00e9al QC H2A 2G3",
                        "locality": "Montreal",
                        "postcode": "H2A 2G3",
                        "region": "QC"
                  },
                  "name": "All\u00f4! Mon Coco",
                  "popularity": 0.992335352006056,
                  "price": 2
            },
            {
                  "distance": 891,
                  "location": {
                        "address": "3913 B\u00e9langer E",
                        "country": "CA",
                        "cross_street": "19e Avenue",
                        "formatted_address": "3913 B\u00e9langer E (19e Avenue), Montr\u00e9al QC",
                        "locality": "Montreal",
                        "region": "QC"
                  },
                  "name": "P\u00e2tisserie Bel Air",
                  "popularity": 0.9720973694171082,
                  "price": 1
            },
            {
                  "distance": 942,
                  "location": {
                        "address": "3571 Beaubien Rue E",
                        "country": "CA",
                        "cross_street": "",
                        "formatted_address": "3571 Beaubien Rue E, Montr\u00e9al QC H1X 1H1",
                        "locality": "Montreal",
                        "postcode": "H1X 1H1",
                        "region": "QC"
                  },
                  "name": "Champion 2 Pour 1 Pizza",
                  "popularity": 0.9721446820590461,
                  "price": 2
            },
            {
                  "distance": 966,
                  "location": {
                        "address": "4280 Jean-Talon Rue E",
                        "country": "CA",
                        "cross_street": "",
                        "formatted_address": "4280 Jean-Talon Rue E, Montr\u00e9al QC H1S 1J7",
                        "locality": "Montreal",
                        "postcode": "H1S 1J7",
                        "region": "QC"
                  },
                  "name": "Nickels",
                  "popularity": 0.34450700227100683,
                  "price": 2
            },
            {
                  "distance": 166,
                  "location": {
                        "address": "4457 Beaubien Rue E",
                        "country": "CA",
                        "formatted_address": "4457 Beaubien Rue E, Montreal QC H1T 1T3",
                        "locality": "Montreal",
                        "postcode": "H1T 1T3",
                        "region": "QC"
                  },
                  "name": "Lourdie Gourmandise"
            },
            {
                  "distance": 235,
                  "location": {
                        "address": "4509 Beaubien Rue E",
                        "country": "CA",
                        "formatted_address": "4509 Beaubien Rue E, Montreal QC H1T 1T4",
                        "locality": "Montreal",
                        "postcode": "H1T 1T4",
                        "region": "QC"
                  },
                  "name": "Petit Ya Courtier"
            },
            {
                  "distance": 277,
                  "location": {
                        "address": "4111 Beaubien Rue E",
                        "country": "CA",
                        "formatted_address": "4111 Beaubien Rue E, Montreal QC H1T 1S3",
                        "locality": "Montreal",
                        "postcode": "H1T 1S3",
                        "region": "QC"
                  },
                  "name": "Grotte de la Mer Inc"
            },
            {
                  "distance": 655,
                  "location": {
                        "address": "4524 Belanger Rue",
                        "country": "CA",
                        "formatted_address": "4524 Belanger Rue, Montreal QC H1T 1B6",
                        "locality": "Montreal",
                        "postcode": "H1T 1B6",
                        "region": "QC"
                  },
                  "name": "Patisserie Charcuterie"
            },
            {
                  "distance": 701,
                  "location": {
                        "address": "4541 Belanger Rue",
                        "country": "CA",
                        "formatted_address": "4541 Belanger Rue, Montreal QC H1T 1B7",
                        "locality": "Montreal",
                        "postcode": "H1T 1B7",
                        "region": "QC"
                  },
                  "name": "Restaurant Akwaba Fine Cuisine Fusion Africaine et Grecque"
            },
            {
                  "distance": 715,
                  "location": {
                        "address": "4551 Belanger Rue",
                        "country": "CA",
                        "formatted_address": "4551 Belanger Rue, Montreal QC H1T 1B8",
                        "locality": "Montreal",
                        "postcode": "H1T 1B8",
                        "region": "QC"
                  },
                  "name": "Cafe Portofino"
            },
            {
                  "distance": 718,
                  "location": {
                        "address": "4579 Belanger Rue",
                        "country": "CA",
                        "formatted_address": "4579 Belanger Rue, Montreal QC H1T 1B8",
                        "locality": "Montreal",
                        "postcode": "H1T 1B8",
                        "region": "QC"
                  },
                  "name": "Boulangerie Monja Blanca"
            },
            {
                  "distance": 783,
                  "location": {
                        "address": "6510 Viau Rue",
                        "country": "CA",
                        "formatted_address": "6510 Viau Rue, Montreal QC H1T 2Y7",
                        "locality": "Montreal",
                        "postcode": "H1T 2Y7",
                        "region": "QC"
                  },
                  "name": "Meurtre et Mysteres"
            },
            {
                  "distance": 861,
                  "location": {
                        "address": "4975 Beaubien Rue E",
                        "country": "CA",
                        "formatted_address": "4975 Beaubien Rue E, Montreal QC H1T 1V3",
                        "locality": "Montreal",
                        "postcode": "H1T 1V3",
                        "region": "QC"
                  },
                  "name": "Brasserie Cannebiere Inc"
            },
            {
                  "distance": 899,
                  "location": {
                        "address": "3882 Belanger Rue",
                        "country": "CA",
                        "formatted_address": "3882 Belanger Rue, Montreal QC H1X 1B6",
                        "locality": "Montreal",
                        "postcode": "H1X 1B6",
                        "region": "QC"
                  },
                  "name": "Super Pizza Time"
            },
            {
                  "distance": 909,
                  "location": {
                        "address": "4053 Belair Rue",
                        "country": "CA",
                        "formatted_address": "4053 Belair Rue, Montreal QC H2A 2C7",
                        "locality": "Montreal",
                        "postcode": "H2A 2C7",
                        "region": "QC"
                  },
                  "name": "Ozile"
            },
            {
                  "distance": 948,
                  "location": {
                        "address": "4933 Rosemont Blvd",
                        "country": "CA",
                        "formatted_address": "4933 Rosemont Blvd, Montreal QC H1T 2E6",
                        "locality": "Montreal",
                        "postcode": "H1T 2E6",
                        "region": "QC"
                  },
                  "name": "Dido Restaurant"
            },
            {
                  "distance": 967,
                  "location": {
                        "address": "4943 Rosemont Blvd",
                        "country": "CA",
                        "formatted_address": "4943 Rosemont Blvd, Montreal QC H1T 2E6",
                        "locality": "Montreal",
                        "postcode": "H1T 2E6",
                        "region": "QC"
                  },
                  "name": "Ryo Sushi"
            },
            {
                  "distance": 989,
                  "location": {
                        "address": "4030 Masson Rue",
                        "country": "CA",
                        "formatted_address": "4030 Masson Rue, Montreal QC H1X 1T8",
                        "locality": "Montreal",
                        "postcode": "H1X 1T8",
                        "region": "QC"
                  },
                  "name": "Cafe Sport Alex"
            },
            {
                  "distance": 998,
                  "location": {
                        "address": "4460 Jean-Talon Rue E",
                        "country": "CA",
                        "formatted_address": "4460 Jean-Talon Rue E, Saint-Leonard QC H1S 1K1",
                        "locality": "Saint-Leonard",
                        "postcode": "H1S 1K1",
                        "region": "QC"
                  },
                  "name": "Pho Khanh"
            },
            {
                  "distance": 998,
                  "location": {
                        "address": "4460 Jean Talon Rue E",
                        "country": "CA",
                        "formatted_address": "4460 Jean Talon Rue E, Saint-Leonard QC H1S 1K1",
                        "locality": "Saint-Leonard",
                        "postcode": "H1S 1K1",
                        "region": "QC"
                  },
                  "name": "Cabana Dacilor"
            }
      ],
      "context": {
            "geo_bounds": {
                  "circle": {
                        "center": {
                              "latitude": 45.56485589,
                              "longitude": -73.57749268
                        },
                        "radius": 1000
                  }
            }
      }
}