{
      "results": [
            {
                  "distance": 903,
                  "location": {
                        "address": "4006 Sainte-Catherine Rue O",
                        "country": "CA",
                        "cross_street": "coin Atwater",
                        "formatted_address": "4006 Sainte-Catherine Rue O (coin Atwater), Westmount QC H3Z 1P2",
                        "locality": "Westmount",
                        "postcode": "H3Z 1P2",
                        "region": "QC"
                  },
                  "name": "Imadake",
                  "popularity": 0.9621822690638562,
                  "price": 2,
                  "rating": 8.7
            },
            {
                  "distance": 626,
                  "location": {
                        "address": "4160 Sainte-Catherine Rue O",
                        "country": "CA",
                        "cross_street": "Greene",
                        "formatted_address": "4160 Sainte-Catherine Rue O (Greene), Westmount QC H3Z 1P4",
                        "locality": "Westmount",
                        "postcode": "H3Z 1P4",
                        "region": "QC"
                  },
                  "name": "Bagels on Greene",
                  "popularity": 0.9801611903285803,
                  "price": 1,
                  "rating": 8.3
            },
            {
                  "distance": 842,
                  "location": {
                        "address": "4024B Sainte Catherine Rue O",
                        "country": "CA",
                        "cross_street": "",
                        "formatted_address": "4024B Sainte Catherine Rue O, Westmount QC H3Z 1P2",
                        "locality": "Westmount",
                        "postcode": "H3Z 1P2",
                        "region": "QC"
                  },
                  "name": "Sparta Rotisserie&Grill",
                  "popularity": 0.9783013019218847,
                  "price": 2,
                  "rating": 8.1
            },
            {
                  "distance": 1680,
                  "location": {
                        "address": "1500 Atwater Ave",
                        "address_extended": "S-04",
                        "country": "CA",
                        "cross_street": "in Station Guy-Concordia",
                        "formatted_address": "1500 Atwater Ave (in Station Guy-Concordia), Montr\u00e9al QC H3Z 1X5",
                        "locality": "Montreal",
                        "postcode": "H3Z 1X5",
                        "region": "QC"
                  },
                  "name": "P\u00e2tisserie Cocobun Atwater",
                  "popularity": 0.8690740915972748,
                  "price": 1,
                  "rating": 6.7
            },
            {
                  "distance": 536,
                  "location": {
                        "address": "4435 Sainte-Catherine Rue O",
                        "country": "CA",
                        "cross_street": "",
                        "formatted_address": "4435 Sainte-Catherine Rue O, Westmount QC H3Z 1R5",
                        "locality": "Westmount",
                        "postcode": "H3Z 1R5",
                        "region": "QC"
                  },
                  "name": "Nagoya Sushi",
                  "popularity": 0.9423434593924365,
                  "price": 2,
                  "rating": 6.7
            },
            {
                  "distance": 938,
                  "location": {
                        "address": "2313 Sainte-Catherine Rue O",
                        "country": "CA",
                        "cross_street": "",
                        "formatted_address": "2313 Sainte-Catherine Rue O, Montr\u00e9al QC H3H 1N2",
                        "locality": "Montreal",
                        "postcode": "H3H 1N2",
                        "region": "QC"
                  },
                  "name": "A&W Restaurant",
                  "popularity": 0.9711629447388342,
                  "price": 1,
                  "rating": 6.7,
                  "store_id": "5587"
            },
            {
                  "distance": 563,
                  "location": {
                        "address": "1232 Greene Ave",
                        "country": "CA",
                        "cross_street": "Ste-Catherine",
                        "formatted_address": "1232 Greene Ave (Ste-Catherine), Montr\u00e9al QC H3Z 2A3",
                        "locality": "Montreal",
                        "postcode": "H3Z 2A3",
                        "region": "QC"
                  },
                  "name": "Restaurant Kashima",
                  "popularity": 0.14135151890886546,
                  "price": 2,
                  "rating": 6.6
            },
            {
                  "distance": 1048,
                  "location": {
                        "address": "1500 Atwater Ave",
                        "country": "CA",
                        "cross_street": "",
                        "formatted_address": "1500 Atwater Ave, Montr\u00e9al QC H3Z 1X5",
                        "locality": "Montreal",
                        "postcode": "H3Z 1X5",
                        "region": "QC"
                  },
                  "name": "Copper Branch",
                  "popularity": 0.895025075700227,
                  "price": 2,
                  "rating": 6.2
            },
            {
                  "distance": 995,
                  "location": {
                        "address": "357 Victoria Ave",
                        "country": "CA",
                        "cross_street": "Sommerville",
                        "formatted_address": "357 Victoria Ave (Sommerville), Westmount QC H3Z 2N1",
                        "locality": "Westmount",
                        "postcode": "H3Z 2N1",
                        "region": "QC"
                  },
                  "name": "Importations Cafe Creme",
                  "popularity": 0.8642281463112214,
                  "price": 1,
                  "rating": 6.0
            },
            {
                  "distance": 896,
                  "location": {
                        "address": "1500 Atwater Ave",
                        "address_extended": "# 8810",
                        "country": "CA",
                        "formatted_address": "1500 Atwater Ave, Montr\u00e9al QC H3Z 1X5",
                        "locality": "Montreal",
                        "postcode": "H3Z 1X5",
                        "region": "QC"
                  },
                  "name": "McDonald's",
                  "popularity": 0.9969001859888407,
                  "price": 1,
                  "rating": 5.7
            },
            {
                  "distance": 950,
                  "location": {
                        "address": "2313 Sainte-Catherine Rue O",
                        "country": "CA",
                        "cross_street": "Atwater",
                        "formatted_address": "2313 Sainte-Catherine Rue O (Atwater), Montr\u00e9al QC H3H 1N2",
                        "locality": "Montreal",
                        "postcode": "H3H 1N2",
                        "region": "QC"
                  },
                  "name": "Forum de Montr\u00e9al",
                  "popularity": 0.9844341408024224,
                  "rating": 5.6
            },
            {
                  "distance": 374,
                  "location": {
                        "address": "1386 Greene Ave",
                        "country": "CA",
                        "cross_street": "Sherbrooke",
                        "formatted_address": "1386 Greene Ave (Sherbrooke), Westmount QC H3Z 2B1",
                        "locality": "Westmount",
                        "postcode": "H3Z 2B1",
                        "region": "QC"
                  },
                  "name": "Avenue G",
                  "popularity": 0.9057656540607564,
                  "price": 1
            },
            {
                  "distance": 423,
                  "location": {
                        "address": "1308 Greene Ave",
                        "country": "CA",
                        "cross_street": "De Maisonneuve",
                        "formatted_address": "1308 Greene Ave (De Maisonneuve), Westmount QC H3Z 2B1",
                        "locality": "Westmount",
                        "postcode": "H3Z 2B1",
                        "region": "QC"
                  },
                  "name": "L'Art Glacier",
                  "popularity": 0.8493490390576566,
                  "price": 1
            },
            {
                  "distance": 545,
                  "location": {
                        "address": "4419 Sainte-Catherine Rue O",
                        "country": "CA",
                        "cross_street": "Kensington",
                        "formatted_address": "4419 Sainte-Catherine Rue O (Kensington), Westmount QC H3Z 1R5",
                        "locality": "Westmount",
                        "postcode": "H3Z 1R5",
                        "region": "QC"
                  },
                  "name": "Copparoma Cafe",
                  "popularity": 0.8667079975201488,
                  "price": 1
            },
            {
                  "distance": 603,
                  "location": {
                        "address": "1 Westmount Car",
                        "country": "CA",
                        "cross_street": "",
                        "formatted_address": "1 Westmount Car, Westmount QC H3Z 2P9",
                        "locality": "Westmount",
                        "postcode": "H3Z 2P9",
                        "region": "QC"
                  },
                  "name": "Sushi Bar Kim",
                  "popularity": 0.9311841289522629,
                  "price": 2
            },
            {
                  "distance": 702,
                  "location": {
                        "address": "4090 Sainte-Catherine St O",
                        "country": "CA",
                        "cross_street": "",
                        "formatted_address": "4090 Sainte-Catherine St O, Westmount QC H3Z 1P2",
                        "locality": "Westmount",
                        "postcode": "H3Z 1P2",
                        "region": "QC"
                  },
                  "name": "Kinton",
                  "popularity": 0.9504029758214507
            },
            {
                  "distance": 709,
                  "location": {
                        "address": "4114 Sainte Catherine Rue O",
                        "country": "CA",
                        "cross_street": "",
                        "formatted_address": "4114 Sainte Catherine Rue O, Westmount QC H3Z 1P2",
                        "locality": "Westmount",
                        "postcode": "H3Z 1P2",
                        "region": "QC"
                  },
                  "name": "Balos",
                  "popularity": 0.949163050216987,
                  "price": 2
            },
            {
                  "distance": 741,
                  "location": {
                        "address": "4084 Sainte-Catherine Rue O",
                        "country": "CA",
                        "cross_street": "Av. Wood",
                        "formatted_address": "4084 Sainte-Catherine Rue O (Av. Wood), Westmount QC H3Z 1P2",
                        "locality": "Westmount",
                        "postcode": "H3Z 1P2",
                        "region": "QC"
                  },
                  "name": "Presse Caf\u00e9",
                  "popularity": 0.05703657780533168,
                  "price": 1
            },
            {
                  "distance": 758,
                  "location": {
                        "address": "4050 Ste",
                        "country": "CA",
                        "cross_street": "Wood",
                        "formatted_address": "4050 Ste (Wood), Westmount QC",
                        "locality": "Westmount",
                        "region": "QC"
                  },
                  "name": "Chine Toque",
                  "popularity": 0.9256044637321761,
                  "price": 1
            },
            {
                  "distance": 772,
                  "location": {
                        "address": "4675 Sainte-Catherine Rue O",
                        "country": "CA",
                        "cross_street": "",
                        "formatted_address": "4675 Sainte-Catherine Rue O, Westmount QC H3Z 1S4",
                        "locality": "Westmount",
                        "postcode": "H3Z 1S4",
                        "region": "QC"
                  },
                  "name": "Mouton Noir Traiteur & Cafe",
                  "popularity": 0.9404835709857409,
                  "price": 1
            },
            {
                  "distance": 810,
                  "location": {
                        "address": "1500 Atwater Ave",
                        "address_extended": "F10",
                        "country": "CA",
                        "cross_street": "",
                        "formatted_address": "1500 Atwater Ave, Montreal QC H3Z 1X5",
                        "locality": "Westmount",
                        "postcode": "H3Z 1X5",
                        "region": "QC"
                  },
                  "name": "Muffin Plus",
                  "popularity": 0.2101673899566026,
                  "price": 1
            },
            {
                  "distance": 811,
                  "location": {
                        "address": "1500 Atwater Ave",
                        "country": "CA",
                        "cross_street": "Rue Sainte-Catherine O",
                        "formatted_address": "1500 Atwater Ave (Rue Sainte-Catherine O), Westmount QC",
                        "locality": "Westmount",
                        "region": "QC"
                  },
                  "name": "Vua Sandwichs",
                  "popularity": 0.476751394916305,
                  "price": 1
            },
            {
                  "distance": 814,
                  "location": {
                        "address": "1500 Atwater Ave",
                        "country": "CA",
                        "cross_street": "Atwater",
                        "formatted_address": "1500 Atwater Ave (Atwater), Montreal QC H3Z 1X5",
                        "locality": "Westmount",
                        "postcode": "H3Z 1X5",
                        "region": "QC"
                  },
                  "name": "Shawarma Plus",
                  "popularity": 0.9851208927464352,
                  "price": 2
            },
            {
                  "distance": 816,
                  "location": {
                        "address": "1500 Atwater Ave",
                        "address_extended": "Sk - 06",
                        "country": "CA",
                        "cross_street": "",
                        "formatted_address": "1500 Atwater Ave, Montr\u00e9al QC H3Z 1X5",
                        "locality": "Montreal",
                        "postcode": "H3Z 1X5",
                        "region": "QC"
                  },
                  "name": "Jugo Juice",
                  "popularity": 0.4265344079355239,
                  "price": 1
            },
            {
                  "distance": 818,
                  "location": {
                        "address": "1500 Atwater Ave",
                        "country": "CA",
                        "cross_street": "",
                        "formatted_address": "1500 Atwater Ave, Montr\u00e9al QC H3Z 1X5",
                        "locality": "Montreal",
                        "postcode": "H3Z 1X5",
                        "region": "QC"
                  },
                  "name": "Tommy Caf\u00e9",
                  "popularity": 0.9380037197768134,
                  "price": 1
            },
            {
                  "distance": 852,
                  "location": {
                        "address": "3015 Blvd de Maisonneuve Ouest",
                        "country": "CA",
                        "cross_street": "",
                        "formatted_address": "3015 Blvd de Maisonneuve Ouest, Montr\u00e9al QC H3Z 1J8",
                        "locality": "Montreal",
                        "postcode": "H3Z 1J8",
                        "region": "QC"
                  },
                  "name": "Chatime",
                  "popularity": 0.7668939863608184
            },
            {
                  "distance": 960,
                  "location": {
                        "address": "2313 Sainte Catherine Rue O",
                        "address_extended": "Av Atwater",
                        "country": "CA",
                        "cross_street": "Av Atwater",
                        "formatted_address": "2313 Sainte Catherine Rue O (Av Atwater), Montr\u00e9al QC H3H 1N2",
                        "locality": "Montreal",
                        "postcode": "H3H 1N2",
                        "region": "QC"
                  },
                  "name": "Restaurant Boustan",
                  "popularity": 0.9541185654806964,
                  "price": 2
            },
            {
                  "distance": 987,
                  "location": {
                        "address": "2330 Sainte Catherine Rue O",
                        "country": "CA",
                        "cross_street": "Atwater",
                        "formatted_address": "2330 Sainte Catherine Rue O (Atwater), Montr\u00e9al QC H3H 1N2",
                        "locality": "Montreal",
                        "postcode": "H3H 1N2",
                        "region": "QC"
                  },
                  "name": "Caf\u00e9 de la Maison ronde - the Roundhouse Cafe",
                  "popularity": 0.8384036714610144,
                  "price": 1
            },
            {
                  "distance": 175,
                  "location": {
                        "address": "115 ch de la C\u00f4te-Saint-Antoine",
                        "country": "CA",
                        "formatted_address": "115 ch de la C\u00f4te-Saint-Antoine, Westmount QC H3Y 2H9",
                        "locality": "Westmount",
                        "postcode": "H3Y 2H9",
                        "region": "QC"
                  },
                  "name": "Bec Sucr\u00e9"
            },
            {
                  "distance": 383,
                  "location": {
                        "address": "1377 Greene Ave",
                        "country": "CA",
                        "formatted_address": "1377 Greene Ave, Westmount QC H3Z 2A5",
                        "locality": "Westmount",
                        "postcode": "H3Z 2A5",
                        "region": "QC"
                  },
                  "name": "Restaurant Chez Nick"
            },
            {
                  "distance": 538,
                  "location": {
                        "address": "1232 Greene Ave",
                        "country": "CA",
                        "formatted_address": "1232 Greene Ave, Westmount QC H3Z 2A3",
                        "locality": "Westmount",
                        "postcode": "H3Z 2A3",
                        "region": "QC"
                  },
                  "name": "Restaurant Kasima Sushi Topia Ltee"
            },
            {
                  "distance": 609,
                  "location": {
                        "address": "4185 Sainte-Catherine Rue O",
                        "country": "CA",
                        "formatted_address": "4185 Sainte-Catherine Rue O, Westmount QC H3Z 3K2",
                        "locality": "Westmount",
                        "postcode": "H3Z 3K2",
                        "region": "QC"
                  },
                  "name": "Livia Matcha"
            },
            {
                  "distance": 658,
                  "location": {
                        "address": "4148A Ste",
                        "address_extended": "# 150",
                        "country": "CA",
                        "formatted_address": "4148A Ste, Montreal QC H3Z 0A2",
                        "locality": "Montreal",
                        "postcode": "H3Z 0A2",
                        "region": "QC"
                  },
                  "name": "Restaurant Baba"
            },
            {
                  "distance": 658,
                  "location": {
                        "address": "4148A Ste",
                        "address_extended": "# 150",
                        "country": "CA",
                        "formatted_address": "4148A Ste, Montreal QC H3Z 0A2",
                        "locality": "Montreal",
                        "postcode": "H3Z 0A2",
                        "region": "QC"
                  },
                  "name": "Franx Supreme"
            },
            {
                  "distance": 658,
                  "location": {
                        "address": "4148A Ste",
                        "address_extended": "# 150",
                        "country": "CA",
                        "formatted_address": "4148A Ste, Montreal QC H3Z 0A2",
                        "locality": "Montreal",
                        "postcode": "H3Z 0A2",
                        "region": "QC"
                  },
                  "name": "Tiki Ming"
            }
      ],
      "context": {
            "geo_bounds": {
                  "circle": {
                        "center": {
                              "latitude": 45.48624102,
                              "longitude": -73.59572768
                        },
                        "radius": 1000
                  }
            }
      }
}