{
      "results": [
            {
                  "distance": 699,
                  "location": {
                        "address": "350 Lebeau Blvd",
                        "country": "CA",
                        "cross_street": "",
                        "formatted_address": "350 Lebeau Blvd, Saint-Laurent QC H4N 1R5",
                        "locality": "Saint-Laurent",
                        "postcode": "H4N 1R5",
                        "region": "QC"
                  },
                  "name": "Boulangerie Andalos",
                  "popularity": 0.9985924489023467,
                  "price": 2,
                  "rating": 8.1
            },
            {
                  "distance": 814,
                  "location": {
                        "address": "1000 Legendre Rue O",
                        "country": "CA",
                        "formatted_address": "1000 Legendre Rue O, Montr\u00e9al QC H4N 3L9",
                        "locality": "Montreal",
                        "postcode": "H4N 3L9",
                        "region": "QC"
                  },
                  "name": "Tim Hortons",
                  "popularity": 0.9945353898561695,
                  "price": 1,
                  "rating": 6.8
            },
            {
                  "distance": 884,
                  "location": {
                        "address": "9258 Blvd de l'Acadie",
                        "country": "CA",
                        "cross_street": "",
                        "formatted_address": "9258 Blvd de l'Acadie, Montr\u00e9al QC H4N 3C5",
                        "locality": "Montreal",
                        "postcode": "H4N 3C5",
                        "region": "QC"
                  },
                  "name": "New Mondo Caf\u00e9",
                  "popularity": 0.9513389477668432,
                  "price": 1,
                  "rating": 6.8
            },
            {
                  "distance": 296,
                  "location": {
                        "address": "2305 Rockland Ch",
                        "address_extended": "Centre Rockland",
                        "country": "CA",
                        "cross_street": "",
                        "formatted_address": "2305 Rockland Ch, Mont-Royal QC H3P 3E9",
                        "locality": "Mont-Royal",
                        "postcode": "H3P 3E9",
                        "region": "QC"
                  },
                  "name": "Thai Express",
                  "popularity": 0.8910271574564723,
                  "price": 2,
                  "rating": 6.4
            },
            {
                  "distance": 504,
                  "location": {
                        "address": "2305 Rockland Ch",
                        "country": "CA",
                        "cross_street": "",
                        "formatted_address": "2305 Rockland Ch, Montr\u00e9al QC H3P 2Z3",
                        "locality": "Montreal",
                        "postcode": "H3P 2Z3",
                        "region": "QC"
                  },
                  "name": "A&W Restaurant",
                  "popularity": 0.9187405374716124,
                  "price": 1,
                  "rating": 6.2,
                  "store_id": "5557"
            },
            {
                  "distance": 817,
                  "location": {
                        "address": "1010 Legendre Rue O",
                        "country": "CA",
                        "cross_street": "",
                        "formatted_address": "1010 Legendre Rue O, Montr\u00e9al QC H4N 3L9",
                        "locality": "Montreal",
                        "postcode": "H4N 3L9",
                        "region": "QC"
                  },
                  "name": "Dic Ann's",
                  "popularity": 0.9723694171082513,
                  "price": 1,
                  "rating": 6.0
            },
            {
                  "distance": 739,
                  "location": {
                        "address": "931 Cremazie Blvd O",
                        "country": "CA",
                        "formatted_address": "931 Cremazie Blvd O, Montr\u00e9al QC H4N 3M5",
                        "locality": "Montreal",
                        "postcode": "H4N 3M5",
                        "region": "QC"
                  },
                  "name": "Roasters Rotisserie & Bar",
                  "popularity": 0.9552658970476912,
                  "price": 3,
                  "rating": 5.9
            },
            {
                  "distance": 970,
                  "location": {
                        "address": "1003 rue du March\u00e9-Central",
                        "country": "CA",
                        "cross_street": "in March\u00e9 Central",
                        "formatted_address": "1003 rue du March\u00e9-Central (in March\u00e9 Central), Montr\u00e9al QC H4N 1J8",
                        "locality": "Montreal",
                        "postcode": "H4N 1J8",
                        "region": "QC"
                  },
                  "name": "Presse Cafe",
                  "popularity": 0.8631126987130961,
                  "price": 1,
                  "rating": 5.4
            },
            {
                  "distance": 191,
                  "location": {
                        "address": "2305 Rockland Ch",
                        "country": "CA",
                        "cross_street": "",
                        "formatted_address": "2305 Rockland Ch, Mont-Royal QC H3P 3E9",
                        "locality": "Mont-Royal",
                        "postcode": "H3P 3E9",
                        "region": "QC"
                  },
                  "name": "Pizzeria No. 900",
                  "popularity": 0.9685725775927327,
                  "price": 1
            },
            {
                  "distance": 296,
                  "location": {
                        "address": "2305 Rockland Ch",
                        "address_extended": "# 11",
                        "country": "CA",
                        "cross_street": "",
                        "formatted_address": "2305 Rockland Ch, Mont-Royal QC H3P 3E9",
                        "locality": "Mont-Royal",
                        "postcode": "H3P 3E9",
                        "region": "QC"
                  },
                  "name": "Rockland Souvlaki Inc",
                  "popularity": 0.9678037471612415,
                  "price": 1
            },
            {
                  "distance": 296,
                  "location": {
                        "address": "2305 Rockland Ch",
                        "address_extended": "Unit 5605",
                        "country": "CA",
                        "cross_street": "",
                        "formatted_address": "2305 Rockland Ch, Mont-Royal QC H3P 3E9",
                        "locality": "Mont-Royal",
                        "postcode": "H3P 3E9",
                        "region": "QC"
                  },
                  "name": "Bento Sushi",
                  "popularity": 0.8359079295987888,
                  "price": 2,
                  "store_id": "ROCK00001"
            },
            {
                  "distance": 493,
                  "location": {
                        "address": "2305 Rockland Ch",
                        "country": "CA",
                        "cross_street": "",
                        "formatted_address": "2305 Rockland Ch, Mont-Royal QC H3P 3E9",
                        "locality": "Mont-Royal",
                        "postcode": "H3P 3E9",
                        "region": "QC"
                  },
                  "name": "Fabrika Rockland",
                  "popularity": 0.7559140802422407,
                  "price": 1
            },
            {
                  "distance": 497,
                  "location": {
                        "address": "6678B Tashereau",
                        "country": "CA",
                        "cross_street": "Lapiniere",
                        "formatted_address": "6678B Tashereau (Lapiniere), Brossard QC",
                        "locality": "Brossard",
                        "region": "QC"
                  },
                  "name": "Presse Caf\u00e9",
                  "popularity": 0.3338616578349735,
                  "price": 1
            },
            {
                  "distance": 505,
                  "location": {
                        "address": "2305 Rockland Ch",
                        "country": "CA",
                        "cross_street": "Chemin Rockland",
                        "formatted_address": "2305 Rockland Ch (Chemin Rockland), Montr\u00e9al QC H3P 3E9",
                        "locality": "Montreal",
                        "postcode": "H3P 3E9",
                        "region": "QC"
                  },
                  "name": "Grillades Torino",
                  "popularity": 0.9828373391370174,
                  "price": 2,
                  "store_id": "GT014"
            },
            {
                  "distance": 720,
                  "location": {
                        "address": "8901\u20138999 Blvd de l'Acadie",
                        "country": "CA",
                        "cross_street": "March\u00e9 Central",
                        "formatted_address": "8901\u20138999 Blvd de l'Acadie (March\u00e9 Central), Montr\u00e9al QC H4N 3K1",
                        "locality": "Montreal",
                        "postcode": "H4N 3K1",
                        "region": "QC"
                  },
                  "name": "Green Cafe",
                  "popularity": 0.8339799394398183,
                  "price": 1
            },
            {
                  "distance": 852,
                  "location": {
                        "address": "787A de Liege Rue O",
                        "country": "CA",
                        "cross_street": "",
                        "formatted_address": "787A de Liege Rue O, Montr\u00e9al QC H3N 1B1",
                        "locality": "Montreal",
                        "postcode": "H3N 1B1",
                        "region": "QC"
                  },
                  "name": "Cr\u00e8merie Meetha",
                  "popularity": 0.986929882664648,
                  "price": 1
            },
            {
                  "distance": 862,
                  "location": {
                        "address": "750 Cremazie Blvd O",
                        "country": "CA",
                        "cross_street": "acadie",
                        "formatted_address": "750 Cremazie Blvd O (acadie), Montr\u00e9al QC H3N 1A2",
                        "locality": "Montreal",
                        "postcode": "H3N 1A2",
                        "region": "QC"
                  },
                  "name": "Resto Bar Trophys",
                  "popularity": 0.9134296934140802,
                  "price": 2
            },
            {
                  "distance": 892,
                  "location": {
                        "address": "9252 Blvd de l Acadie",
                        "country": "CA",
                        "cross_street": "",
                        "formatted_address": "9252 Blvd de l Acadie, Montr\u00e9al QC H4N 3C5",
                        "locality": "Montreal",
                        "postcode": "H4N 3C5",
                        "region": "QC"
                  },
                  "name": "Sushi Shop",
                  "popularity": 0.8999810749432249,
                  "price": 2
            },
            {
                  "distance": 904,
                  "location": {
                        "address": "9191 Blvd de l'Acadie",
                        "country": "CA",
                        "cross_street": "",
                        "formatted_address": "9191 Blvd de l'Acadie, Montr\u00e9al QC H4N 3K1",
                        "locality": "Montreal",
                        "postcode": "H4N 3K1",
                        "region": "QC"
                  },
                  "name": "Mr. Puffs",
                  "popularity": 0.9723339326267979
            },
            {
                  "distance": 945,
                  "location": {
                        "address": "1004 Rue du March\u00e9-Central",
                        "country": "CA",
                        "cross_street": "",
                        "formatted_address": "1004 Rue du March\u00e9-Central, Montr\u00e9al QC H4N 1K4",
                        "locality": "Montreal",
                        "postcode": "H4N 1K4",
                        "region": "QC"
                  },
                  "name": "Zyara",
                  "popularity": 0.95278198334595,
                  "price": 2
            },
            {
                  "distance": 110,
                  "location": {
                        "address": "2305 Rockland Ch",
                        "country": "CA",
                        "formatted_address": "2305 Rockland Ch, Mont-Royal QC H3P 3E9",
                        "locality": "Mont-Royal",
                        "postcode": "H3P 3E9",
                        "region": "QC"
                  },
                  "name": "Cafe Depot Inc"
            },
            {
                  "distance": 110,
                  "location": {
                        "address": "2305 Rockland Ch",
                        "country": "CA",
                        "formatted_address": "2305 Rockland Ch, Mont-Royal QC H3P 3E9",
                        "locality": "Mont-Royal",
                        "postcode": "H3P 3E9",
                        "region": "QC"
                  },
                  "name": "Cafe Depot Gelato Rocklan"
            },
            {
                  "distance": 110,
                  "location": {
                        "address": "2305 Rockland Ch",
                        "country": "CA",
                        "formatted_address": "2305 Rockland Ch, Mont-Royal QC H3P 3E9",
                        "locality": "Mont-Royal",
                        "postcode": "H3P 3E9",
                        "region": "QC"
                  },
                  "name": "Coffee Depot"
            },
            {
                  "distance": 110,
                  "location": {
                        "address": "2305 Rockland",
                        "country": "CA",
                        "formatted_address": "2305 Rockland, Mont-Royal QC H3P 3E9",
                        "locality": "Mont-Royal",
                        "postcode": "H3P 3E9",
                        "region": "QC"
                  },
                  "name": "9328-9684 Qu\u00e9bec Inc"
            },
            {
                  "distance": 167,
                  "location": {
                        "address": "2305 Rockland Ch",
                        "country": "CA",
                        "formatted_address": "2305 Rockland Ch, Mont-Royal QC H3P 3E9",
                        "locality": "Mont-Royal",
                        "postcode": "H3P 3E9",
                        "region": "QC"
                  },
                  "name": "Grillaterie Bourbon Rockland Inc"
            },
            {
                  "distance": 178,
                  "location": {
                        "address": "2305 Rockland Ch",
                        "country": "CA",
                        "formatted_address": "2305 Rockland Ch, Mont-Royal QC H3P 3E9",
                        "locality": "Mont-Royal",
                        "postcode": "H3P 3E9",
                        "region": "QC"
                  },
                  "name": "Freedom Cafe"
            },
            {
                  "distance": 178,
                  "location": {
                        "address": "2305 Rockland Ch",
                        "address_extended": "# 120",
                        "country": "CA",
                        "formatted_address": "2305 Rockland Ch, Mont-Royal QC H3P 3E9",
                        "locality": "Mont-Royal",
                        "postcode": "H3P 3E9",
                        "region": "QC"
                  },
                  "name": "Jardins des Salades"
            },
            {
                  "distance": 178,
                  "location": {
                        "address": "2305 Rockland Ch",
                        "country": "CA",
                        "formatted_address": "2305 Rockland Ch, Mont-Royal QC H3P 3E9",
                        "locality": "Mont-Royal",
                        "postcode": "H3P 3E9",
                        "region": "QC"
                  },
                  "name": "Sulposto"
            },
            {
                  "distance": 178,
                  "location": {
                        "address": "2305 Rockland Ch",
                        "country": "CA",
                        "formatted_address": "2305 Rockland Ch, Mont-Royal QC H3P 3E9",
                        "locality": "Mont-Royal",
                        "postcode": "H3P 3E9",
                        "region": "QC"
                  },
                  "name": "Depot Gelato Cafe"
            },
            {
                  "distance": 226,
                  "location": {
                        "address": "2305 Rockland Ch",
                        "country": "CA",
                        "formatted_address": "2305 Rockland Ch, Mont-Royal QC",
                        "locality": "Mont-Royal",
                        "region": "QC"
                  },
                  "name": "Chick'n Chick"
            },
            {
                  "distance": 359,
                  "location": {
                        "address": "1955 Ch de la Cote-de-Liesse",
                        "country": "CA",
                        "formatted_address": "1955 Ch de la Cote-de-Liesse, Saint-Laurent QC H4N 3A8",
                        "locality": "Saint-Laurent",
                        "postcode": "H4N 3A8",
                        "region": "QC"
                  },
                  "name": "Baton Rouge Restaurant"
            },
            {
                  "distance": 512,
                  "location": {
                        "address": "166 Benjamin-Hudon Rue",
                        "country": "CA",
                        "formatted_address": "166 Benjamin-Hudon Rue, Saint-Laurent QC H4N 1H8",
                        "locality": "Saint-Laurent",
                        "postcode": "H4N 1H8",
                        "region": "QC"
                  },
                  "name": "Cafe Mystique"
            },
            {
                  "distance": 577,
                  "location": {
                        "address": "258 Lebeau Blvd",
                        "country": "CA",
                        "formatted_address": "258 Lebeau Blvd, Saint-Laurent QC H4N 1R4",
                        "locality": "Saint-Laurent",
                        "postcode": "H4N 1R4",
                        "region": "QC"
                  },
                  "name": "Thinaddictives"
            },
            {
                  "distance": 736,
                  "location": {
                        "address": "903 rue de Li\u00e8ge Ouest",
                        "country": "CA",
                        "formatted_address": "903 rue de Li\u00e8ge Ouest, Montreal QC H3N 1B5",
                        "locality": "Montreal",
                        "postcode": "H3N 1B5",
                        "region": "QC"
                  },
                  "name": "Cafe Martha"
            },
            {
                  "distance": 736,
                  "location": {
                        "address": "917 Rue de Li\u00e8ge Ouest",
                        "country": "CA",
                        "formatted_address": "917 Rue de Li\u00e8ge Ouest, Montreal QC H3N 1B5",
                        "locality": "Montreal",
                        "postcode": "H3N 1B5",
                        "region": "QC"
                  },
                  "name": "Boulangerie Arouch"
            }
      ],
      "context": {
            "geo_bounds": {
                  "circle": {
                        "center": {
                              "latitude": 45.52588992,
                              "longitude": -73.65003437
                        },
                        "radius": 1000
                  }
            }
      }
}