{
      "results": [
            {
                  "distance": 957,
                  "location": {
                        "address": "5196 Jarry Rue E",
                        "country": "CA",
                        "formatted_address": "5196 Jarry Rue E, Montr\u00e9al QC H1R 1Y4",
                        "locality": "Montreal",
                        "postcode": "H1R 1Y4",
                        "region": "QC"
                  },
                  "name": "Caf\u00e9 Milano",
                  "popularity": 0.9936009651778955,
                  "price": 2,
                  "rating": 8.9
            },
            {
                  "distance": 970,
                  "location": {
                        "address": "5884 Jean-Talon Rue E",
                        "country": "CA",
                        "cross_street": "",
                        "formatted_address": "5884 Jean-Talon Rue E, Montr\u00e9al QC H1S 1M2",
                        "locality": "Montreal",
                        "postcode": "H1S 1M2",
                        "region": "QC"
                  },
                  "name": "La Bella Italiana",
                  "popularity": 0.9815480696442089,
                  "price": 4,
                  "rating": 8.5
            },
            {
                  "distance": 923,
                  "location": {
                        "address": "8415 Lafrenaie Rue",
                        "country": "CA",
                        "formatted_address": "8415 Lafrenaie Rue, Saint-Leonard QC H1P 2B3",
                        "locality": "Saint-L\u00e9onard",
                        "postcode": "H1P 2B3",
                        "region": "QC"
                  },
                  "name": "Les D\u00e9lices Lafrenaie Inc",
                  "popularity": 0.9940504352763059,
                  "price": 1,
                  "rating": 8.5
            },
            {
                  "distance": 878,
                  "location": {
                        "address": "8600 Langelier Blvd",
                        "country": "CA",
                        "cross_street": "Metro Langelier",
                        "formatted_address": "8600 Langelier Blvd (Metro Langelier), Montr\u00e9al QC H1P 2Y7",
                        "locality": "Montreal",
                        "postcode": "H1P 2Y7",
                        "region": "QC"
                  },
                  "name": "Caf\u00e9 Victoria's",
                  "popularity": 0.9765329295987888,
                  "price": 1,
                  "rating": 7.5
            },
            {
                  "distance": 635,
                  "location": {
                        "address": "6313 Jarry Rue E",
                        "country": "CA",
                        "cross_street": "Langelier",
                        "formatted_address": "6313 Jarry Rue E (Langelier), Saint-Leonard QC H1P 1W1",
                        "locality": "Saint-L\u00e9onard",
                        "postcode": "H1P 1W1",
                        "region": "QC"
                  },
                  "name": "Restaurant Di Menna",
                  "popularity": 0.9867642884178652,
                  "price": 3,
                  "rating": 7.1
            },
            {
                  "distance": 649,
                  "location": {
                        "address": "8460 Lacordaire Blvd",
                        "country": "CA",
                        "formatted_address": "8460 Lacordaire Blvd, Saint-Leonard QC H1R 2A5",
                        "locality": "Saint-Leonard",
                        "postcode": "H1R 2A5",
                        "region": "QC"
                  },
                  "name": "Radikal Dezzertz",
                  "popularity": 0.9048306207418623,
                  "price": 1,
                  "rating": 6.7
            },
            {
                  "distance": 675,
                  "location": {
                        "address": "8492 Lacordaire Blvd",
                        "address_extended": "Place Toulon",
                        "country": "CA",
                        "cross_street": "",
                        "formatted_address": "8492 Lacordaire Blvd, Saint-Leonard QC H1R 2A5",
                        "locality": "Saint-Leonard",
                        "postcode": "H1R 2A5",
                        "region": "QC"
                  },
                  "name": "Subway",
                  "popularity": 0.8626987130961393,
                  "price": 1,
                  "rating": 6.4,
                  "store_id": "57208"
            },
            {
                  "distance": 753,
                  "location": {
                        "address": "6245 Metropolitain Blvd E",
                        "country": "CA",
                        "cross_street": "",
                        "formatted_address": "6245 Metropolitain Blvd E, Saint-Leonard QC H1P 1X7",
                        "locality": "Saint-L\u00e9onard",
                        "postcode": "H1P 1X7",
                        "region": "QC"
                  },
                  "name": "Tim Hortons",
                  "popularity": 0.986634178652536,
                  "price": 1,
                  "rating": 5.8
            },
            {
                  "distance": 885,
                  "location": {
                        "address": "8005 Langelier Blvd",
                        "country": "CA",
                        "cross_street": "Jarry and Langelier",
                        "formatted_address": "8005 Langelier Blvd (Jarry and Langelier), Saint-Leonard QC H1P 2X6",
                        "locality": "Saint-L\u00e9onard",
                        "postcode": "H1P 2X6",
                        "region": "QC"
                  },
                  "name": "McDonald's",
                  "popularity": 0.9950321725965178,
                  "price": 1,
                  "rating": 5.1,
                  "store_id": "40327"
            },
            {
                  "distance": 424,
                  "location": {
                        "address": "5670 Jarry Rue E",
                        "country": "CA",
                        "cross_street": "",
                        "formatted_address": "5670 Jarry Rue E, Montr\u00e9al QC H1P 1V4",
                        "locality": "Montreal",
                        "postcode": "H1P 1V4",
                        "region": "QC"
                  },
                  "name": "Bretzel & Compagnie",
                  "popularity": 0.8600018925056775,
                  "price": 1
            },
            {
                  "distance": 702,
                  "location": {
                        "address": "6245 Metropolitain Blvd E",
                        "country": "CA",
                        "cross_street": "",
                        "formatted_address": "6245 Metropolitain Blvd E, Montr\u00e9al QC H1P 1X7",
                        "locality": "Montreal",
                        "postcode": "H1P 1X7",
                        "region": "QC"
                  },
                  "name": "Impac Taco",
                  "popularity": 0.05136970098410295,
                  "price": 1
            },
            {
                  "distance": 842,
                  "location": {
                        "address": "5250 Jarry Rue E",
                        "country": "CA",
                        "cross_street": "",
                        "formatted_address": "5250 Jarry Rue E, Saint-Leonard QC H1R 3A9",
                        "locality": "Saint-Leonard",
                        "postcode": "H1R 3A9",
                        "region": "QC"
                  },
                  "name": "Restaurant Miramar Express",
                  "popularity": 0.28625331188493564,
                  "price": 2
            },
            {
                  "distance": 957,
                  "location": {
                        "address": "5957 Jean-Talon Rue E",
                        "country": "CA",
                        "cross_street": "",
                        "formatted_address": "5957 Jean-Talon Rue E, Montr\u00e9al QC H1S 1M5",
                        "locality": "Montreal",
                        "postcode": "H1S 1M5",
                        "region": "QC"
                  },
                  "name": "Vincent S Variete Limitee",
                  "popularity": 0.34977053368660105
            },
            {
                  "distance": 987,
                  "location": {
                        "address": "5761 Jean Talon Rue E",
                        "country": "CA",
                        "cross_street": "",
                        "formatted_address": "5761 Jean Talon Rue E, Montr\u00e9al QC H1S 1M3",
                        "locality": "Montreal",
                        "postcode": "H1S 1M3",
                        "region": "QC"
                  },
                  "name": "Restaurant Espadon",
                  "popularity": 0.9847416729750189
            },
            {
                  "distance": 8039,
                  "location": {
                        "address": "8090 Langelier Blvd",
                        "country": "CA",
                        "cross_street": "",
                        "formatted_address": "8090 Langelier Blvd, Saint-Leonard QC H1P 2B9",
                        "locality": "Saint-L\u00e9onard",
                        "postcode": "H1P 2B9",
                        "region": "QC"
                  },
                  "name": "Poissonnerie Rayan",
                  "popularity": 0.7082892948814736,
                  "price": 3
            },
            {
                  "distance": 305,
                  "location": {
                        "address": "6005 Robert Blvd",
                        "country": "CA",
                        "formatted_address": "6005 Robert Blvd, Saint-Leonard QC H1P 1M9",
                        "locality": "Saint-Leonard",
                        "postcode": "H1P 1M9",
                        "region": "QC"
                  },
                  "name": "Vincent Ristorante & Pasteria"
            },
            {
                  "distance": 318,
                  "location": {
                        "address": "6055 Robert Blvd",
                        "country": "CA",
                        "formatted_address": "6055 Robert Blvd, Saint-Leonard QC H1P 1M9",
                        "locality": "Saint-Leonard",
                        "postcode": "H1P 1M9",
                        "region": "QC"
                  },
                  "name": "Patisserie Laura"
            },
            {
                  "distance": 429,
                  "location": {
                        "address": "5670 Jarry Rue E",
                        "country": "CA",
                        "formatted_address": "5670 Jarry Rue E, Saint-Leonard QC H1P 1V4",
                        "locality": "Saint-Leonard",
                        "postcode": "H1P 1V4",
                        "region": "QC"
                  },
                  "name": "Dolce Vita"
            },
            {
                  "distance": 610,
                  "location": {
                        "address": "5800 Metropolitain Blvd E",
                        "country": "CA",
                        "formatted_address": "5800 Metropolitain Blvd E, Saint-Leonard QC H1S 1A7",
                        "locality": "Saint-Leonard",
                        "postcode": "H1S 1A7",
                        "region": "QC"
                  },
                  "name": "Bar Rencontre le Select Classique"
            },
            {
                  "distance": 625,
                  "location": {
                        "address": "6299 Jarry Rue E",
                        "country": "CA",
                        "formatted_address": "6299 Jarry Rue E, Saint-Leonard QC H1P 1W1",
                        "locality": "Saint-Leonard",
                        "postcode": "H1P 1W1",
                        "region": "QC"
                  },
                  "name": "Patisserie Antep Baklava"
            },
            {
                  "distance": 631,
                  "location": {
                        "address": "6245 Metropolitain Blvd E",
                        "country": "CA",
                        "formatted_address": "6245 Metropolitain Blvd E, Saint-Leonard QC H1P 1X7",
                        "locality": "Saint-Leonard",
                        "postcode": "H1P 1X7",
                        "region": "QC"
                  },
                  "name": "La Vape Shop"
            },
            {
                  "distance": 640,
                  "location": {
                        "address": "6020 Metropolitain Blvd E",
                        "country": "CA",
                        "formatted_address": "6020 Metropolitain Blvd E, Saint-Leonard QC H1S 1A9",
                        "locality": "Saint-Leonard",
                        "postcode": "H1S 1A9",
                        "region": "QC"
                  },
                  "name": "Resto Bar District 40"
            },
            {
                  "distance": 702,
                  "location": {
                        "address": "6245 Metropolitain Blvd E",
                        "country": "CA",
                        "formatted_address": "6245 Metropolitain Blvd E, Saint-Leonard QC H1P 1X7",
                        "locality": "Saint-Leonard",
                        "postcode": "H1P 1X7",
                        "region": "QC"
                  },
                  "name": "Action Superclub"
            },
            {
                  "distance": 740,
                  "location": {
                        "address": "6245 Metropolitain Blvd E",
                        "country": "CA",
                        "formatted_address": "6245 Metropolitain Blvd E, Saint-Leonard QC H1P 1X7",
                        "locality": "Saint-Leonard",
                        "postcode": "H1P 1X7",
                        "region": "QC"
                  },
                  "name": "Confetti Home Made Ice Cream"
            },
            {
                  "distance": 750,
                  "location": {
                        "address": "8452 Langelier Blvd",
                        "country": "CA",
                        "formatted_address": "8452 Langelier Blvd, Saint-Leonard QC H1P 2C2",
                        "locality": "Saint-Leonard",
                        "postcode": "H1P 2C2",
                        "region": "QC"
                  },
                  "name": "Cafe Royal Sps"
            },
            {
                  "distance": 758,
                  "location": {
                        "address": "8315 Langelier Blvd",
                        "country": "CA",
                        "formatted_address": "8315 Langelier Blvd, Saint-Leonard QC H1P 2B7",
                        "locality": "Saint-Leonard",
                        "postcode": "H1P 2B7",
                        "region": "QC"
                  },
                  "name": "Gelato Zoom Caf\u00e9"
            },
            {
                  "distance": 917,
                  "location": {
                        "address": "6549 Jarry Rue E",
                        "country": "CA",
                        "formatted_address": "6549 Jarry Rue E, Saint-Leonard QC H1P 1W2",
                        "locality": "Saint-Leonard",
                        "postcode": "H1P 1W2",
                        "region": "QC"
                  },
                  "name": "Restaurant le Jerry"
            },
            {
                  "distance": 937,
                  "location": {
                        "address": "5985 Jean-Talon Rue E",
                        "country": "CA",
                        "formatted_address": "5985 Jean-Talon Rue E, Saint-Leonard QC H1S 1M5",
                        "locality": "Saint-Leonard",
                        "postcode": "H1S 1M5",
                        "region": "QC"
                  },
                  "name": "Grillades M\u00e9diterran\u00e9ennes"
            },
            {
                  "distance": 954,
                  "location": {
                        "address": "5833 Jean Talon Rue E",
                        "country": "CA",
                        "formatted_address": "5833 Jean Talon Rue E, Saint-Leonard QC H1S 1M4",
                        "locality": "Saint-Leonard",
                        "postcode": "H1S 1M4",
                        "region": "QC"
                  },
                  "name": "Caf\u00e9 Buongiorno"
            },
            {
                  "distance": 960,
                  "location": {
                        "address": "6566 Jarry Rue E",
                        "country": "CA",
                        "formatted_address": "6566 Jarry Rue E, Saint-Leonard QC H1P 1W3",
                        "locality": "Saint-Leonard",
                        "postcode": "H1P 1W3",
                        "region": "QC"
                  },
                  "name": "Buffet Cristina"
            },
            {
                  "distance": 984,
                  "location": {
                        "address": "6020 Jean-Talon Rue E",
                        "address_extended": "Bureau 210",
                        "country": "CA",
                        "formatted_address": "6020 Jean-Talon Rue E, Saint-Leonard QC H1S 3B1",
                        "locality": "Saint-Leonard",
                        "postcode": "H1S 3B1",
                        "region": "QC"
                  },
                  "name": "Le Baron Royal Ammi"
            },
            {
                  "distance": 984,
                  "location": {
                        "address": "5872 Jean-Talon Rue E",
                        "country": "CA",
                        "formatted_address": "5872 Jean-Talon Rue E, Saint-Leonard QC H1S 1M2",
                        "locality": "Saint-Leonard",
                        "postcode": "H1S 1M2",
                        "region": "QC"
                  },
                  "name": "S Lounge"
            },
            {
                  "distance": 999,
                  "location": {
                        "address": "5759 Jean-Talon Rue E",
                        "country": "CA",
                        "formatted_address": "5759 Jean-Talon Rue E, Saint-Leonard QC H1S 1M3",
                        "locality": "Saint-Leonard",
                        "postcode": "H1S 1M3",
                        "region": "QC"
                  },
                  "name": "Pizza Manou"
            }
      ],
      "context": {
            "geo_bounds": {
                  "circle": {
                        "center": {
                              "latitude": 45.5904902,
                              "longitude": -73.5902694
                        },
                        "radius": 1000
                  }
            }
      }
}