{
      "results": [
            {
                  "distance": 821,
                  "location": {
                        "address": "6128 Ave de Monkland",
                        "country": "CA",
                        "cross_street": "Beaconsfield",
                        "formatted_address": "6128 Ave de Monkland (Beaconsfield), Montr\u00e9al QC H4A 1H4",
                        "locality": "Montreal",
                        "postcode": "H4A 1H4",
                        "region": "QC"
                  },
                  "name": "Caf\u00e9 de' Mercanti",
                  "popularity": 0.9613573996971991,
                  "price": 1,
                  "rating": 9.1
            },
            {
                  "distance": 575,
                  "location": {
                        "address": "5456 Sherbrooke Rue O",
                        "country": "CA",
                        "cross_street": "at Addington",
                        "formatted_address": "5456 Sherbrooke Rue O (at Addington), Montr\u00e9al QC H4A 1V9",
                        "locality": "Montreal",
                        "postcode": "H4A 1V9",
                        "region": "QC"
                  },
                  "name": "Chalet Bar B-Q",
                  "popularity": 0.9907385503406511,
                  "price": 2,
                  "rating": 8.8
            },
            {
                  "distance": 120,
                  "location": {
                        "address": "5732 Sherbrooke Rue O",
                        "address_extended": "Wilson",
                        "country": "CA",
                        "cross_street": "Wilson",
                        "formatted_address": "5732 Sherbrooke Rue O (Wilson), Montr\u00e9al QC H4A 1W8",
                        "locality": "Montreal",
                        "postcode": "H4A 1W8",
                        "region": "QC"
                  },
                  "name": "Notre Boeuf de Gr\u00e2ce",
                  "popularity": 0.9811459121877366,
                  "price": 1,
                  "rating": 8.7
            },
            {
                  "distance": 764,
                  "location": {
                        "address": "5338 Sherbrooke Rue O",
                        "country": "CA",
                        "cross_street": "Decarie",
                        "formatted_address": "5338 Sherbrooke Rue O (Decarie), Montr\u00e9al QC H4A 1V5",
                        "locality": "Montreal",
                        "postcode": "H4A 1V5",
                        "region": "QC"
                  },
                  "name": "Boulangerie Chez Fred",
                  "popularity": 0.9809684897804694,
                  "price": 1,
                  "rating": 8.5
            },
            {
                  "distance": 967,
                  "location": {
                        "address": "5175A Sherbrooke Rue O",
                        "country": "CA",
                        "formatted_address": "5175A Sherbrooke Rue O, Montr\u00e9al QC H4A 1T5",
                        "locality": "Montreal",
                        "postcode": "H4A 1T5",
                        "region": "QC"
                  },
                  "name": "Nextdoor Pub & Grill",
                  "popularity": 0.9476840461771385,
                  "price": 1,
                  "rating": 8.4
            },
            {
                  "distance": 456,
                  "location": {
                        "address": "6135 Sherbrooke Rue O",
                        "country": "CA",
                        "cross_street": "Grand Boulevard",
                        "formatted_address": "6135 Sherbrooke Rue O (Grand Boulevard), Montr\u00e9al QC H4A 1Y4",
                        "locality": "Montreal",
                        "postcode": "H4A 1Y4",
                        "region": "QC"
                  },
                  "name": "Dawa",
                  "popularity": 0.9545325510976533,
                  "price": 2,
                  "rating": 8.1
            },
            {
                  "distance": 831,
                  "location": {
                        "address": "5500 Ave de Monkland",
                        "country": "CA",
                        "formatted_address": "5500 Ave de Monkland, Montr\u00e9al QC H4A 1C7",
                        "locality": "Montreal",
                        "postcode": "H4A 1C7",
                        "region": "QC"
                  },
                  "name": "Boulangerie Premi\u00e8re Moisson",
                  "popularity": 0.9813351627554883,
                  "price": 1,
                  "rating": 8.1
            },
            {
                  "distance": 889,
                  "location": {
                        "address": "5227 Sherbrooke Rue O",
                        "country": "CA",
                        "cross_street": "Northcliffe",
                        "formatted_address": "5227 Sherbrooke Rue O (Northcliffe), Montr\u00e9al QC H4A 1T7",
                        "locality": "Montreal",
                        "postcode": "H4A 1T7",
                        "region": "QC"
                  },
                  "name": "Soba et Sushi Bar",
                  "popularity": 0.9569691521574565,
                  "price": 2,
                  "rating": 8.1
            },
            {
                  "distance": 749,
                  "location": {
                        "address": "5626 Ave de Monkland",
                        "country": "CA",
                        "cross_street": "at av. Marcil",
                        "formatted_address": "5626 Ave de Monkland (at av. Marcil), Montr\u00e9al QC H4A 1E3",
                        "locality": "Montreal",
                        "postcode": "H4A 1E3",
                        "region": "QC"
                  },
                  "name": "Lucille's Oyster Dive",
                  "popularity": 0.9606358819076457,
                  "price": 3,
                  "rating": 8.0
            },
            {
                  "distance": 805,
                  "location": {
                        "address": "5555 Ave de Monkland",
                        "country": "CA",
                        "cross_street": "",
                        "formatted_address": "5555 Ave de Monkland, Montr\u00e9al QC H4A 1E1",
                        "locality": "Montreal",
                        "postcode": "H4A 1E1",
                        "region": "QC"
                  },
                  "name": "Monkland Taverne",
                  "popularity": 0.8456425056775171,
                  "price": 3,
                  "rating": 7.8
            },
            {
                  "distance": 854,
                  "location": {
                        "address": "6151 Ave de Monkland",
                        "country": "CA",
                        "cross_street": "",
                        "formatted_address": "6151 Ave de Monkland, Montr\u00e9al QC H4B 1G3",
                        "locality": "Montreal",
                        "postcode": "H4B 1G3",
                        "region": "QC"
                  },
                  "name": "La Meunerie Urbaine",
                  "popularity": 0.9667155563966692,
                  "price": 1,
                  "rating": 7.8
            },
            {
                  "distance": 841,
                  "location": {
                        "address": "4011 Decarie Blvd",
                        "country": "CA",
                        "cross_street": "Notre-Dame-de-Gr\u00e2ce",
                        "formatted_address": "4011 Decarie Blvd (Notre-Dame-de-Gr\u00e2ce), Montr\u00e9al QC H4A 3J8",
                        "locality": "Montreal",
                        "postcode": "H4A 3J8",
                        "region": "QC"
                  },
                  "name": "Orange Caf\u00e9",
                  "popularity": 0.9772544473883422,
                  "price": 1,
                  "rating": 7.7
            },
            {
                  "distance": 94,
                  "location": {
                        "address": "5860 Sherbrooke Rue W",
                        "country": "CA",
                        "cross_street": "btwn Regent & Clifton",
                        "formatted_address": "5860 Sherbrooke Rue W (btwn Regent & Clifton), Montr\u00e9al QC H4A 1X5",
                        "locality": "Montreal",
                        "postcode": "H4A 1X5",
                        "region": "QC"
                  },
                  "name": "Star of India",
                  "popularity": 0.8855507191521574,
                  "price": 2,
                  "rating": 7.6
            },
            {
                  "distance": 791,
                  "location": {
                        "address": "5557 Ave de Monkland",
                        "country": "CA",
                        "formatted_address": "5557 Ave de Monkland, Montr\u00e9al QC H4A 1E1",
                        "locality": "Montreal",
                        "postcode": "H4A 1E1",
                        "region": "QC"
                  },
                  "name": "Rockaberry Franchising",
                  "popularity": 0.9117619227857684,
                  "price": 1,
                  "rating": 7.4
            },
            {
                  "distance": 795,
                  "location": {
                        "address": "5563 Ave de Monkland",
                        "country": "CA",
                        "cross_street": "Old Orchard",
                        "formatted_address": "5563 Ave de Monkland (Old Orchard), Montr\u00e9al QC H4A 1E1",
                        "locality": "Montreal",
                        "postcode": "H4A 1E1",
                        "region": "QC"
                  },
                  "name": "Ye Olde Orchard Pub & Grill",
                  "popularity": 0.9567917297501892,
                  "price": 2,
                  "rating": 7.4
            },
            {
                  "distance": 373,
                  "location": {
                        "address": "6079 Sherbrooke Rue O",
                        "country": "CA",
                        "formatted_address": "6079 Sherbrooke Rue O, Montr\u00e9al QC H4A 1Y2",
                        "locality": "Montreal",
                        "postcode": "H4A 1Y2",
                        "region": "QC"
                  },
                  "name": "Ganges Restaurant",
                  "popularity": 0.866377271006813,
                  "price": 2,
                  "rating": 7.3
            },
            {
                  "distance": 692,
                  "location": {
                        "address": "5766 Ave de Monkland",
                        "country": "CA",
                        "cross_street": "",
                        "formatted_address": "5766 Ave de Monkland, Montr\u00e9al QC H4A 1E9",
                        "locality": "Montreal",
                        "postcode": "H4A 1E9",
                        "region": "QC"
                  },
                  "name": "Gia Ba",
                  "popularity": 0.8727763058289175,
                  "rating": 7.3
            },
            {
                  "distance": 830,
                  "location": {
                        "address": "6127 Ave de Monkland",
                        "country": "CA",
                        "cross_street": "",
                        "formatted_address": "6127 Ave de Monkland, Montr\u00e9al QC H4A 1H5",
                        "locality": "Montreal",
                        "postcode": "H4A 1H5",
                        "region": "QC"
                  },
                  "name": "Bistro Amerigo",
                  "popularity": 0.9265944360333082,
                  "rating": 7.3
            },
            {
                  "distance": 169,
                  "location": {
                        "address": "5916 Sherbrooke Rue O",
                        "country": "CA",
                        "cross_street": "",
                        "formatted_address": "5916 Sherbrooke Rue O, Montr\u00e9al QC H4A 1X7",
                        "locality": "Montreal",
                        "postcode": "H4A 1X7",
                        "region": "QC"
                  },
                  "name": "Honey Martin",
                  "popularity": 0.9609670704012112,
                  "price": 1,
                  "rating": 6.8
            },
            {
                  "distance": 666,
                  "location": {
                        "address": "5563 Upper-Lachine Ch",
                        "country": "CA",
                        "cross_street": "",
                        "formatted_address": "5563 Upper-Lachine Ch, Montr\u00e9al QC H4A 2A6",
                        "locality": "Montreal",
                        "postcode": "H4A 2A6",
                        "region": "QC"
                  },
                  "name": "Restaurant Yas",
                  "popularity": 0.8623202119606359,
                  "rating": 6.7
            },
            {
                  "distance": 859,
                  "location": {
                        "address": "5259 Sherbrooke Rue O",
                        "country": "CA",
                        "cross_street": "",
                        "formatted_address": "5259 Sherbrooke Rue O, Montr\u00e9al QC H4A 1V1",
                        "locality": "Montreal",
                        "postcode": "H4A 1V1",
                        "region": "QC"
                  },
                  "name": "Thai Express",
                  "popularity": 0.9259675435276306,
                  "price": 2,
                  "rating": 6.6,
                  "store_id": "1939"
            },
            {
                  "distance": 776,
                  "location": {
                        "address": "5550 Monkland Ave",
                        "country": "CA",
                        "formatted_address": "5550 Monkland Ave, Montr\u00e9al QC H4A 1C9",
                        "locality": "Montreal",
                        "postcode": "H4A 1C9",
                        "region": "QC"
                  },
                  "name": "Second Cup Coffee Co",
                  "popularity": 0.9391322861468584,
                  "price": 1,
                  "rating": 6.3
            },
            {
                  "distance": 995,
                  "location": {
                        "address": "6495 St Jacques Rue",
                        "country": "CA",
                        "cross_street": "Cavendish",
                        "formatted_address": "6495 St Jacques Rue (Cavendish), Montr\u00e9al QC H4B 1V1",
                        "locality": "Montreal",
                        "postcode": "H4B 1V1",
                        "region": "QC"
                  },
                  "name": "Tim Hortons",
                  "popularity": 0.9952923921271764,
                  "price": 1,
                  "rating": 6.3
            },
            {
                  "distance": 902,
                  "location": {
                        "address": "6390 Sherbrooke Rue O",
                        "country": "CA",
                        "cross_street": "",
                        "formatted_address": "6390 Sherbrooke Rue O, Montr\u00e9al QC H4B 1M9",
                        "locality": "Montreal",
                        "postcode": "H4B 1M9",
                        "region": "QC"
                  },
                  "name": "Pizza Pizza",
                  "popularity": 0.9750189250567751,
                  "price": 1,
                  "rating": 6.3,
                  "store_id": "302"
            },
            {
                  "distance": 751,
                  "location": {
                        "address": "5582 Ave Monkland",
                        "country": "CA",
                        "cross_street": "",
                        "formatted_address": "5582 Ave Monkland, Montr\u00e9al QC H4A 1C9",
                        "locality": "Montreal",
                        "postcode": "H4A 1C9",
                        "region": "QC"
                  },
                  "name": "La Diperie",
                  "popularity": 0.9214255299015897,
                  "price": 1,
                  "rating": 6.3
            },
            {
                  "distance": 693,
                  "location": {
                        "address": "5752 Ave de Monkland",
                        "country": "CA",
                        "cross_street": "coin Wilson",
                        "formatted_address": "5752 Ave de Monkland (coin Wilson), Montr\u00e9al QC H4A 1E9",
                        "locality": "Montreal",
                        "postcode": "H4A 1E9",
                        "region": "QC"
                  },
                  "name": "Typhoon Lounge",
                  "popularity": 0.9507830242240727,
                  "price": 2,
                  "rating": 6.0
            },
            {
                  "distance": 661,
                  "location": {
                        "address": "6180 Saint-Jacques Rue",
                        "country": "CA",
                        "formatted_address": "6180 Saint-Jacques Rue, Montr\u00e9al QC H4B 1T6",
                        "locality": "Montreal",
                        "postcode": "H4B 1T6",
                        "region": "QC"
                  },
                  "name": "Restaurant Shabu Shabu",
                  "popularity": 0.9392623959121877,
                  "price": 2,
                  "rating": 5.9
            },
            {
                  "distance": 816,
                  "location": {
                        "address": "2160 Decarie Blvd",
                        "country": "CA",
                        "cross_street": "Corner Sherbrooke W",
                        "formatted_address": "2160 Decarie Blvd (Corner Sherbrooke W), Montr\u00e9al QC H4A 3J3",
                        "locality": "Montreal",
                        "postcode": "H4A 3J3",
                        "region": "QC"
                  },
                  "name": "Tim Hortons",
                  "popularity": 0.9646574564723694,
                  "price": 1,
                  "rating": 5.9
            },
            {
                  "distance": 712,
                  "location": {
                        "address": "5737 Ave de Monkland",
                        "country": "CA",
                        "cross_street": "Avenue Wilson",
                        "formatted_address": "5737 Ave de Monkland (Avenue Wilson), Montr\u00e9al QC H4A 1E7",
                        "locality": "Montreal",
                        "postcode": "H4A 1E7",
                        "region": "QC"
                  },
                  "name": "Le Petit Tokebi",
                  "popularity": 0.9233416919000756,
                  "price": 2,
                  "rating": 5.8
            },
            {
                  "distance": 9,
                  "location": {
                        "address": "5791 Sherbrooke Rue O",
                        "country": "CA",
                        "cross_street": "Melrose",
                        "formatted_address": "5791 Sherbrooke Rue O (Melrose), Montr\u00e9al QC H4A 1X2",
                        "locality": "Montreal",
                        "postcode": "H4A 1X2",
                        "region": "QC"
                  },
                  "name": "Cafe Toranj",
                  "popularity": 0.9556325700227101,
                  "price": 1
            },
            {
                  "distance": 31,
                  "location": {
                        "address": "5800 Sherbrooke Rue O",
                        "country": "CA",
                        "cross_street": "",
                        "formatted_address": "5800 Sherbrooke Rue O, Montr\u00e9al QC H4A 1X3",
                        "locality": "Montreal",
                        "postcode": "H4A 1X3",
                        "region": "QC"
                  },
                  "name": "Bombay Mahal",
                  "popularity": 0.8857399697199092,
                  "price": 2
            },
            {
                  "distance": 37,
                  "location": {
                        "address": "5828 Sherbrooke St W",
                        "country": "CA",
                        "cross_street": "",
                        "formatted_address": "5828 Sherbrooke St W, Montr\u00e9al QC H4A 1X3",
                        "locality": "Montreal",
                        "postcode": "H4A 1X3",
                        "region": "QC"
                  },
                  "name": "Babylon",
                  "popularity": 0.9101296366389099,
                  "price": 1
            },
            {
                  "distance": 55,
                  "location": {
                        "address": "5779 Sherbrooke Rue O",
                        "country": "CA",
                        "cross_street": "",
                        "formatted_address": "5779 Sherbrooke Rue O, Montr\u00e9al QC H4A 1X2",
                        "locality": "Montreal",
                        "postcode": "H4A 1X2",
                        "region": "QC"
                  },
                  "name": "Pizzeria Melrose",
                  "popularity": 0.9676499810749433,
                  "price": 1
            },
            {
                  "distance": 169,
                  "location": {
                        "address": "5893 Sherbrooke Rue O",
                        "country": "CA",
                        "cross_street": "",
                        "formatted_address": "5893 Sherbrooke Rue O, Montr\u00e9al QC H4A 1X6",
                        "locality": "Montreal",
                        "postcode": "H4A 1X6",
                        "region": "QC"
                  },
                  "name": "East Africa",
                  "popularity": 0.617997728993187,
                  "price": 2
            },
            {
                  "distance": 179,
                  "location": {
                        "address": "5914 Sherbrooke Rue O",
                        "country": "CA",
                        "cross_street": "rue Clifton",
                        "formatted_address": "5914 Sherbrooke Rue O (rue Clifton), Montreal QC H4A 1X7",
                        "locality": "Montreal",
                        "postcode": "H4A 1X7",
                        "region": "QC"
                  },
                  "name": "Jean's Trinidad Foods",
                  "popularity": 0.7059164458743377,
                  "price": 2
            }
      ],
      "context": {
            "geo_bounds": {
                  "circle": {
                        "center": {
                              "latitude": 45.46991202,
                              "longitude": -73.61735232
                        },
                        "radius": 1000
                  }
            }
      }
}