{
      "results": [
            {
                  "distance": 793,
                  "location": {
                        "address": "7100 Sherbrooke Rue E",
                        "country": "CA",
                        "cross_street": "",
                        "formatted_address": "7100 Sherbrooke Rue E, Montr\u00e9al QC H1N 1E7",
                        "locality": "Montreal",
                        "postcode": "H1N 1E7",
                        "region": "QC"
                  },
                  "name": "Harvey's",
                  "popularity": 0.9709382096896291,
                  "price": 2,
                  "rating": 7.8,
                  "store_id": "2211"
            },
            {
                  "distance": 982,
                  "location": {
                        "address": "6780 Sherbrooke Rue E",
                        "country": "CA",
                        "formatted_address": "6780 Sherbrooke Rue E, Montr\u00e9al QC H1N 1E1",
                        "locality": "Montreal",
                        "postcode": "H1N 1E1",
                        "region": "QC"
                  },
                  "name": "Restaurant Chez Lien",
                  "popularity": 0.9078231453444361,
                  "price": 2,
                  "rating": 7.3
            },
            {
                  "distance": 1055,
                  "location": {
                        "address": "6649 rue de Marseille",
                        "country": "CA",
                        "cross_street": "coin Langelier",
                        "formatted_address": "6649 rue de Marseille (coin Langelier), Montr\u00e9al QC H1N 1M1",
                        "locality": "Montreal",
                        "postcode": "H1N 1M1",
                        "region": "QC"
                  },
                  "name": "Vincent Sous-Marins",
                  "popularity": 0.9284396290688872,
                  "price": 1,
                  "rating": 7.2
            },
            {
                  "distance": 838,
                  "location": {
                        "address": "7066A Sherbrooke Rue E",
                        "country": "CA",
                        "cross_street": "entre \u00c9milie Legrand & Beauclerk",
                        "formatted_address": "7066A Sherbrooke Rue E (entre \u00c9milie Legrand & Beauclerk), Montr\u00e9al QC H1N 1E6",
                        "locality": "Montreal",
                        "postcode": "H1N 1E6",
                        "region": "QC"
                  },
                  "name": "La Dinette Montreal-Est",
                  "popularity": 0.8278529523088569,
                  "price": 1,
                  "rating": 7.2
            },
            {
                  "distance": 832,
                  "location": {
                        "address": "7275 Sherbrooke Rue E",
                        "address_extended": "Floor 2",
                        "country": "CA",
                        "formatted_address": "7275 Sherbrooke Rue E, Montr\u00e9al QC H1N 1E9",
                        "locality": "Montreal",
                        "postcode": "H1N 1E9",
                        "region": "QC"
                  },
                  "name": "La Cage",
                  "popularity": 0.9927375094625284,
                  "price": 2,
                  "rating": 7.2,
                  "store_id": "LC_35"
            },
            {
                  "distance": 893,
                  "location": {
                        "address": "6860 Sherbrooke Rue E",
                        "country": "CA",
                        "cross_street": "",
                        "formatted_address": "6860 Sherbrooke Rue E, Montr\u00e9al QC H1N 1E2",
                        "locality": "Montreal",
                        "postcode": "H1N 1E2",
                        "region": "QC"
                  },
                  "name": "Tim Hortons",
                  "popularity": 0.8569029144587433,
                  "price": 1,
                  "rating": 6.7
            },
            {
                  "distance": 831,
                  "location": {
                        "address": "7275 Sherbrooke Rue E",
                        "address_extended": "Place Versailles",
                        "country": "CA",
                        "cross_street": "D\u00e9carie",
                        "formatted_address": "7275 Sherbrooke Rue E (D\u00e9carie), Montr\u00e9al QC H1N 1E9",
                        "locality": "Montreal",
                        "postcode": "H1N 1E9",
                        "region": "QC"
                  },
                  "name": "Thai Express",
                  "popularity": 0.93111279333838,
                  "price": 2,
                  "rating": 6.3,
                  "store_id": "85"
            },
            {
                  "distance": 709,
                  "location": {
                        "address": "6765 Hochelaga Rue",
                        "country": "CA",
                        "cross_street": "Langelier",
                        "formatted_address": "6765 Hochelaga Rue (Langelier), Montr\u00e9al QC H1N 1Y2",
                        "locality": "Montreal",
                        "postcode": "H1N 1Y2",
                        "region": "QC"
                  },
                  "name": "Tim Hortons",
                  "popularity": 0.9929859008327026,
                  "price": 1,
                  "rating": 6.1
            },
            {
                  "distance": 618,
                  "location": {
                        "address": "7737 Hochelaga Rue",
                        "country": "CA",
                        "cross_street": "",
                        "formatted_address": "7737 Hochelaga Rue, Montr\u00e9al QC H1L 2K4",
                        "locality": "Montreal",
                        "postcode": "H1L 2K4",
                        "region": "QC"
                  },
                  "name": "Belle Pros",
                  "popularity": 0.948653955336866,
                  "price": 1
            },
            {
                  "distance": 780,
                  "location": {
                        "address": "7070 Sherbrooke Rue E",
                        "country": "CA",
                        "cross_street": "",
                        "formatted_address": "7070 Sherbrooke Rue E, Montr\u00e9al QC H1N 1E6",
                        "locality": "Montreal",
                        "postcode": "H1N 1E6",
                        "region": "QC"
                  },
                  "name": "R\u00f4tisseries Au Coq",
                  "popularity": 0.8896196063588191,
                  "price": 2
            },
            {
                  "distance": 787,
                  "location": {
                        "address": "6737 Rue de Marseille",
                        "country": "CA",
                        "formatted_address": "6737 Rue de Marseille, Montr\u00e9al QC H1N 1M4",
                        "locality": "Montreal",
                        "postcode": "H1N 1M4",
                        "region": "QC"
                  },
                  "name": "Cremerie Mix",
                  "popularity": 0.8993896669190008,
                  "price": 1
            },
            {
                  "distance": 824,
                  "location": {
                        "address": "7060 Sherbrooke Rue O",
                        "country": "CA",
                        "formatted_address": "7060 Sherbrooke Rue O, Montr\u00e9al QC H4B 1R2",
                        "locality": "Montreal",
                        "postcode": "H4B 1R2",
                        "region": "QC"
                  },
                  "name": "Ronda Sushi",
                  "popularity": 0.8326906699470098,
                  "price": 2
            },
            {
                  "distance": 824,
                  "location": {
                        "address": "7060 Sherbrooke Rue E",
                        "country": "CA",
                        "cross_street": "",
                        "formatted_address": "7060 Sherbrooke Rue E, Montr\u00e9al QC H1N 1E6",
                        "locality": "Montreal",
                        "postcode": "H1N 1E6",
                        "region": "QC"
                  },
                  "name": "O Asie",
                  "popularity": 0.9533497350492052,
                  "price": 2
            },
            {
                  "distance": 831,
                  "location": {
                        "address": "7275 Sherbrooke Rue E",
                        "address_extended": "Place Versailles",
                        "country": "CA",
                        "cross_street": "",
                        "formatted_address": "7275 Sherbrooke Rue E, Montr\u00e9al QC H1N 1E9",
                        "locality": "Montreal",
                        "postcode": "H1N 1E9",
                        "region": "QC"
                  },
                  "name": "Sushi Shop",
                  "popularity": 0.9367903103709311,
                  "price": 2
            },
            {
                  "distance": 831,
                  "location": {
                        "address": "7275 Sherbrooke Rue E",
                        "address_extended": "Place Versailles",
                        "country": "CA",
                        "cross_street": "du Trianon",
                        "formatted_address": "7275 Sherbrooke Rue E (du Trianon), Montr\u00e9al QC H1N 1E9",
                        "locality": "Montreal",
                        "postcode": "H1N 1E9",
                        "region": "QC"
                  },
                  "name": "Villa Madina",
                  "popularity": 0.9271148750946253,
                  "price": 2
            },
            {
                  "distance": 862,
                  "location": {
                        "address": "7275 Sherbrooke Rue E",
                        "address_extended": "# 3",
                        "country": "CA",
                        "cross_street": "Place Versailles",
                        "formatted_address": "7275 Sherbrooke Rue E (Place Versailles), Montr\u00e9al QC H1N 1E9",
                        "locality": "Montreal",
                        "postcode": "H1N 1E9",
                        "region": "QC"
                  },
                  "name": "Dunkin'",
                  "popularity": 0.9015305639666918,
                  "price": 1,
                  "store_id": "308285"
            },
            {
                  "distance": 967,
                  "location": {
                        "address": "7275 Sherbrooke Rue E",
                        "country": "CA",
                        "cross_street": "",
                        "formatted_address": "7275 Sherbrooke Rue E, Montreal QC H1N 1E9",
                        "locality": "Montreal",
                        "postcode": "H1N 1E9",
                        "region": "QC"
                  },
                  "name": "Bistro l'Escale Gourmande",
                  "popularity": 0.3021030469341408,
                  "price": 3
            },
            {
                  "distance": 1110,
                  "location": {
                        "address": "7275 Sherbrooke Rue E",
                        "address_extended": "Floor 1",
                        "country": "CA",
                        "cross_street": "",
                        "formatted_address": "7275 Sherbrooke Rue E, Montr\u00e9al QC H1N 1E9",
                        "locality": "Montreal",
                        "postcode": "H1N 1E9",
                        "region": "QC"
                  },
                  "name": "Popino",
                  "popularity": 0.6265258327024981
            },
            {
                  "distance": 695,
                  "location": {
                        "address": "7275 Sherbrooke Rue E",
                        "country": "CA",
                        "formatted_address": "7275 Sherbrooke Rue E, Montreal QC H1N 1E9",
                        "locality": "Montreal",
                        "postcode": "H1N 1E9",
                        "region": "QC"
                  },
                  "name": "Jus Jugo Juice"
            },
            {
                  "distance": 780,
                  "location": {
                        "address": "7200 Sherbrooke Rue E",
                        "country": "CA",
                        "formatted_address": "7200 Sherbrooke Rue E, Montreal QC H1N 1E7",
                        "locality": "Montreal",
                        "postcode": "H1N 1E7",
                        "region": "QC"
                  },
                  "name": "Bar and Grill Versailles"
            },
            {
                  "distance": 832,
                  "location": {
                        "address": "7275 Sherbrooke Rue E",
                        "address_extended": "# 32A",
                        "country": "CA",
                        "formatted_address": "7275 Sherbrooke Rue E, Montreal QC H1N 1E9",
                        "locality": "Montreal",
                        "postcode": "H1N 1E9",
                        "region": "QC"
                  },
                  "name": "Maison Thai"
            },
            {
                  "distance": 838,
                  "location": {
                        "address": "7275 Sherbrooke Rue E",
                        "country": "CA",
                        "formatted_address": "7275 Sherbrooke Rue E, Montreal QC H1N 1E9",
                        "locality": "Montreal",
                        "postcode": "H1N 1E9",
                        "region": "QC"
                  },
                  "name": "Au Pon Caf\u00e9"
            },
            {
                  "distance": 858,
                  "location": {
                        "address": "7275 Sherbrooke Rue E",
                        "country": "CA",
                        "formatted_address": "7275 Sherbrooke Rue E, Montreal QC H1N 1E9",
                        "locality": "Montreal",
                        "postcode": "H1N 1E9",
                        "region": "QC"
                  },
                  "name": "Cage Aux Sports"
            },
            {
                  "distance": 858,
                  "location": {
                        "address": "7275 Sherbrooke Rue E",
                        "address_extended": "# 2209",
                        "country": "CA",
                        "formatted_address": "7275 Sherbrooke Rue E, Montreal QC H1N 1E9",
                        "locality": "Montreal",
                        "postcode": "H1N 1E9",
                        "region": "QC"
                  },
                  "name": "Restaurant Mina"
            },
            {
                  "distance": 858,
                  "location": {
                        "address": "7275 Sherbrooke Rue E",
                        "country": "CA",
                        "formatted_address": "7275 Sherbrooke Rue E, Montreal QC H1N 1E9",
                        "locality": "Montreal",
                        "postcode": "H1N 1E9",
                        "region": "QC"
                  },
                  "name": "Timothy's World Coffee"
            },
            {
                  "distance": 858,
                  "location": {
                        "address": "7275 Sherbrooke Rue E",
                        "country": "CA",
                        "formatted_address": "7275 Sherbrooke Rue E, Montreal QC H1N 1E9",
                        "locality": "Montreal",
                        "postcode": "H1N 1E9",
                        "region": "QC"
                  },
                  "name": "Cafe Treats"
            },
            {
                  "distance": 858,
                  "location": {
                        "address": "7275 Sherbrooke Rue E",
                        "address_extended": "# 126",
                        "country": "CA",
                        "formatted_address": "7275 Sherbrooke Rue E, Montreal QC H1N 1E9",
                        "locality": "Montreal",
                        "postcode": "H1N 1E9",
                        "region": "QC"
                  },
                  "name": "Kojax Souflaki"
            },
            {
                  "distance": 858,
                  "location": {
                        "address": "7275 Sherbrooke Rue E",
                        "country": "CA",
                        "formatted_address": "7275 Sherbrooke Rue E, Montreal QC H1N 1E9",
                        "locality": "Montreal",
                        "postcode": "H1N 1E9",
                        "region": "QC"
                  },
                  "name": "Chick'N'Chick"
            },
            {
                  "distance": 858,
                  "location": {
                        "address": "7275 Sherbrooke Rue E",
                        "address_extended": "# 2226",
                        "country": "CA",
                        "formatted_address": "7275 Sherbrooke Rue E, Montreal QC H1N 1E9",
                        "locality": "Montreal",
                        "postcode": "H1N 1E9",
                        "region": "QC"
                  },
                  "name": "Resto Sava Gar"
            },
            {
                  "distance": 858,
                  "location": {
                        "address": "7275 Sherbrooke Rue E",
                        "country": "CA",
                        "formatted_address": "7275 Sherbrooke Rue E, Montreal QC H1N 1E9",
                        "locality": "Montreal",
                        "postcode": "H1N 1E9",
                        "region": "QC"
                  },
                  "name": "California Sushi"
            },
            {
                  "distance": 871,
                  "location": {
                        "address": "7275 Sherbrooke Rue E",
                        "country": "CA",
                        "formatted_address": "7275 Sherbrooke Rue E, Montreal QC H1N 1E9",
                        "locality": "Montreal",
                        "postcode": "H1N 1E9",
                        "region": "QC"
                  },
                  "name": "Holozone Cafe"
            },
            {
                  "distance": 871,
                  "location": {
                        "address": "7275 Sherbrooke Rue E",
                        "country": "CA",
                        "formatted_address": "7275 Sherbrooke Rue E, Montreal QC H1N 1E9",
                        "locality": "Montreal",
                        "postcode": "H1N 1E9",
                        "region": "QC"
                  },
                  "name": "Tandori"
            },
            {
                  "distance": 877,
                  "location": {
                        "address": "7275 Sherbrooke Rue E",
                        "country": "CA",
                        "formatted_address": "7275 Sherbrooke Rue E, Montreal QC H1N 1E9",
                        "locality": "Montreal",
                        "postcode": "H1N 1E9",
                        "region": "QC"
                  },
                  "name": "Sukiyaki"
            },
            {
                  "distance": 903,
                  "location": {
                        "address": "7275 Sherbrooke Rue E",
                        "address_extended": "Floor 1",
                        "country": "CA",
                        "formatted_address": "7275 Sherbrooke Rue E, Montreal QC H1N 1E9",
                        "locality": "Montreal",
                        "postcode": "H1N 1E9",
                        "region": "QC"
                  },
                  "name": "Bar Beaux Jeux"
            },
            {
                  "distance": 922,
                  "location": {
                        "address": "7275 Sherbrooke Rue E",
                        "address_extended": "Place Versailles",
                        "country": "CA",
                        "formatted_address": "7275 Sherbrooke Rue E, Montreal QC H1N 1E9",
                        "locality": "Montreal",
                        "postcode": "H1N 1E9",
                        "region": "QC"
                  },
                  "name": "Kim Chi - D\u00e9lice Cor\u00e9en"
            }
      ],
      "context": {
            "geo_bounds": {
                  "circle": {
                        "center": {
                              "latitude": 45.58661043,
                              "longitude": -73.5296917
                        },
                        "radius": 1000
                  }
            }
      }
}