{
      "results": [
            {
                  "distance": 565,
                  "location": {
                        "address": "3353 Masson Rue",
                        "country": "CA",
                        "cross_street": "",
                        "formatted_address": "3353 Masson Rue, Montr\u00e9al QC H1X 1R5",
                        "locality": "Montreal",
                        "postcode": "H1X 1R5",
                        "region": "QC"
                  },
                  "name": "Maesmi",
                  "popularity": 0.9623154806964421,
                  "price": 1,
                  "rating": 8.9
            },
            {
                  "distance": 755,
                  "location": {
                        "address": "3119 Masson Rue",
                        "country": "CA",
                        "cross_street": "9e av.",
                        "formatted_address": "3119 Masson Rue (9e av.), Montr\u00e9al QC H1Y 1X9",
                        "locality": "Montreal",
                        "postcode": "H1Y 1X9",
                        "region": "QC"
                  },
                  "name": "Cafe Lezard",
                  "popularity": 0.9094317751703255,
                  "price": 2,
                  "rating": 8.5
            },
            {
                  "distance": 670,
                  "location": {
                        "address": "3188 Masson Rue",
                        "country": "CA",
                        "cross_street": "coin 10e avenue",
                        "formatted_address": "3188 Masson Rue (coin 10e avenue), Montr\u00e9al QC H1Y 1Y1",
                        "locality": "Montreal",
                        "postcode": "H1Y 1Y1",
                        "region": "QC"
                  },
                  "name": "La Succursale",
                  "popularity": 0.9643262679788039,
                  "price": 2,
                  "rating": 8.2
            },
            {
                  "distance": 1006,
                  "location": {
                        "address": "2800 Masson Rue",
                        "country": "CA",
                        "cross_street": "coin 4e avenue",
                        "formatted_address": "2800 Masson Rue (coin 4e avenue), Montr\u00e9al QC H1Y 1W7",
                        "locality": "Montreal",
                        "postcode": "H1Y 1W7",
                        "region": "QC"
                  },
                  "name": "Quai No.4",
                  "popularity": 0.9345193035579107,
                  "price": 3,
                  "rating": 8.0,
                  "store_id": "360735"
            },
            {
                  "distance": 797,
                  "location": {
                        "address": "3033 Masson Rue",
                        "country": "CA",
                        "cross_street": "",
                        "formatted_address": "3033 Masson Rue, Montreal QC H1Y 1X7",
                        "locality": "Montreal",
                        "postcode": "H1Y 1X7",
                        "region": "QC"
                  },
                  "name": "Tori Tora Sushi",
                  "popularity": 0.8646030469341408,
                  "price": 2,
                  "rating": 7.7
            },
            {
                  "distance": 738,
                  "location": {
                        "address": "5405 9e Ave",
                        "country": "CA",
                        "cross_street": "coin Masson",
                        "formatted_address": "5405 9e Ave (coin Masson), Montr\u00e9al QC H1Y 2J7",
                        "locality": "Montreal",
                        "postcode": "H1Y 2J7",
                        "region": "QC"
                  },
                  "name": "Frite Alors",
                  "popularity": 0.9371096707040121,
                  "price": 1,
                  "rating": 7.5
            },
            {
                  "distance": 661,
                  "location": {
                        "address": "4028 Masson Rue",
                        "country": "CA",
                        "cross_street": "Btw Jean-d'Arc & Pie-IX",
                        "formatted_address": "4028 Masson Rue (Btw Jean-d'Arc & Pie-IX), Montr\u00e9al QC H1X 1T8",
                        "locality": "Montreal",
                        "postcode": "H1X 1T8",
                        "region": "QC"
                  },
                  "name": "Restaurant Chez la M\u00e8re",
                  "popularity": 0.9612036336109009,
                  "price": 1,
                  "rating": 7.4
            },
            {
                  "distance": 823,
                  "location": {
                        "address": "3001 Masson Rue",
                        "country": "CA",
                        "formatted_address": "3001 Masson Rue, Montr\u00e9al QC H1Y 1X7",
                        "locality": "Montreal",
                        "postcode": "H1Y 1X7",
                        "region": "QC"
                  },
                  "name": "Boulangerie Premi\u00e8re Moisson",
                  "popularity": 0.8898206850870553,
                  "price": 1,
                  "rating": 7.4
            },
            {
                  "distance": 813,
                  "location": {
                        "address": "3014 Masson Rue",
                        "country": "CA",
                        "cross_street": "coin 7e avenue",
                        "formatted_address": "3014 Masson Rue (coin 7e avenue), Montr\u00e9al QC H1Y 1X6",
                        "locality": "Montreal",
                        "postcode": "H1Y 1X6",
                        "region": "QC"
                  },
                  "name": "Chez Baptiste Sur Masson",
                  "popularity": 0.9593347842543528,
                  "price": 2,
                  "rating": 7.3
            },
            {
                  "distance": 961,
                  "location": {
                        "address": "3165 Rachel Rue E",
                        "country": "CA",
                        "cross_street": "Avenue du Midway",
                        "formatted_address": "3165 Rachel Rue E (Avenue du Midway), Montr\u00e9al QC H1W 1A3",
                        "locality": "Montreal",
                        "postcode": "H1W 1A3",
                        "region": "QC"
                  },
                  "name": "Labarake",
                  "popularity": 0.9237320211960636,
                  "price": 3,
                  "rating": 6.6
            },
            {
                  "distance": 852,
                  "location": {
                        "address": "3929 Sherbrooke Rue E",
                        "country": "CA",
                        "cross_street": "Orleans",
                        "formatted_address": "3929 Sherbrooke Rue E (Orleans), Montr\u00e9al QC H1X 3E3",
                        "locality": "Montreal",
                        "postcode": "H1X 3E3",
                        "region": "QC"
                  },
                  "name": "Restaurant la Belle Province",
                  "popularity": 0.9721091975775927,
                  "price": 1,
                  "rating": 6.3
            },
            {
                  "distance": 833,
                  "location": {
                        "address": "3881 Sherbrooke Rue E",
                        "country": "CA",
                        "cross_street": "coin Av. Bourbonni\u00e8re",
                        "formatted_address": "3881 Sherbrooke Rue E (coin Av. Bourbonni\u00e8re), Montr\u00e9al QC H1X 2A5",
                        "locality": "Montreal",
                        "postcode": "H1X 2A5",
                        "region": "QC"
                  },
                  "name": "Tim Hortons",
                  "popularity": 0.9890116389099167,
                  "price": 1,
                  "rating": 6.2
            },
            {
                  "distance": 988,
                  "location": {
                        "address": "2823 Masson Rue",
                        "country": "CA",
                        "cross_street": "",
                        "formatted_address": "2823 Masson Rue, Montr\u00e9al QC H1Y 1W8",
                        "locality": "Montreal",
                        "postcode": "H1Y 1W8",
                        "region": "QC"
                  },
                  "name": "Pizza Pizza",
                  "popularity": 0.9175222369417109,
                  "price": 1,
                  "rating": 6.2,
                  "store_id": "318"
            },
            {
                  "distance": 641,
                  "location": {
                        "address": "3216 Masson St",
                        "country": "CA",
                        "cross_street": "coin 10e avenue",
                        "formatted_address": "3216 Masson St (coin 10e avenue), Montr\u00e9al QC H1Y 1Y3",
                        "locality": "Montreal",
                        "postcode": "H1Y 1Y3",
                        "region": "QC"
                  },
                  "name": "Subway",
                  "popularity": 0.8415381339894019,
                  "price": 1,
                  "rating": 6.1,
                  "store_id": "22453"
            },
            {
                  "distance": 442,
                  "location": {
                        "address": "3790 Masson Rue",
                        "country": "CA",
                        "cross_street": "",
                        "formatted_address": "3790 Masson Rue, Montr\u00e9al QC H1X 1S6",
                        "locality": "Montreal",
                        "postcode": "H1X 1S6",
                        "region": "QC"
                  },
                  "name": "Cafeopolis Bistro",
                  "popularity": 0.8884722747918243
            },
            {
                  "distance": 454,
                  "location": {
                        "address": "3560 Masson Rue",
                        "country": "CA",
                        "cross_street": "15e Ave",
                        "formatted_address": "3560 Masson Rue (15e Ave), Montr\u00e9al QC H1X 1R9",
                        "locality": "Montreal",
                        "postcode": "H1X 1R9",
                        "region": "QC"
                  },
                  "name": "Bar U-Turn",
                  "popularity": 0.8883776495079485,
                  "price": 2
            },
            {
                  "distance": 462,
                  "location": {
                        "address": "3738 Masson Rue",
                        "country": "CA",
                        "cross_street": "17e",
                        "formatted_address": "3738 Masson Rue (17e), Montr\u00e9al QC H1X 1S6",
                        "locality": "Montreal",
                        "postcode": "H1X 1S6",
                        "region": "QC"
                  },
                  "name": "Les Plats Cuisin\u00e9s B.V.M",
                  "popularity": 0.37813446252838756,
                  "price": 1
            },
            {
                  "distance": 473,
                  "location": {
                        "address": "3756 Masson Rue",
                        "country": "CA",
                        "cross_street": "17eme avenue",
                        "formatted_address": "3756 Masson Rue (17eme avenue), Montr\u00e9al QC H1X 1S6",
                        "locality": "Montreal",
                        "postcode": "H1X 1S6",
                        "region": "QC"
                  },
                  "name": "La Tasse Rouge",
                  "popularity": 0.8086321915215746,
                  "price": 1
            },
            {
                  "distance": 613,
                  "location": {
                        "address": "3244 Masson Rue",
                        "country": "CA",
                        "cross_street": "",
                        "formatted_address": "3244 Masson Rue, Montr\u00e9al QC H1Y 1Y3",
                        "locality": "Montreal",
                        "postcode": "H1Y 1Y3",
                        "region": "QC"
                  },
                  "name": "A&W Restaurant",
                  "popularity": 0.9042273845571537,
                  "price": 1,
                  "store_id": "5903"
            },
            {
                  "distance": 614,
                  "location": {
                        "address": "3251 Masson Rue",
                        "country": "CA",
                        "cross_street": "Coin boulevard Saint-Michel",
                        "formatted_address": "3251 Masson Rue (Coin boulevard Saint-Michel), Montr\u00e9al QC H1X 1R3",
                        "locality": "Montreal",
                        "postcode": "H1X 1R3",
                        "region": "QC"
                  },
                  "name": "Bar Monaco",
                  "popularity": 0.6515069076457229,
                  "price": 2
            },
            {
                  "distance": 719,
                  "location": {
                        "address": "3641A Dandurand Rue",
                        "country": "CA",
                        "cross_street": "16e avenue",
                        "formatted_address": "3641A Dandurand Rue (16e avenue), Montreal QC H1X 1N5",
                        "locality": "Mont\u00e9r\u00e9gie",
                        "postcode": "H1X 1N5",
                        "region": "QC"
                  },
                  "name": "La Bo\u00eete \u00e0 Vins",
                  "popularity": 0.10760077592732778,
                  "price": 1
            },
            {
                  "distance": 722,
                  "location": {
                        "address": "3150 Masson Rue",
                        "country": "CA",
                        "cross_street": "coin 9e avenue",
                        "formatted_address": "3150 Masson Rue (coin 9e avenue), Montr\u00e9al QC H1Y 1Y1",
                        "locality": "Montreal",
                        "postcode": "H1Y 1Y1",
                        "region": "QC"
                  },
                  "name": "Restaurant Basha",
                  "popularity": 0.9222298448145344,
                  "price": 1
            },
            {
                  "distance": 726,
                  "location": {
                        "address": "3881 Rachel Rue E",
                        "country": "CA",
                        "cross_street": "Bourbonni\u00e8re",
                        "formatted_address": "3881 Rachel Rue E (Bourbonni\u00e8re), Montr\u00e9al QC H1X 1Z2",
                        "locality": "Montreal",
                        "postcode": "H1X 1Z2",
                        "region": "QC"
                  },
                  "name": "Le Botocoin",
                  "popularity": 0.9011757191521574,
                  "price": 1
            },
            {
                  "distance": 731,
                  "location": {
                        "address": "3537 Rachel Rue E",
                        "country": "CA",
                        "cross_street": "",
                        "formatted_address": "3537 Rachel Rue E, Montr\u00e9al QC H1W 1A8",
                        "locality": "Montreal",
                        "postcode": "H1W 1A8",
                        "region": "QC"
                  },
                  "name": "Jardin des Delices",
                  "popularity": 0.9223599545798638,
                  "price": 2
            },
            {
                  "distance": 744,
                  "location": {
                        "address": "3135 Masson Rue",
                        "country": "CA",
                        "cross_street": "",
                        "formatted_address": "3135 Masson Rue, Montr\u00e9al QC H1Y 1X9",
                        "locality": "Montreal",
                        "postcode": "H1Y 1X9",
                        "region": "QC"
                  },
                  "name": "Billy Buck",
                  "popularity": 0.30010408781226344,
                  "price": 1
            },
            {
                  "distance": 746,
                  "location": {
                        "address": "3127 Masson Rue",
                        "country": "CA",
                        "cross_street": "",
                        "formatted_address": "3127 Masson Rue, Montr\u00e9al QC H1Y 1X9",
                        "locality": "Montreal",
                        "postcode": "H1Y 1X9",
                        "region": "QC"
                  },
                  "name": "Mojito & Margarita",
                  "popularity": 0.880429125662377,
                  "price": 1
            },
            {
                  "distance": 790,
                  "location": {
                        "address": "3017 Masson Rue",
                        "country": "CA",
                        "cross_street": "",
                        "formatted_address": "3017 Masson Rue, Montr\u00e9al QC H1Y 1X7",
                        "locality": "Montreal",
                        "postcode": "H1Y 1X7",
                        "region": "QC"
                  },
                  "name": "Rose Ross",
                  "popularity": 0.931751514004542,
                  "price": 2
            },
            {
                  "distance": 797,
                  "location": {
                        "address": "3036 Masson Rue",
                        "country": "CA",
                        "cross_street": "",
                        "formatted_address": "3036 Masson Rue, Montr\u00e9al QC H1Y 1X6",
                        "locality": "Montreal",
                        "postcode": "H1Y 1X6",
                        "region": "QC"
                  },
                  "name": "Joyo Burger",
                  "popularity": 0.9241223504920515,
                  "price": 1
            },
            {
                  "distance": 832,
                  "location": {
                        "address": "3240 Dandurand Rue",
                        "country": "CA",
                        "cross_street": "coin St-Michel",
                        "formatted_address": "3240 Dandurand Rue (coin St-Michel), Montr\u00e9al QC H1Y 1V5",
                        "locality": "Montreal",
                        "postcode": "H1Y 1V5",
                        "region": "QC"
                  },
                  "name": "Gariepy & Fils Fins Gourmets",
                  "popularity": 0.9137372255866768
            },
            {
                  "distance": 850,
                  "location": {
                        "address": "2931 Masson Rue",
                        "country": "CA",
                        "cross_street": "",
                        "formatted_address": "2931 Masson Rue, Montr\u00e9al QC H1Y 1X5",
                        "locality": "Montreal",
                        "postcode": "H1Y 1X5",
                        "region": "QC"
                  },
                  "name": "Elvita's Latin Fusion Cuisine",
                  "popularity": 0.9454721801665406,
                  "price": 2
            },
            {
                  "distance": 923,
                  "location": {
                        "address": "2874 Masson Rue",
                        "country": "CA",
                        "cross_street": "",
                        "formatted_address": "2874 Masson Rue, Montr\u00e9al QC H1Y 1W9",
                        "locality": "Montreal",
                        "postcode": "H1Y 1W9",
                        "region": "QC"
                  },
                  "name": "Le Pok\u00e9 Station",
                  "popularity": 0.8739236373959122
            },
            {
                  "distance": 982,
                  "location": {
                        "address": "3800 Sherbrooke Rue E",
                        "country": "CA",
                        "cross_street": "",
                        "formatted_address": "3800 Sherbrooke Rue E, Montr\u00e9al QC H1X 2A2",
                        "locality": "Montreal",
                        "postcode": "H1X 2A2",
                        "region": "QC"
                  },
                  "name": "Caf\u00e9 l'Escale",
                  "popularity": 0.9066403292959879,
                  "price": 1
            },
            {
                  "distance": 453,
                  "location": {
                        "address": "3545 Masson Rue",
                        "country": "CA",
                        "formatted_address": "3545 Masson Rue, Montreal QC H1X 1S1",
                        "locality": "Montreal",
                        "postcode": "H1X 1S1",
                        "region": "QC"
                  },
                  "name": "John Knot"
            },
            {
                  "distance": 462,
                  "location": {
                        "address": "3750 Masson Rue",
                        "country": "CA",
                        "formatted_address": "3750 Masson Rue, Montreal QC H1X 1S6",
                        "locality": "Montreal",
                        "postcode": "H1X 1S6",
                        "region": "QC"
                  },
                  "name": "Sr Vinho"
            },
            {
                  "distance": 502,
                  "location": {
                        "address": "3775 Masson Rue",
                        "country": "CA",
                        "formatted_address": "3775 Masson Rue, Montreal QC H1X 1S7",
                        "locality": "Montreal",
                        "postcode": "H1X 1S7",
                        "region": "QC"
                  },
                  "name": "Banh Mi Ngon"
            }
      ],
      "context": {
            "geo_bounds": {
                  "circle": {
                        "center": {
                              "latitude": 45.55293611,
                              "longitude": -73.56577143
                        },
                        "radius": 1000
                  }
            }
      }
}