{
      "results": [
            {
                  "distance": 812,
                  "location": {
                        "address": "1266 Ave du Mont-Royal Est",
                        "country": "CA",
                        "cross_street": "entre Br\u00e9beuf & Chambord",
                        "formatted_address": "1266 Ave du Mont-Royal Est (entre Br\u00e9beuf & Chambord), Montr\u00e9al QC H2J 1Y3",
                        "locality": "Montreal",
                        "postcode": "H2J 1Y3",
                        "region": "QC"
                  },
                  "name": "Point G",
                  "popularity": 0.9041800719152158,
                  "price": 1,
                  "rating": 8.9
            },
            {
                  "distance": 739,
                  "location": {
                        "address": "1700 Ontario Rue E",
                        "country": "CA",
                        "cross_street": "coin Papineau",
                        "formatted_address": "1700 Ontario Rue E (coin Papineau), Montr\u00e9al QC H2L 1S7",
                        "locality": "Montreal",
                        "postcode": "H2L 1S7",
                        "region": "QC"
                  },
                  "name": "La Fabrique Arhoma",
                  "popularity": 0.953420704012112,
                  "price": 1,
                  "rating": 8.9
            },
            {
                  "distance": 665,
                  "location": {
                        "address": "1810 Ave du MONT-ROYAL Est",
                        "country": "CA",
                        "cross_street": "",
                        "formatted_address": "1810 Ave du MONT-ROYAL Est, Montr\u00e9al QC H2H 1J1",
                        "locality": "Montreal",
                        "postcode": "H2H 1J1",
                        "region": "QC"
                  },
                  "name": "Mr. Puffs",
                  "popularity": 0.9136307721423165,
                  "price": 1,
                  "rating": 8.8
            },
            {
                  "distance": 902,
                  "location": {
                        "address": "865 Rachel Rue E",
                        "country": "CA",
                        "cross_street": "coin St-Andr\u00e9",
                        "formatted_address": "865 Rachel Rue E (coin St-Andr\u00e9), Montr\u00e9al QC H2J 2H9",
                        "locality": "Montreal",
                        "postcode": "H2J 2H9",
                        "region": "QC"
                  },
                  "name": "La Maison des P\u00e2tes Fra\u00eeches",
                  "popularity": 0.938115064345193,
                  "price": 2,
                  "rating": 8.8
            },
            {
                  "distance": 920,
                  "location": {
                        "address": "1127 Ave du Mont-Royal Est",
                        "country": "CA",
                        "cross_street": "coin Christophe-Colomb",
                        "formatted_address": "1127 Ave du Mont-Royal Est (coin Christophe-Colomb), Montr\u00e9al QC H2J 1X9",
                        "locality": "Montreal",
                        "postcode": "H2J 1X9",
                        "region": "QC"
                  },
                  "name": "St-Viateur Bagel & Cafe",
                  "popularity": 0.9727715745647237,
                  "price": 1,
                  "rating": 8.7
            },
            {
                  "distance": 814,
                  "location": {
                        "address": "951 Rachel Rue E",
                        "country": "CA",
                        "cross_street": "",
                        "formatted_address": "951 Rachel Rue E, Montr\u00e9al QC H2J 2J4",
                        "locality": "Montreal",
                        "postcode": "H2J 2J4",
                        "region": "QC"
                  },
                  "name": "Pub Pit Caribou",
                  "popularity": 0.9519658402725208,
                  "rating": 8.6
            },
            {
                  "distance": 961,
                  "location": {
                        "address": "2407 Ave du Mont-Royal Est",
                        "country": "CA",
                        "cross_street": "entre Franch\u00e8re & Chapleau",
                        "formatted_address": "2407 Ave du Mont-Royal Est (entre Franch\u00e8re & Chapleau), Montr\u00e9al QC H2H 1L2",
                        "locality": "Montreal",
                        "postcode": "H2H 1L2",
                        "region": "QC"
                  },
                  "name": "Boswell Brasserie Artisanale",
                  "popularity": 0.9548282551097653,
                  "price": 2,
                  "rating": 8.6
            },
            {
                  "distance": 1018,
                  "location": {
                        "address": "4449 Rue de Mentana",
                        "country": "CA",
                        "cross_street": "Avenue du Mont-Royal",
                        "formatted_address": "4449 Rue de Mentana (Avenue du Mont-Royal), Montr\u00e9al QC H2J 3B4",
                        "locality": "Montreal",
                        "postcode": "H2J 3B4",
                        "region": "QC"
                  },
                  "name": "Tampopo",
                  "popularity": 0.8850539364118092,
                  "price": 2,
                  "rating": 8.5
            },
            {
                  "distance": 755,
                  "location": {
                        "address": "994 Rachel Rue E",
                        "country": "CA",
                        "cross_street": "entre de Boyer & du Parc-Lafontaine",
                        "formatted_address": "994 Rachel Rue E (entre de Boyer & du Parc-Lafontaine), Montr\u00e9al QC H2J 2J3",
                        "locality": "Montreal",
                        "postcode": "H2J 2J3",
                        "region": "QC"
                  },
                  "name": "La Banquise",
                  "popularity": 0.9872374148372445,
                  "price": 1,
                  "rating": 8.5
            },
            {
                  "distance": 834,
                  "location": {
                        "address": "1232 Ave du Mont-Royal Est",
                        "country": "CA",
                        "cross_street": "",
                        "formatted_address": "1232 Ave du Mont-Royal Est, Montr\u00e9al QC H2J 1Y1",
                        "locality": "Montreal",
                        "postcode": "H2J 1Y1",
                        "region": "QC"
                  },
                  "name": "Le Royal",
                  "popularity": 0.3079579863739591,
                  "price": 3,
                  "rating": 8.5
            },
            {
                  "distance": 997,
                  "location": {
                        "address": "4720 Marquette Rue",
                        "country": "CA",
                        "cross_street": "coin Gilford",
                        "formatted_address": "4720 Marquette Rue (coin Gilford), Montr\u00e9al QC H2J 3Y6",
                        "locality": "Montreal",
                        "postcode": "H2J 3Y6",
                        "region": "QC"
                  },
                  "name": "Maison Publique",
                  "popularity": 0.9193674299772899,
                  "price": 3,
                  "rating": 8.4
            },
            {
                  "distance": 882,
                  "location": {
                        "address": "2296 Ave du Mont Royal Est",
                        "country": "CA",
                        "cross_street": "",
                        "formatted_address": "2296 Ave du Mont Royal Est, Montr\u00e9al QC H2H 1K6",
                        "locality": "Montreal",
                        "postcode": "H2H 1K6",
                        "region": "QC"
                  },
                  "name": "Caf\u00e9 des Bois",
                  "popularity": 0.9125070968962907,
                  "price": 1,
                  "rating": 8.2
            },
            {
                  "distance": 695,
                  "location": {
                        "address": "1576 Ave du Mont-Royal Est",
                        "country": "CA",
                        "cross_street": "",
                        "formatted_address": "1576 Ave du Mont-Royal Est, Montr\u00e9al QC H2J 1Z2",
                        "locality": "Montreal",
                        "postcode": "H2J 1Z2",
                        "region": "QC"
                  },
                  "name": "L'Artisan Piadineria",
                  "popularity": 0.5744109576078729,
                  "price": 2,
                  "rating": 8.2
            },
            {
                  "distance": 738,
                  "location": {
                        "address": "2047 Ave du Mont-Royal Est",
                        "country": "CA",
                        "cross_street": "coin av. de Lorimier",
                        "formatted_address": "2047 Ave du Mont-Royal Est (coin av. de Lorimier), Montr\u00e9al QC H2H 1J7",
                        "locality": "Montreal",
                        "postcode": "H2H 1J7",
                        "region": "QC"
                  },
                  "name": "La Distillerie No2",
                  "popularity": 0.9543669568508706,
                  "price": 2,
                  "rating": 8.0
            },
            {
                  "distance": 940,
                  "location": {
                        "address": "851 Rachel Rue E",
                        "country": "CA",
                        "cross_street": "St-Christophe",
                        "formatted_address": "851 Rachel Rue E (St-Christophe), Montr\u00e9al QC H2J 2H9",
                        "locality": "Montreal",
                        "postcode": "H2J 2H9",
                        "region": "QC"
                  },
                  "name": "Le Virunga",
                  "popularity": 0.8758752838758517,
                  "price": 2,
                  "rating": 7.9
            },
            {
                  "distance": 759,
                  "location": {
                        "address": "1690 Ontario Rue E",
                        "country": "CA",
                        "cross_street": "entre De Champlain & Papineau",
                        "formatted_address": "1690 Ontario Rue E (entre De Champlain & Papineau), Montr\u00e9al QC H2L 1S7",
                        "locality": "Montreal",
                        "postcode": "H2L 1S7",
                        "region": "QC"
                  },
                  "name": "Au Petit Extra",
                  "popularity": 0.9349924299772899,
                  "price": 4,
                  "rating": 7.9
            },
            {
                  "distance": 868,
                  "location": {
                        "address": "1365 Ontario Rue E",
                        "country": "CA",
                        "formatted_address": "1365 Ontario Rue E, Montr\u00e9al QC H2L 1S2",
                        "locality": "Montreal",
                        "postcode": "H2L 1S2",
                        "region": "QC"
                  },
                  "name": "Poutineville",
                  "popularity": 0.9661241483724451,
                  "price": 2,
                  "rating": 7.9
            },
            {
                  "distance": 897,
                  "location": {
                        "address": "1030 Cherrier Rue",
                        "country": "CA",
                        "cross_street": "at Parc-Lafontaine Ave.",
                        "formatted_address": "1030 Cherrier Rue (at Parc-Lafontaine Ave.), Montr\u00e9al QC H2L 1H9",
                        "locality": "Montreal",
                        "postcode": "H2L 1H9",
                        "region": "QC"
                  },
                  "name": "Bistro T\u00f4t ou Tard",
                  "popularity": 0.9615821347464042,
                  "price": 1,
                  "rating": 7.7
            },
            {
                  "distance": 882,
                  "location": {
                        "address": "901 Rachel Rue E",
                        "country": "CA",
                        "cross_street": "Saint-Andr\u00e9",
                        "formatted_address": "901 Rachel Rue E (Saint-Andr\u00e9), Montr\u00e9al QC H2J 2J2",
                        "locality": "Montreal",
                        "postcode": "H2J 2J2",
                        "region": "QC"
                  },
                  "name": "Fen\u00eatre Sur Kaboul",
                  "popularity": 0.8795774981074943,
                  "price": 2,
                  "rating": 7.6
            },
            {
                  "distance": 976,
                  "location": {
                        "address": "2308 Ontario Rue E",
                        "country": "CA",
                        "cross_street": "",
                        "formatted_address": "2308 Ontario Rue E, Montr\u00e9al QC H2K 1W1",
                        "locality": "Montreal",
                        "postcode": "H2K 1W1",
                        "region": "QC"
                  },
                  "name": "Cr\u00e8merie Confiserie le Gourmandin",
                  "popularity": 0.8898679977289932,
                  "price": 1,
                  "rating": 7.4
            },
            {
                  "distance": 761,
                  "location": {
                        "address": "1652 Ontario Rue E",
                        "country": "CA",
                        "cross_street": "",
                        "formatted_address": "1652 Ontario Rue E, Montr\u00e9al QC H2L 1S7",
                        "locality": "Montreal",
                        "postcode": "H2L 1S7",
                        "region": "QC"
                  },
                  "name": "Dame Tartine D\u00e9jeuner et D\u00eener",
                  "popularity": 0.9304031037093111,
                  "price": 1,
                  "rating": 7.3
            },
            {
                  "distance": 709,
                  "location": {
                        "address": "2017 Ave du Mont-Royal Est",
                        "country": "CA",
                        "formatted_address": "2017 Ave du Mont-Royal Est, Montr\u00e9al QC H2H 1J7",
                        "locality": "Montreal",
                        "postcode": "H2H 1J7",
                        "region": "QC"
                  },
                  "name": "L'Oeufrier",
                  "popularity": 0.955360522331567,
                  "price": 1,
                  "rating": 7.2
            },
            {
                  "distance": 679,
                  "location": {
                        "address": "1875 Ave du Mont-Royal Est",
                        "country": "CA",
                        "cross_street": "coin Cartier",
                        "formatted_address": "1875 Ave du Mont-Royal Est (coin Cartier), Montr\u00e9al QC H2H 1J3",
                        "locality": "Montreal",
                        "postcode": "H2H 1J3",
                        "region": "QC"
                  },
                  "name": "Le Terminal",
                  "popularity": 0.9634036714610144,
                  "price": 2,
                  "rating": 7.1
            },
            {
                  "distance": 986,
                  "location": {
                        "address": "800 Rachel Rue E",
                        "country": "CA",
                        "cross_street": "coin St-Hubert",
                        "formatted_address": "800 Rachel Rue E (coin St-Hubert), Montr\u00e9al QC H2J 2H6",
                        "locality": "Montreal",
                        "postcode": "H2J 2H6",
                        "region": "QC"
                  },
                  "name": "Aux Verres St\u00e9rilis\u00e9s Inc",
                  "popularity": 0.8816237698713096,
                  "price": 2,
                  "rating": 7.0
            },
            {
                  "distance": 741,
                  "location": {
                        "address": "1851 Ontario Rue E",
                        "country": "CA",
                        "cross_street": "Rue Cartier",
                        "formatted_address": "1851 Ontario Rue E (Rue Cartier), Montr\u00e9al QC H2K 1T6",
                        "locality": "Montreal",
                        "postcode": "H2K 1T6",
                        "region": "QC"
                  },
                  "name": "A Quinta",
                  "popularity": 0.9652488644965935,
                  "price": 2,
                  "rating": 7.0
            },
            {
                  "distance": 667,
                  "location": {
                        "address": "1828 Ave du Mont-Royal Est",
                        "country": "CA",
                        "cross_street": "Papineau",
                        "formatted_address": "1828 Ave du Mont-Royal Est (Papineau), Montr\u00e9al QC H2H 1J1",
                        "locality": "Montreal",
                        "postcode": "H2H 1J1",
                        "region": "QC"
                  },
                  "name": "Caf\u00e9 Asia",
                  "popularity": 0.8551523467070401,
                  "price": 2,
                  "rating": 6.9
            },
            {
                  "distance": 837,
                  "location": {
                        "address": "933 Rachel Rue E",
                        "country": "CA",
                        "cross_street": "coin Mentana",
                        "formatted_address": "933 Rachel Rue E (coin Mentana), Montr\u00e9al QC H2J 2J2",
                        "locality": "Montreal",
                        "postcode": "H2J 2J2",
                        "region": "QC"
                  },
                  "name": "Cr\u00eaperie Bretonne Ty-Breiz",
                  "popularity": 0.8565717259651779,
                  "price": 2,
                  "rating": 6.9
            },
            {
                  "distance": 978,
                  "location": {
                        "address": "862 Marie-Anne Rue E",
                        "country": "CA",
                        "cross_street": "rue saint andr\u00e9",
                        "formatted_address": "862 Marie-Anne Rue E (rue saint andr\u00e9), Montr\u00e9al QC H2J 2A9",
                        "locality": "Montreal",
                        "postcode": "H2J 2A9",
                        "region": "QC"
                  },
                  "name": "Restaurant la Selva",
                  "popularity": 0.894137963663891,
                  "price": 2,
                  "rating": 6.8
            },
            {
                  "distance": 741,
                  "location": {
                        "address": "2112 Ave du Mont-Royal Est",
                        "country": "CA",
                        "cross_street": "entre De Lorimier & Des \u00c9rables",
                        "formatted_address": "2112 Ave du Mont-Royal Est (entre De Lorimier & Des \u00c9rables), Montr\u00e9al QC H2H 1J8",
                        "locality": "Montreal",
                        "postcode": "H2H 1J8",
                        "region": "QC"
                  },
                  "name": "Verre Bouteille",
                  "popularity": 0.9396172407267221,
                  "price": 2,
                  "rating": 6.6
            },
            {
                  "distance": 952,
                  "location": {
                        "address": "1045 Ave du Mont-Royal Est",
                        "country": "CA",
                        "cross_street": "coin Christophe-Colomb",
                        "formatted_address": "1045 Ave du Mont-Royal Est (coin Christophe-Colomb), Montr\u00e9al QC H2J 1X7",
                        "locality": "Montreal",
                        "postcode": "H2J 1X7",
                        "region": "QC"
                  },
                  "name": "Brasserie Chez Baptiste",
                  "popularity": 0.9606595382286147,
                  "price": 2,
                  "rating": 6.5
            },
            {
                  "distance": 658,
                  "location": {
                        "address": "1648 Ave du Mont-Royal Est",
                        "country": "CA",
                        "cross_street": "Marquette",
                        "formatted_address": "1648 Ave du Mont-Royal Est (Marquette), Montr\u00e9al QC H2J 1Z5",
                        "locality": "Montreal",
                        "postcode": "H2J 1Z5",
                        "region": "QC"
                  },
                  "name": "Second Cup",
                  "popularity": 0.8998154806964421,
                  "price": 1,
                  "rating": 6.4
            },
            {
                  "distance": 981,
                  "location": {
                        "address": "4051 St-Hubert Rue",
                        "country": "CA",
                        "cross_street": "Duluth",
                        "formatted_address": "4051 St-Hubert Rue (Duluth), Montr\u00e9al QC H2L 4A7",
                        "locality": "Montreal",
                        "postcode": "H2L 4A7",
                        "region": "QC"
                  },
                  "name": "Le MTL Bar",
                  "popularity": 0.9090177895533686,
                  "price": 2,
                  "rating": 6.4
            },
            {
                  "distance": 884,
                  "location": {
                        "address": "1148 Ave du Mont-Royal Est",
                        "country": "CA",
                        "cross_street": "coin De la Roche",
                        "formatted_address": "1148 Ave du Mont-Royal Est (coin De la Roche), Montr\u00e9al QC H2J 1X8",
                        "locality": "Montreal",
                        "postcode": "H2J 1X8",
                        "region": "QC"
                  },
                  "name": "Candi Bar",
                  "popularity": 0.9068768925056775,
                  "price": 3,
                  "rating": 6.1
            },
            {
                  "distance": 779,
                  "location": {
                        "address": "1251 Ave Mont-Royal Est",
                        "country": "CA",
                        "cross_street": "Br\u00e9beuf",
                        "formatted_address": "1251 Ave Mont-Royal Est (Br\u00e9beuf), Montr\u00e9al QC H2J 1Y4",
                        "locality": "Montreal",
                        "postcode": "H2J 1Y4",
                        "region": "QC"
                  },
                  "name": "Copper Branch",
                  "popularity": 0.8276873580620742,
                  "price": 2,
                  "rating": 5.9
            },
            {
                  "distance": 713,
                  "location": {
                        "address": "2010 Papineau Ave",
                        "country": "CA",
                        "cross_street": "coin Ontario",
                        "formatted_address": "2010 Papineau Ave (coin Ontario), Montr\u00e9al QC H2K 4J4",
                        "locality": "Montreal",
                        "postcode": "H2K 4J4",
                        "region": "QC"
                  },
                  "name": "McDonald's",
                  "popularity": 0.9692586109008327,
                  "price": 1,
                  "rating": 4.9,
                  "store_id": "23293"
            }
      ],
      "context": {
            "geo_bounds": {
                  "circle": {
                        "center": {
                              "latitude": 45.5296663,
                              "longitude": -73.5673365
                        },
                        "radius": 1000
                  }
            }
      }
}