{
      "results": [
            {
                  "distance": 134,
                  "location": {
                        "address": "7100 Sherbrooke Rue E",
                        "country": "CA",
                        "cross_street": "",
                        "formatted_address": "7100 Sherbrooke Rue E, Montr\u00e9al QC H1N 1E7",
                        "locality": "Montreal",
                        "postcode": "H1N 1E7",
                        "region": "QC"
                  },
                  "name": "Harvey's",
                  "popularity": 0.9709382096896291,
                  "price": 2,
                  "rating": 7.8,
                  "store_id": "2211"
            },
            {
                  "distance": 752,
                  "location": {
                        "address": "7790 Sherbrooke Rue E",
                        "country": "CA",
                        "cross_street": "coin Lepailleur",
                        "formatted_address": "7790 Sherbrooke Rue E (coin Lepailleur), Montr\u00e9al QC H1L 1A5",
                        "locality": "Montreal",
                        "postcode": "H1L 1A5",
                        "region": "QC"
                  },
                  "name": "Bar Sushi Nippori",
                  "popularity": 0.976047975018925,
                  "price": 2,
                  "rating": 7.6
            },
            {
                  "distance": 542,
                  "location": {
                        "address": "6780 Sherbrooke Rue E",
                        "country": "CA",
                        "formatted_address": "6780 Sherbrooke Rue E, Montr\u00e9al QC H1N 1E1",
                        "locality": "Montreal",
                        "postcode": "H1N 1E1",
                        "region": "QC"
                  },
                  "name": "Restaurant Chez Lien",
                  "popularity": 0.9078231453444361,
                  "price": 2,
                  "rating": 7.3
            },
            {
                  "distance": 974,
                  "location": {
                        "address": "6649 rue de Marseille",
                        "country": "CA",
                        "cross_street": "coin Langelier",
                        "formatted_address": "6649 rue de Marseille (coin Langelier), Montr\u00e9al QC H1N 1M1",
                        "locality": "Montreal",
                        "postcode": "H1N 1M1",
                        "region": "QC"
                  },
                  "name": "Vincent Sous-Marins",
                  "popularity": 0.9284396290688872,
                  "price": 1,
                  "rating": 7.2
            },
            {
                  "distance": 216,
                  "location": {
                        "address": "7066A Sherbrooke Rue E",
                        "country": "CA",
                        "cross_street": "entre \u00c9milie Legrand & Beauclerk",
                        "formatted_address": "7066A Sherbrooke Rue E (entre \u00c9milie Legrand & Beauclerk), Montr\u00e9al QC H1N 1E6",
                        "locality": "Montreal",
                        "postcode": "H1N 1E6",
                        "region": "QC"
                  },
                  "name": "La Dinette Montreal-Est",
                  "popularity": 0.8278529523088569,
                  "price": 1,
                  "rating": 7.2
            },
            {
                  "distance": 98,
                  "location": {
                        "address": "7275 Sherbrooke Rue E",
                        "address_extended": "Floor 2",
                        "country": "CA",
                        "formatted_address": "7275 Sherbrooke Rue E, Montr\u00e9al QC H1N 1E9",
                        "locality": "Montreal",
                        "postcode": "H1N 1E9",
                        "region": "QC"
                  },
                  "name": "La Cage",
                  "popularity": 0.9927375094625284,
                  "price": 2,
                  "rating": 7.2,
                  "store_id": "LC_35"
            },
            {
                  "distance": 684,
                  "location": {
                        "address": "6666 Sherbrooke Rue E",
                        "country": "CA",
                        "formatted_address": "6666 Sherbrooke Rue E, Montr\u00e9al QC H1N 1C9",
                        "locality": "Montreal",
                        "postcode": "H1N 1C9",
                        "region": "QC"
                  },
                  "name": "Nouillesetc",
                  "popularity": 0.9570756056018168,
                  "price": 1,
                  "rating": 6.9
            },
            {
                  "distance": 407,
                  "location": {
                        "address": "6860 Sherbrooke Rue E",
                        "country": "CA",
                        "cross_street": "",
                        "formatted_address": "6860 Sherbrooke Rue E, Montr\u00e9al QC H1N 1E2",
                        "locality": "Montreal",
                        "postcode": "H1N 1E2",
                        "region": "QC"
                  },
                  "name": "Tim Hortons",
                  "popularity": 0.8569029144587433,
                  "price": 1,
                  "rating": 6.7
            },
            {
                  "distance": 238,
                  "location": {
                        "address": "7275 Sherbrooke St E",
                        "address_extended": "Suite 193",
                        "country": "CA",
                        "cross_street": "",
                        "formatted_address": "7275 Sherbrooke St E, Montr\u00e9al QC H1N 1E9",
                        "locality": "Montreal",
                        "postcode": "H1N 1E9",
                        "region": "QC"
                  },
                  "name": "Second Cup CAF\u00c9 & Cie avec Pinkberry yogourt glac\u00e9",
                  "popularity": 0.9631552800908403,
                  "price": 1,
                  "rating": 6.7
            },
            {
                  "distance": 752,
                  "location": {
                        "address": "7780 Sherbrooke Rue E",
                        "address_extended": "Couche-Tard C-Store",
                        "country": "CA",
                        "cross_street": "coin Lepailleur",
                        "formatted_address": "7780 Sherbrooke Rue E (coin Lepailleur), Montr\u00e9al QC H1L 1A5",
                        "locality": "Montreal",
                        "postcode": "H1L 1A5",
                        "region": "QC"
                  },
                  "name": "Subway",
                  "popularity": 0.8829958364875095,
                  "price": 1,
                  "rating": 6.6,
                  "store_id": "23356"
            },
            {
                  "distance": 821,
                  "location": {
                        "address": "6583 Sherbrooke Rue E",
                        "country": "CA",
                        "formatted_address": "6583 Sherbrooke Rue E, Montr\u00e9al QC H1N 1C5",
                        "locality": "Montreal",
                        "postcode": "H1N 1C5",
                        "region": "QC"
                  },
                  "name": "Restaurant Pacini",
                  "popularity": 0.9377365632096897,
                  "price": 2,
                  "rating": 6.4
            },
            {
                  "distance": 81,
                  "location": {
                        "address": "7275 Sherbrooke Rue E",
                        "address_extended": "Place Versailles",
                        "country": "CA",
                        "cross_street": "D\u00e9carie",
                        "formatted_address": "7275 Sherbrooke Rue E (D\u00e9carie), Montr\u00e9al QC H1N 1E9",
                        "locality": "Montreal",
                        "postcode": "H1N 1E9",
                        "region": "QC"
                  },
                  "name": "Thai Express",
                  "popularity": 0.93111279333838,
                  "price": 2,
                  "rating": 6.3,
                  "store_id": "85"
            },
            {
                  "distance": 846,
                  "location": {
                        "address": "3065 Ave de Granby",
                        "country": "CA",
                        "cross_street": "",
                        "formatted_address": "3065 Ave de Granby, Montr\u00e9al QC H1N 2Z7",
                        "locality": "Montreal",
                        "postcode": "H1N 2Z7",
                        "region": "QC"
                  },
                  "name": "Tim Hortons",
                  "popularity": 0.9168835162755489,
                  "price": 1,
                  "rating": 5.9
            },
            {
                  "distance": 998,
                  "location": {
                        "address": "6415 Sherbrooke Rue E",
                        "country": "CA",
                        "cross_street": "coin De Granby",
                        "formatted_address": "6415 Sherbrooke Rue E (coin De Granby), Montr\u00e9al QC H1N 1C5",
                        "locality": "Montreal",
                        "postcode": "H1N 1C5",
                        "region": "QC"
                  },
                  "name": "McDonald's",
                  "popularity": 0.991672975018925,
                  "price": 1,
                  "rating": 5.4,
                  "store_id": "2253"
            },
            {
                  "distance": 241,
                  "location": {
                        "address": "7275 Sherbrooke Rue E",
                        "address_extended": "Floor 1",
                        "country": "CA",
                        "cross_street": "coin Du Trianon",
                        "formatted_address": "7275 Sherbrooke Rue E (coin Du Trianon), Montr\u00e9al QC H1N 1E9",
                        "locality": "Montreal",
                        "postcode": "H1N 1E9",
                        "region": "QC"
                  },
                  "name": "Nickels",
                  "popularity": 0.9797265329295988,
                  "price": 2,
                  "rating": 5.1
            },
            {
                  "distance": 483,
                  "location": {
                        "address": "7275 Sherbrooke Rue E",
                        "address_extended": "Local 102",
                        "country": "CA",
                        "formatted_address": "7275 Sherbrooke Rue E, Montr\u00e9al QC H1N 1E9",
                        "locality": "Montreal",
                        "postcode": "H1N 1E9",
                        "region": "QC"
                  },
                  "name": "McDonald's",
                  "popularity": 0.9785555450416351,
                  "price": 1,
                  "rating": 4.9
            },
            {
                  "distance": 69,
                  "location": {
                        "address": "7275 Sherbrooke Rue E",
                        "address_extended": "# 3",
                        "country": "CA",
                        "cross_street": "Place Versailles",
                        "formatted_address": "7275 Sherbrooke Rue E (Place Versailles), Montr\u00e9al QC H1N 1E9",
                        "locality": "Montreal",
                        "postcode": "H1N 1E9",
                        "region": "QC"
                  },
                  "name": "Dunkin'",
                  "popularity": 0.9015305639666918,
                  "price": 1,
                  "store_id": "308285"
            },
            {
                  "distance": 81,
                  "location": {
                        "address": "7275 Sherbrooke Rue E",
                        "address_extended": "Place Versailles",
                        "country": "CA",
                        "cross_street": "",
                        "formatted_address": "7275 Sherbrooke Rue E, Montr\u00e9al QC H1N 1E9",
                        "locality": "Montreal",
                        "postcode": "H1N 1E9",
                        "region": "QC"
                  },
                  "name": "Cultures",
                  "popularity": 0.6800364307342922,
                  "price": 2
            },
            {
                  "distance": 81,
                  "location": {
                        "address": "7275 Sherbrooke Rue E",
                        "address_extended": "Place Versailles",
                        "country": "CA",
                        "cross_street": "",
                        "formatted_address": "7275 Sherbrooke Rue E, Montr\u00e9al QC H1N 1E9",
                        "locality": "Montreal",
                        "postcode": "H1N 1E9",
                        "region": "QC"
                  },
                  "name": "Sushi Shop",
                  "popularity": 0.9367903103709311,
                  "price": 2
            },
            {
                  "distance": 81,
                  "location": {
                        "address": "7275 Sherbrooke Rue E",
                        "address_extended": "Place Versailles",
                        "country": "CA",
                        "cross_street": "du Trianon",
                        "formatted_address": "7275 Sherbrooke Rue E (du Trianon), Montr\u00e9al QC H1N 1E9",
                        "locality": "Montreal",
                        "postcode": "H1N 1E9",
                        "region": "QC"
                  },
                  "name": "Villa Madina",
                  "popularity": 0.9271148750946253,
                  "price": 2
            },
            {
                  "distance": 155,
                  "location": {
                        "address": "7070 Sherbrooke Rue E",
                        "country": "CA",
                        "cross_street": "",
                        "formatted_address": "7070 Sherbrooke Rue E, Montr\u00e9al QC H1N 1E6",
                        "locality": "Montreal",
                        "postcode": "H1N 1E6",
                        "region": "QC"
                  },
                  "name": "R\u00f4tisseries Au Coq",
                  "popularity": 0.8896196063588191,
                  "price": 2
            },
            {
                  "distance": 155,
                  "location": {
                        "address": "7275 Sherbrooke Rue E",
                        "address_extended": "# 33",
                        "country": "CA",
                        "cross_street": "",
                        "formatted_address": "7275 Sherbrooke Rue E, Montreal QC H1N 1E9",
                        "locality": "Montreal",
                        "postcode": "H1N 1E9",
                        "region": "QC"
                  },
                  "name": "Mr Pretzels",
                  "popularity": 0.6808762301286904,
                  "price": 1
            },
            {
                  "distance": 178,
                  "location": {
                        "address": "7060 Sherbrooke Rue E",
                        "country": "CA",
                        "cross_street": "",
                        "formatted_address": "7060 Sherbrooke Rue E, Montr\u00e9al QC H1N 1E6",
                        "locality": "Montreal",
                        "postcode": "H1N 1E6",
                        "region": "QC"
                  },
                  "name": "O Asie",
                  "popularity": 0.9533497350492052,
                  "price": 2
            },
            {
                  "distance": 191,
                  "location": {
                        "address": "7275 Sherbrooke Rue E",
                        "country": "CA",
                        "cross_street": "",
                        "formatted_address": "7275 Sherbrooke Rue E, Montreal QC H1N 1E9",
                        "locality": "Montreal",
                        "postcode": "H1N 1E9",
                        "region": "QC"
                  },
                  "name": "Bistro l'Escale Gourmande",
                  "popularity": 0.3021030469341408,
                  "price": 3
            },
            {
                  "distance": 197,
                  "location": {
                        "address": "7060 Sherbrooke Rue O",
                        "country": "CA",
                        "formatted_address": "7060 Sherbrooke Rue O, Montr\u00e9al QC H4B 1R2",
                        "locality": "Montreal",
                        "postcode": "H4B 1R2",
                        "region": "QC"
                  },
                  "name": "Ronda Sushi",
                  "popularity": 0.8326906699470098,
                  "price": 2
            },
            {
                  "distance": 237,
                  "location": {
                        "address": "7275 Sherbrooke St E",
                        "address_extended": "Suite 193",
                        "country": "CA",
                        "cross_street": "",
                        "formatted_address": "7275 Sherbrooke St E, Montr\u00e9al QC H1N 1E9",
                        "locality": "Montreal",
                        "postcode": "H1N 1E9",
                        "region": "QC"
                  },
                  "name": "Second Cup CAF\u00c9 & Cie avec Pinkberry yogourt glac\u00e9",
                  "popularity": 0.15511449659348978,
                  "price": 1
            },
            {
                  "distance": 259,
                  "location": {
                        "address": "7275 Sherbrooke Rue E",
                        "address_extended": "# 61",
                        "country": "CA",
                        "cross_street": "",
                        "formatted_address": "7275 Sherbrooke Rue E, Montr\u00e9al QC H1N 1E9",
                        "locality": "Montreal",
                        "postcode": "H1N 1E9",
                        "region": "QC"
                  },
                  "name": "Caf\u00e9 \u00c0 Rome",
                  "popularity": 0.8820377554882665,
                  "price": 1
            },
            {
                  "distance": 322,
                  "location": {
                        "address": "7275 Sherbrooke Rue E",
                        "address_extended": "Floor 1",
                        "country": "CA",
                        "cross_street": "",
                        "formatted_address": "7275 Sherbrooke Rue E, Montr\u00e9al QC H1N 1E9",
                        "locality": "Montreal",
                        "postcode": "H1N 1E9",
                        "region": "QC"
                  },
                  "name": "Popino",
                  "popularity": 0.6265258327024981
            },
            {
                  "distance": 707,
                  "location": {
                        "address": "6737 Rue de Marseille",
                        "country": "CA",
                        "formatted_address": "6737 Rue de Marseille, Montr\u00e9al QC H1N 1M4",
                        "locality": "Montreal",
                        "postcode": "H1N 1M4",
                        "region": "QC"
                  },
                  "name": "Cremerie Mix",
                  "popularity": 0.8993896669190008,
                  "price": 1
            },
            {
                  "distance": 715,
                  "location": {
                        "address": "7880 Sherbrooke Rue E",
                        "country": "CA",
                        "cross_street": "",
                        "formatted_address": "7880 Sherbrooke Rue E, Montreal QC H1L 1A5",
                        "locality": "Montreal",
                        "postcode": "H1L 1A5",
                        "region": "QC"
                  },
                  "name": "Brasserie Champlain",
                  "popularity": 0.9256600113550341,
                  "price": 1
            },
            {
                  "distance": 836,
                  "location": {
                        "address": "3175 Ave de Granby",
                        "address_extended": "Bureau 14",
                        "country": "CA",
                        "cross_street": "Btw rue de Marseille & Faribault",
                        "formatted_address": "3175 Ave de Granby (Btw rue de Marseille & Faribault), Montr\u00e9al QC H1N 2Z7",
                        "locality": "Montreal",
                        "postcode": "H1N 2Z7",
                        "region": "QC"
                  },
                  "name": "Aurora Brasserie",
                  "popularity": 0.9075747539742619,
                  "price": 3
            },
            {
                  "distance": 874,
                  "location": {
                        "address": "3365 Ave de Granby",
                        "country": "CA",
                        "cross_street": "Sherbrooke",
                        "formatted_address": "3365 Ave de Granby (Sherbrooke), Montr\u00e9al QC H1N 2Z7",
                        "locality": "Montreal",
                        "postcode": "H1N 2Z7",
                        "region": "QC"
                  },
                  "name": "Paulos",
                  "popularity": 0.9388602384557153,
                  "price": 2
            },
            {
                  "distance": 895,
                  "location": {
                        "address": "7950 Sherbrooke Rue E",
                        "country": "CA",
                        "cross_street": "\u00c0 l'int\u00e9rieur du m\u00e9tro Honor\u00e9-Beaugrand",
                        "formatted_address": "7950 Sherbrooke Rue E (\u00c0 l'int\u00e9rieur du m\u00e9tro Honor\u00e9-Beaugrand), Montr\u00e9al QC",
                        "locality": "Montreal",
                        "region": "QC"
                  },
                  "name": "Caf\u00e9 William Spartivento",
                  "popularity": 0.46740158970476914,
                  "price": 1
            },
            {
                  "distance": 977,
                  "location": {
                        "address": "7291 Ave de la Malicorne",
                        "country": "CA",
                        "formatted_address": "7291 Ave de la Malicorne, Anjou QC H1M 1H1",
                        "locality": "Anjou",
                        "postcode": "H1M 1H1",
                        "region": "QC"
                  },
                  "name": "Acropolis Pizzeria & Restaurant",
                  "popularity": 0.9555261165783497,
                  "price": 1
            },
            {
                  "distance": 47,
                  "location": {
                        "address": "7200 Sherbrooke Rue E",
                        "country": "CA",
                        "formatted_address": "7200 Sherbrooke Rue E, Montreal QC H1N 1E7",
                        "locality": "Montreal",
                        "postcode": "H1N 1E7",
                        "region": "QC"
                  },
                  "name": "Bar and Grill Versailles"
            }
      ],
      "context": {
            "geo_bounds": {
                  "circle": {
                        "center": {
                              "latitude": 45.589175,
                              "longitude": -73.5396561
                        },
                        "radius": 1000
                  }
            }
      }
}