{
      "results": [
            {
                  "distance": 863,
                  "location": {
                        "address": "275 Hickson Rue",
                        "country": "CA",
                        "cross_street": "coin Wellington",
                        "formatted_address": "275 Hickson Rue (coin Wellington), Verdun QC H4G 2J7",
                        "locality": "Verdun",
                        "postcode": "H4G 2J7",
                        "region": "QC"
                  },
                  "name": "Garage Cafe",
                  "popularity": 0.9310773088569265,
                  "price": 2,
                  "rating": 9.0
            },
            {
                  "distance": 825,
                  "location": {
                        "address": "3852 Wellington Rue",
                        "country": "CA",
                        "cross_street": "",
                        "formatted_address": "3852 Wellington Rue, Verdun QC H4G 1V2",
                        "locality": "Verdun",
                        "postcode": "H4G 1V2",
                        "region": "QC"
                  },
                  "name": "Station W",
                  "popularity": 0.9501916161998486,
                  "price": 1,
                  "rating": 8.8
            },
            {
                  "distance": 916,
                  "location": {
                        "address": "2233 Pitt Rue",
                        "country": "CA",
                        "cross_street": "Saint-Patrick",
                        "formatted_address": "2233 Pitt Rue (Saint-Patrick), Montr\u00e9al QC H4E 4H2",
                        "locality": "Montreal",
                        "postcode": "H4E 4H2",
                        "region": "QC"
                  },
                  "name": "Messorem Bracitorium",
                  "popularity": 0.9737296555639667,
                  "price": 2,
                  "rating": 8.3
            },
            {
                  "distance": 561,
                  "location": {
                        "address": "760 Charlevoix Rue",
                        "country": "CA",
                        "cross_street": "at Rue de Coleraine",
                        "formatted_address": "760 Charlevoix Rue (at Rue de Coleraine), Montr\u00e9al QC H3K 2Y2",
                        "locality": "Montreal",
                        "postcode": "H3K 2Y2",
                        "region": "QC"
                  },
                  "name": "Paul Patates Frites",
                  "popularity": 0.9733866389099167,
                  "price": 1,
                  "rating": 8.3
            },
            {
                  "distance": 682,
                  "location": {
                        "address": "3681 Wellington Rue",
                        "country": "CA",
                        "cross_street": "",
                        "formatted_address": "3681 Wellington Rue, Montr\u00e9al QC H4G 1V1",
                        "locality": "Montreal",
                        "postcode": "H4G 1V1",
                        "region": "QC"
                  },
                  "name": "Rita",
                  "popularity": 0.9461936979560939,
                  "price": 2,
                  "rating": 8.2
            },
            {
                  "distance": 960,
                  "location": {
                        "country": "CA",
                        "cross_street": "",
                        "formatted_address": "Montr\u00e9al QC H4C 2G3",
                        "locality": "Montreal",
                        "postcode": "H4C 2G3",
                        "region": "QC"
                  },
                  "name": "Pizza Mia",
                  "popularity": 0.8745268735806208,
                  "price": 1,
                  "rating": 8.2
            },
            {
                  "distance": 809,
                  "location": {
                        "address": "3819 Wellington Rue",
                        "country": "CA",
                        "cross_street": "",
                        "formatted_address": "3819 Wellington Rue, Verdun QC H4G 1V1",
                        "locality": "Verdun",
                        "postcode": "H4G 1V1",
                        "region": "QC"
                  },
                  "name": "Bar Social Verdun",
                  "popularity": 0.9276353141559425,
                  "price": 2,
                  "rating": 8.0
            },
            {
                  "distance": 856,
                  "location": {
                        "address": "3876 Wellington Rue",
                        "country": "CA",
                        "cross_street": "coin Hickson",
                        "formatted_address": "3876 Wellington Rue (coin Hickson), Verdun QC H4G 1V2",
                        "locality": "Verdun",
                        "postcode": "H4G 1V2",
                        "region": "QC"
                  },
                  "name": "Nouveau Delhi Express",
                  "popularity": 0.9155232778198334,
                  "price": 2,
                  "rating": 8.0
            },
            {
                  "distance": 847,
                  "location": {
                        "address": "138 Atwater Ave",
                        "country": "CA",
                        "formatted_address": "138 Atwater Ave, Montr\u00e9al QC H4C 2G3",
                        "locality": "Montreal",
                        "postcode": "H4C 2G3",
                        "region": "QC"
                  },
                  "name": "Havre-aux-Glaces",
                  "popularity": 0.9121049394398183,
                  "price": 1,
                  "rating": 7.9
            },
            {
                  "distance": 761,
                  "location": {
                        "address": "2483 rue du Ctr",
                        "country": "CA",
                        "cross_street": "",
                        "formatted_address": "2483 rue du Ctr, Montr\u00e9al QC H3K 1J9",
                        "locality": "Montreal",
                        "postcode": "H3K 1J9",
                        "region": "QC"
                  },
                  "name": "Clarke Caf\u00e9",
                  "popularity": 0.9593111279333838,
                  "price": 1,
                  "rating": 7.6
            },
            {
                  "distance": 836,
                  "location": {
                        "address": "3819 Wellington Rue",
                        "address_extended": "Suite 102",
                        "country": "CA",
                        "cross_street": "",
                        "formatted_address": "3819 Wellington Rue, Montr\u00e9al QC H4G 1V1",
                        "locality": "Montreal",
                        "postcode": "H4G 1V1",
                        "region": "QC"
                  },
                  "name": "Chez Robin Bistro Local",
                  "popularity": 0.8777204769114307,
                  "price": 1,
                  "rating": 7.6
            },
            {
                  "distance": 852,
                  "location": {
                        "address": "3872 Wellington Rue",
                        "country": "CA",
                        "cross_street": "Hickson",
                        "formatted_address": "3872 Wellington Rue (Hickson), Verdun QC H4G 1V2",
                        "locality": "Verdun",
                        "postcode": "H4G 1V2",
                        "region": "QC"
                  },
                  "name": "Aka-Fuji",
                  "popularity": 0.8395036903860712,
                  "price": 2,
                  "rating": 7.6
            },
            {
                  "distance": 676,
                  "location": {
                        "address": "2556 rue du Ctr",
                        "country": "CA",
                        "cross_street": "Rue Charlevoix",
                        "formatted_address": "2556 rue du Ctr (Rue Charlevoix), Montr\u00e9al QC H3K 1J8",
                        "locality": "Montreal",
                        "postcode": "H3K 1J8",
                        "region": "QC"
                  },
                  "name": "Restaurant Cari Mela",
                  "popularity": 0.8533899507948524,
                  "price": 2,
                  "rating": 7.5
            },
            {
                  "distance": 1001,
                  "location": {
                        "address": "3990 Wellington Rue",
                        "country": "CA",
                        "cross_street": "entre De l'\u00c9glise & Hickson",
                        "formatted_address": "3990 Wellington Rue (entre De l'\u00c9glise & Hickson), Verdun QC H4G 1V3",
                        "locality": "Verdun",
                        "postcode": "H4G 1V3",
                        "region": "QC"
                  },
                  "name": "Boulangerie P\u00e2tisserie Wellington",
                  "popularity": 0.9482872823618471,
                  "price": 1,
                  "rating": 7.4
            },
            {
                  "distance": 967,
                  "location": {
                        "address": "138 Atwater Ave",
                        "country": "CA",
                        "formatted_address": "138 Atwater Ave, Montreal QC H4C 2G3",
                        "locality": "Montreal",
                        "postcode": "H4C 2G3",
                        "region": "QC"
                  },
                  "name": "Pasta d'ici",
                  "popularity": 0.7177091218773657,
                  "price": 2,
                  "rating": 7.3
            },
            {
                  "distance": 663,
                  "location": {
                        "address": "3625 Wellington Rue",
                        "country": "CA",
                        "cross_street": "",
                        "formatted_address": "3625 Wellington Rue, Montr\u00e9al QC H4G 1T9",
                        "locality": "Montreal",
                        "postcode": "H4G 1T9",
                        "region": "QC"
                  },
                  "name": "Les Street Monkeys",
                  "popularity": 0.9585659538228615,
                  "rating": 6.4
            },
            {
                  "distance": 962,
                  "location": {
                        "address": "3969 Wellington St",
                        "country": "CA",
                        "cross_street": "",
                        "formatted_address": "3969 Wellington St, Verdun QC H4G 1V6",
                        "locality": "Verdun",
                        "postcode": "H4G 1V6",
                        "region": "QC"
                  },
                  "name": "Pizza Hut",
                  "popularity": 0.89028198334595,
                  "price": 1,
                  "rating": 6.4,
                  "store_id": "R43401"
            },
            {
                  "distance": 663,
                  "location": {
                        "address": "2563 rue du Ctr",
                        "country": "CA",
                        "cross_street": "",
                        "formatted_address": "2563 rue du Ctr, Montr\u00e9al QC H3K 1J9",
                        "locality": "Montreal",
                        "postcode": "H3K 1J9",
                        "region": "QC"
                  },
                  "name": "Pizza Charlevoix",
                  "popularity": 0.950227100681302,
                  "price": 1,
                  "rating": 6.4
            },
            {
                  "distance": 862,
                  "location": {
                        "address": "4020 Saint-Ambroise Rue",
                        "address_extended": "# 140",
                        "country": "CA",
                        "formatted_address": "4020 Saint-Ambroise Rue, Montr\u00e9al QC H4C 2C7",
                        "locality": "Montreal",
                        "postcode": "H4C 2C7",
                        "region": "QC"
                  },
                  "name": "Restaurant l'Ambroisie",
                  "popularity": 0.9416871688115064,
                  "price": 2,
                  "rating": 6.3
            },
            {
                  "distance": 645,
                  "location": {
                        "address": "3665 Wellington Rue",
                        "country": "CA",
                        "cross_street": "",
                        "formatted_address": "3665 Wellington Rue, Montr\u00e9al QC H4G 1T9",
                        "locality": "Montreal",
                        "postcode": "H4G 1T9",
                        "region": "QC"
                  },
                  "name": "Poutine Lafleur",
                  "popularity": 0.8990703065859198,
                  "rating": 6.2
            },
            {
                  "distance": 64,
                  "location": {
                        "address": "3136 Lasalle Blvd",
                        "country": "CA",
                        "cross_street": "",
                        "formatted_address": "3136 Lasalle Blvd, Montr\u00e9al QC",
                        "locality": "Montreal",
                        "region": "QC"
                  },
                  "name": "The Lincoln Apartment Bakery",
                  "popularity": 0.25557106358819076
            },
            {
                  "distance": 226,
                  "location": {
                        "address": "3323 Evelyn",
                        "country": "CA",
                        "cross_street": "",
                        "formatted_address": "3323 Evelyn, Montr\u00e9al QC H4G 1N9",
                        "locality": "Montreal",
                        "postcode": "H4G 1N9",
                        "region": "QC"
                  },
                  "name": "Saint Jjh & Caf\u00e9",
                  "popularity": 0.9803652535957608,
                  "price": 1
            },
            {
                  "distance": 581,
                  "location": {
                        "address": "801 Charlevoix Rue",
                        "country": "CA",
                        "cross_street": "",
                        "formatted_address": "801 Charlevoix Rue, Montr\u00e9al QC H3K 2Y5",
                        "locality": "Montreal",
                        "postcode": "H3K 2Y5",
                        "region": "QC"
                  },
                  "name": "Connie Pizza",
                  "popularity": 0.8321702308856926,
                  "price": 1
            },
            {
                  "distance": 632,
                  "location": {
                        "address": "2687 Wellington Rue",
                        "country": "CA",
                        "cross_street": "",
                        "formatted_address": "2687 Wellington Rue, Montreal QC H3K 1X8",
                        "locality": "Montreal",
                        "postcode": "H3K 1X8",
                        "region": "QC"
                  },
                  "name": "Pub St Charles",
                  "popularity": 0.9495055828917487,
                  "price": 2
            },
            {
                  "distance": 654,
                  "location": {
                        "address": "2601 Rue Ctr",
                        "country": "CA",
                        "cross_street": "",
                        "formatted_address": "2601 Rue Ctr, Montr\u00e9al QC H3K 1K2",
                        "locality": "Montreal",
                        "postcode": "H3K 1K2",
                        "region": "QC"
                  },
                  "name": "Sep Lai",
                  "popularity": 0.945484008327025,
                  "price": 2
            },
            {
                  "distance": 655,
                  "location": {
                        "address": "2567 Centre St",
                        "country": "CA",
                        "cross_street": "",
                        "formatted_address": "2567 Centre St, Montr\u00e9al QC H3K 1J9",
                        "locality": "Montreal",
                        "postcode": "H3K 1J9",
                        "region": "QC"
                  },
                  "name": "LaChicR\u00e9gal",
                  "popularity": 0.8318272142316427,
                  "price": 2
            },
            {
                  "distance": 672,
                  "location": {
                        "address": "3683 Wellington Rue",
                        "country": "CA",
                        "cross_street": "",
                        "formatted_address": "3683 Wellington Rue, Montr\u00e9al QC H4G 1V1",
                        "locality": "Montreal",
                        "postcode": "H4G 1V1",
                        "region": "QC"
                  },
                  "name": "Archway Bar Sant\u00e9",
                  "popularity": 0.9512443224829674,
                  "price": 2
            },
            {
                  "distance": 730,
                  "location": {
                        "address": "3741 Wellington Rue",
                        "country": "CA",
                        "cross_street": "",
                        "formatted_address": "3741 Wellington Rue, Verdun QC H4G 1V1",
                        "locality": "Verdun",
                        "postcode": "H4G 1V1",
                        "region": "QC"
                  },
                  "name": "La Maison Egg Roll",
                  "popularity": 0.7864898750946253
            },
            {
                  "distance": 749,
                  "location": {
                        "address": "3762 Wellington",
                        "country": "CA",
                        "cross_street": "",
                        "formatted_address": "3762 Wellington, Montr\u00e9al QC",
                        "locality": "Montreal",
                        "region": "QC"
                  },
                  "name": "Notre-Boeuf-De-Grace",
                  "popularity": 0.9025241294473884
            },
            {
                  "distance": 780,
                  "location": {
                        "address": "2604 Saint-Patrick Rue",
                        "country": "CA",
                        "cross_street": "",
                        "formatted_address": "2604 Saint-Patrick Rue, Montr\u00e9al QC H3K 1B8",
                        "locality": "Montreal",
                        "postcode": "H3K 1B8",
                        "region": "QC"
                  },
                  "name": "Caf\u00e9 Redwood",
                  "popularity": 0.9289127554882665,
                  "price": 1
            },
            {
                  "distance": 784,
                  "location": {
                        "address": "2606 Saint-Patrick Rue",
                        "country": "CA",
                        "cross_street": "",
                        "formatted_address": "2606 Saint-Patrick Rue, Montr\u00e9al QC H3K 1B8",
                        "locality": "Montreal",
                        "postcode": "H3K 1B8",
                        "region": "QC"
                  },
                  "name": "Restaurant Krood",
                  "popularity": 0.8481973883421651
            },
            {
                  "distance": 844,
                  "location": {
                        "address": "3870 Wellington Rue",
                        "country": "CA",
                        "cross_street": "",
                        "formatted_address": "3870 Wellington Rue, Verdun QC H4G 1V2",
                        "locality": "Verdun",
                        "postcode": "H4G 1V2",
                        "region": "QC"
                  },
                  "name": "Alice & Theo",
                  "popularity": 0.9226556585919757,
                  "price": 1
            },
            {
                  "distance": 856,
                  "location": {
                        "address": "3900 Ethel Rue",
                        "country": "CA",
                        "cross_street": "Rue Hickson",
                        "formatted_address": "3900 Ethel Rue (Rue Hickson), Montr\u00e9al QC H4G 1S4",
                        "locality": "Montreal",
                        "postcode": "H4G 1S4",
                        "region": "QC"
                  },
                  "name": "Restaurant Beba",
                  "popularity": 0.9459216502649508,
                  "price": 2
            },
            {
                  "distance": 862,
                  "location": {
                        "address": "4035 Saint-Ambroise Rue",
                        "address_extended": "# 102",
                        "country": "CA",
                        "cross_street": "",
                        "formatted_address": "4035 Saint-Ambroise Rue, Montr\u00e9al QC H4C 2E1",
                        "locality": "Montreal",
                        "postcode": "H4C 2E1",
                        "region": "QC"
                  },
                  "name": "Cafe Cantinova",
                  "popularity": 0.9120576267978804,
                  "price": 2
            },
            {
                  "distance": 921,
                  "location": {
                        "address": "3780 Saint-Patrick Rue",
                        "country": "CA",
                        "cross_street": "Pitt",
                        "formatted_address": "3780 Saint-Patrick Rue (Pitt), Montr\u00e9al QC H4E 1A2",
                        "locality": "Montreal",
                        "postcode": "H4E 1A2",
                        "region": "QC"
                  },
                  "name": "Canadian Roasting Society",
                  "popularity": 0.8535200605601817,
                  "price": 1
            }
      ],
      "context": {
            "geo_bounds": {
                  "circle": {
                        "center": {
                              "latitude": 45.472561,
                              "longitude": -73.5699892
                        },
                        "radius": 1000
                  }
            }
      }
}