{
      "results": [
            {
                  "distance": 266,
                  "location": {
                        "address": "7669 Centrale Rue",
                        "country": "CA",
                        "cross_street": "",
                        "formatted_address": "7669 Centrale Rue, Lasalle QC H8P 1L4",
                        "locality": "Lasalle",
                        "postcode": "H8P 1L4",
                        "region": "QC"
                  },
                  "name": "Restaurant Dani's Pizzeria",
                  "popularity": 0.9778340272520818,
                  "price": 1,
                  "rating": 7.4
            },
            {
                  "distance": 326,
                  "location": {
                        "address": "7685 Centrale Rue",
                        "country": "CA",
                        "cross_street": "",
                        "formatted_address": "7685 Centrale Rue, Lasalle QC H8P 1L7",
                        "locality": "Lasalle",
                        "postcode": "H8P 1L7",
                        "region": "QC"
                  },
                  "name": "Eviza Cafe",
                  "popularity": 0.9806609576078729,
                  "price": 1
            },
            {
                  "distance": 513,
                  "location": {
                        "address": "7 8e Ave",
                        "address_extended": "# 7",
                        "country": "CA",
                        "cross_street": "",
                        "formatted_address": "7 8e Ave, Lasalle QC H8P 2M6",
                        "locality": "Lasalle",
                        "postcode": "H8P 2M6",
                        "region": "QC"
                  },
                  "name": "Ristorante Riventino",
                  "popularity": 0.8844980128690386,
                  "price": 2
            },
            {
                  "distance": 524,
                  "location": {
                        "address": "1 8e Ave",
                        "country": "CA",
                        "cross_street": "",
                        "formatted_address": "1 8e Ave, Lasalle QC H8P 2M6",
                        "locality": "Lasalle",
                        "postcode": "H8P 2M6",
                        "region": "QC"
                  },
                  "name": "Restaurant Cr\u00e8me Caf\u00e9",
                  "popularity": 0.9164577024981075,
                  "price": 2
            },
            {
                  "distance": 767,
                  "location": {
                        "address": "1111 Lapierre Rue",
                        "country": "CA",
                        "cross_street": "",
                        "formatted_address": "1111 Lapierre Rue, Lasalle QC H8N 2J4",
                        "locality": "Lasalle",
                        "postcode": "H8N 2J4",
                        "region": "QC"
                  },
                  "name": "Caf\u00e9-Inn",
                  "popularity": 0.37420751324753976
            },
            {
                  "distance": 947,
                  "location": {
                        "address": "7824 Champlain Blvd",
                        "country": "CA",
                        "cross_street": "Bishop Power",
                        "formatted_address": "7824 Champlain Blvd (Bishop Power), Lasalle QC H8P 1B3",
                        "locality": "Lasalle",
                        "postcode": "H8P 1B3",
                        "region": "QC"
                  },
                  "name": "Rabu Sushi",
                  "popularity": 0.23037708175624527,
                  "price": 2
            },
            {
                  "distance": 81,
                  "location": {
                        "address": "7546 Centrale Rue",
                        "country": "CA",
                        "formatted_address": "7546 Centrale Rue, Lasalle QC H8P 1K3",
                        "locality": "Lasalle",
                        "postcode": "H8P 1K3",
                        "region": "QC"
                  },
                  "name": "Le Bronx Grill"
            },
            {
                  "distance": 104,
                  "location": {
                        "address": "7610 Centrale Rue",
                        "country": "CA",
                        "formatted_address": "7610 Centrale Rue, Lasalle QC H8P 1K9",
                        "locality": "Lasalle",
                        "postcode": "H8P 1K9",
                        "region": "QC"
                  },
                  "name": "Centrale Pizzeria"
            },
            {
                  "distance": 116,
                  "location": {
                        "address": "7610 Centrale Rue",
                        "country": "CA",
                        "formatted_address": "7610 Centrale Rue, Montreal QC",
                        "locality": "Montreal",
                        "region": "QC"
                  },
                  "name": "Centrales"
            },
            {
                  "distance": 130,
                  "location": {
                        "address": "7624 Centrale Rue",
                        "country": "CA",
                        "formatted_address": "7624 Centrale Rue, Lasalle QC H8P 1K9",
                        "locality": "Lasalle",
                        "postcode": "H8P 1K9",
                        "region": "QC"
                  },
                  "name": "Restaurant Central 75"
            },
            {
                  "distance": 142,
                  "location": {
                        "address": "7624 Centrale Rue",
                        "country": "CA",
                        "formatted_address": "7624 Centrale Rue, Lasalle QC H8P 1K9",
                        "locality": "Lasalle",
                        "postcode": "H8P 1K9",
                        "region": "QC"
                  },
                  "name": "Restaurant Kim"
            },
            {
                  "distance": 349,
                  "location": {
                        "address": "7695 Centrale Rue",
                        "country": "CA",
                        "formatted_address": "7695 Centrale Rue, Lasalle QC H8P 1L7",
                        "locality": "Lasalle",
                        "postcode": "H8P 1L7",
                        "region": "QC"
                  },
                  "name": "Almondo Pizzeria"
            },
            {
                  "distance": 466,
                  "location": {
                        "address": "189 8e Ave",
                        "country": "CA",
                        "formatted_address": "189 8e Ave, Lasalle QC H8P 2M9",
                        "locality": "Lasalle",
                        "postcode": "H8P 2M9",
                        "region": "QC"
                  },
                  "name": "Pott's Pastries"
            },
            {
                  "distance": 514,
                  "location": {
                        "address": "1 8e Ave",
                        "country": "CA",
                        "formatted_address": "1 8e Ave, Lasalle QC H8P 2M6",
                        "locality": "Lasalle",
                        "postcode": "H8P 2M6",
                        "region": "QC"
                  },
                  "name": "Cafetiere"
            },
            {
                  "distance": 800,
                  "location": {
                        "address": "1696 Crawford Rue",
                        "country": "CA",
                        "formatted_address": "1696 Crawford Rue, Verdun QC H4H 2N9",
                        "locality": "Verdun",
                        "postcode": "H4H 2N9",
                        "region": "QC"
                  },
                  "name": "Keough Kakes Bakery"
            }
      ],
      "context": {
            "geo_bounds": {
                  "circle": {
                        "center": {
                              "latitude": 45.43289463,
                              "longitude": -73.59685689
                        },
                        "radius": 1000
                  }
            }
      }
}