{
      "results": [
            {
                  "distance": 806,
                  "location": {
                        "address": "114 Dresden Ave",
                        "country": "CA",
                        "cross_street": "coin Jean-Talon",
                        "formatted_address": "114 Dresden Ave (coin Jean-Talon), Montr\u00e9al QC H3P 2B6",
                        "locality": "Montreal",
                        "postcode": "H3P 2B6",
                        "region": "QC"
                  },
                  "name": "Poissonnerie la Sirene la Mer",
                  "popularity": 0.9898987509462528,
                  "price": 3,
                  "rating": 7.4
            },
            {
                  "distance": 60,
                  "location": {
                        "address": "2707 Van Horne Ave",
                        "address_extended": "# 2615",
                        "country": "CA",
                        "cross_street": "",
                        "formatted_address": "2707 Van Horne Ave, Montr\u00e9al QC H3S 1P6",
                        "locality": "Montreal",
                        "postcode": "H3S 1P6",
                        "region": "QC"
                  },
                  "name": "Subway",
                  "popularity": 0.8892056207418623,
                  "price": 1,
                  "rating": 6.4
            },
            {
                  "distance": 197,
                  "location": {
                        "address": "2659 Van Horne Ave",
                        "country": "CA",
                        "cross_street": "",
                        "formatted_address": "2659 Van Horne Ave, Montr\u00e9al QC H3S 1P6",
                        "locality": "Montreal",
                        "postcode": "H3S 1P6",
                        "region": "QC"
                  },
                  "name": "Domino's Pizza",
                  "popularity": 0.5123840840272521,
                  "price": 1,
                  "store_id": "10727"
            },
            {
                  "distance": 780,
                  "location": {
                        "address": "9 Vincent d'Indy Ave",
                        "country": "CA",
                        "cross_street": "",
                        "formatted_address": "9 Vincent d'Indy Ave, Montr\u00e9al QC H2V 4N7",
                        "locality": "Montreal",
                        "postcode": "H2V 4N7",
                        "region": "QC"
                  },
                  "name": "Pizza Tifosi Outremont",
                  "popularity": 0.8951788417865254,
                  "price": 1
            },
            {
                  "distance": 899,
                  "location": {
                        "address": "2049 Edouard Montpetit",
                        "country": "CA",
                        "cross_street": "Vincent D'indy",
                        "formatted_address": "2049 Edouard Montpetit (Vincent D'indy), Montr\u00e9al QC",
                        "locality": "Montreal",
                        "region": "QC"
                  },
                  "name": "Les Navafr\u00e9es",
                  "popularity": 0.9031391937925813,
                  "price": 3
            },
            {
                  "distance": 86,
                  "location": {
                        "address": "2660 Ave de Kent",
                        "country": "CA",
                        "formatted_address": "2660 Ave de Kent, Montreal QC H3S 1M7",
                        "locality": "Montreal",
                        "postcode": "H3S 1M7",
                        "region": "QC"
                  },
                  "name": "Saveurs de Damas"
            },
            {
                  "distance": 115,
                  "location": {
                        "address": "2720 Pl de Darlington",
                        "country": "CA",
                        "formatted_address": "2720 Pl de Darlington, Montreal QC H3S 1L5",
                        "locality": "Montreal",
                        "postcode": "H3S 1L5",
                        "region": "QC"
                  },
                  "name": "Joaquin's Cigar Lounge"
            },
            {
                  "distance": 215,
                  "location": {
                        "address": "6100 Ave du Boise",
                        "country": "CA",
                        "formatted_address": "6100 Ave du Boise, Montreal QC H3S 2W1",
                        "locality": "Montreal",
                        "postcode": "H3S 2W1",
                        "region": "QC"
                  },
                  "name": "Cafe Morena"
            },
            {
                  "distance": 339,
                  "location": {
                        "address": "2662 Ave de Soissons",
                        "country": "CA",
                        "formatted_address": "2662 Ave de Soissons, Montreal QC H3S 1V8",
                        "locality": "Montreal",
                        "postcode": "H3S 1V8",
                        "region": "QC"
                  },
                  "name": "Moist Club"
            },
            {
                  "distance": 368,
                  "location": {
                        "address": "6675 Wilderton Ave",
                        "country": "CA",
                        "formatted_address": "6675 Wilderton Ave, Montreal QC H3S 2L8",
                        "locality": "Montreal",
                        "postcode": "H3S 2L8",
                        "region": "QC"
                  },
                  "name": "Il Rincontro"
            },
            {
                  "distance": 423,
                  "location": {
                        "address": "6685 Ave de Darlington",
                        "country": "CA",
                        "formatted_address": "6685 Ave de Darlington, Montreal QC H3S 2J6",
                        "locality": "Montreal",
                        "postcode": "H3S 2J6",
                        "region": "QC"
                  },
                  "name": "Boulangerie Sindidab"
            },
            {
                  "distance": 447,
                  "location": {
                        "address": "6690 Ave de Darlington",
                        "country": "CA",
                        "formatted_address": "6690 Ave de Darlington, Montreal QC H3S 2J5",
                        "locality": "Montreal",
                        "postcode": "H3S 2J5",
                        "region": "QC"
                  },
                  "name": "Restaurant Kim Fay"
            },
            {
                  "distance": 555,
                  "location": {
                        "address": "6914 Wilderton Ave",
                        "country": "CA",
                        "formatted_address": "6914 Wilderton Ave, Montreal QC H3S 2M5",
                        "locality": "Montreal",
                        "postcode": "H3S 2M5",
                        "region": "QC"
                  },
                  "name": "Sarah Cuisine Cr\u00e9ole"
            },
            {
                  "distance": 788,
                  "location": {
                        "address": "3205 Barclay Ave",
                        "country": "CA",
                        "formatted_address": "3205 Barclay Ave, Montreal QC H3S 1K2",
                        "locality": "Montreal",
                        "postcode": "H3S 1K2",
                        "region": "QC"
                  },
                  "name": "Boulangerie Kalina"
            },
            {
                  "distance": 800,
                  "location": {
                        "address": "3175 ch de la cote-Sainte-Catherine",
                        "country": "CA",
                        "formatted_address": "3175 ch de la cote-Sainte-Catherine, Montreal QC H3T 1C5",
                        "locality": "Montreal",
                        "postcode": "H3T 1C5",
                        "region": "QC"
                  },
                  "name": "Van Houtte"
            },
            {
                  "distance": 867,
                  "location": {
                        "address": "2900 Edouard-Montpetit Blvd",
                        "country": "CA",
                        "formatted_address": "2900 Edouard-Montpetit Blvd, Montreal QC H3T 1J4",
                        "locality": "Montreal",
                        "postcode": "H3T 1J4",
                        "region": "QC"
                  },
                  "name": "Cafe-In"
            },
            {
                  "distance": 921,
                  "location": {
                        "address": "2100 Edouard-Montpetit Blvd",
                        "country": "CA",
                        "formatted_address": "2100 Edouard-Montpetit Blvd, Montreal QC H3T 1J4",
                        "locality": "Montreal",
                        "postcode": "H3T 1J4",
                        "region": "QC"
                  },
                  "name": "Caf\u00e9Kine"
            },
            {
                  "distance": 951,
                  "location": {
                        "address": "779 Rockland Ave",
                        "country": "CA",
                        "formatted_address": "779 Rockland Ave, Outremont QC H2V 2Z7",
                        "locality": "Outremont",
                        "postcode": "H2V 2Z7",
                        "region": "QC"
                  },
                  "name": "Les Vraies Affaires"
            }
      ],
      "context": {
            "geo_bounds": {
                  "circle": {
                        "center": {
                              "latitude": 45.51014162,
                              "longitude": -73.62475187
                        },
                        "radius": 1000
                  }
            }
      }
}