{
      "results": [
            {
                  "distance": 1019,
                  "location": {
                        "address": "6703 Sherbrooke Rue O",
                        "country": "CA",
                        "cross_street": "Montclair St.",
                        "formatted_address": "6703 Sherbrooke Rue O (Montclair St.), Montr\u00e9al QC H4B 1P3",
                        "locality": "Montreal",
                        "postcode": "H4B 1P3",
                        "region": "QC"
                  },
                  "name": "Cafe 92 Degres",
                  "popularity": 0.9332300340651022,
                  "price": 1,
                  "rating": 8.7
            },
            {
                  "distance": 714,
                  "location": {
                        "address": "6926 Sherbrooke Rue O",
                        "country": "CA",
                        "cross_street": "",
                        "formatted_address": "6926 Sherbrooke Rue O, Montr\u00e9al QC H4B 1P9",
                        "locality": "Montreal",
                        "postcode": "H4B 1P9",
                        "region": "QC"
                  },
                  "name": "Ca Lem",
                  "popularity": 0.9657219909159728,
                  "price": 1,
                  "rating": 8.4
            },
            {
                  "distance": 731,
                  "location": {
                        "address": "59 Westminster Ave N",
                        "address_extended": "Milner",
                        "country": "CA",
                        "cross_street": "Milner",
                        "formatted_address": "59 Westminster Ave N (Milner), Montr\u00e9al QC H4X 1Y8",
                        "locality": "Montreal",
                        "postcode": "H4X 1Y8",
                        "region": "QC"
                  },
                  "name": "Burger de Ville",
                  "popularity": 0.9558011049723757,
                  "price": 1,
                  "rating": 8.3
            },
            {
                  "distance": 505,
                  "location": {
                        "address": "7345 Sherbrooke St W",
                        "address_extended": "# 7335",
                        "country": "CA",
                        "formatted_address": "7345 Sherbrooke St W, Montr\u00e9al QC H4B 1R9",
                        "locality": "Montreal",
                        "postcode": "H4B 1R9",
                        "region": "QC"
                  },
                  "name": "Second Cup Coffee Co",
                  "popularity": 0.9502980696442089,
                  "price": 1,
                  "rating": 7.9,
                  "store_id": "3118"
            },
            {
                  "distance": 778,
                  "location": {
                        "address": "24 Westminster Ave N",
                        "country": "CA",
                        "formatted_address": "24 Westminster Ave N, Montr\u00e9al QC H4X 1Y9",
                        "locality": "Montreal",
                        "postcode": "H4X 1Y9",
                        "region": "QC"
                  },
                  "name": "Patisserie de la Gare",
                  "popularity": 0.9779005524861878,
                  "price": 1,
                  "rating": 7.0
            },
            {
                  "distance": 998,
                  "location": {
                        "address": "7003 Ch Cote St Luc",
                        "country": "CA",
                        "cross_street": "Coronation Ave",
                        "formatted_address": "7003 Ch Cote St Luc (Coronation Ave), Montr\u00e9al QC H4V 1J2",
                        "locality": "Montreal",
                        "postcode": "H4V 1J2",
                        "region": "QC"
                  },
                  "name": "McDonald's",
                  "popularity": 1.0,
                  "price": 1,
                  "rating": 6.7,
                  "store_id": "40398"
            },
            {
                  "distance": 745,
                  "location": {
                        "address": "49 Westminster Ave N",
                        "country": "CA",
                        "cross_street": "Sherbrooke",
                        "formatted_address": "49 Westminster Ave N (Sherbrooke), Montr\u00e9al QC H4X 1Y8",
                        "locality": "Montreal",
                        "postcode": "H4X 1Y8",
                        "region": "QC"
                  },
                  "name": "L'Oeufrier",
                  "popularity": 0.9281767955801105,
                  "price": 1,
                  "rating": 6.7
            },
            {
                  "distance": 596,
                  "location": {
                        "address": "7420 Sherbrooke Rue W",
                        "address_extended": "Elmhurst St",
                        "country": "CA",
                        "cross_street": "Elmhurst St",
                        "formatted_address": "7420 Sherbrooke Rue W (Elmhurst St), Montr\u00e9al QC H4B 1R7",
                        "locality": "Montreal",
                        "postcode": "H4B 1R7",
                        "region": "QC"
                  },
                  "name": "Subway",
                  "popularity": 0.986610522331567,
                  "price": 1,
                  "rating": 6.4
            },
            {
                  "distance": 547,
                  "location": {
                        "address": "7363 Sherbrooke Rue O",
                        "country": "CA",
                        "cross_street": "",
                        "formatted_address": "7363 Sherbrooke Rue O, Montreal QC H4B 1S1",
                        "locality": "Montreal",
                        "postcode": "H4B 1S1",
                        "region": "QC"
                  },
                  "name": "Romi Pizza",
                  "popularity": 0.682070874337623,
                  "price": 1
            },
            {
                  "distance": 643,
                  "location": {
                        "address": "6969 Sherbrooke Rue O",
                        "country": "CA",
                        "cross_street": "",
                        "formatted_address": "6969 Sherbrooke Rue O, Montr\u00e9al QC H4B 1R1",
                        "locality": "Montreal",
                        "postcode": "H4B 1R1",
                        "region": "QC"
                  },
                  "name": "Dagwoods Sandwiches",
                  "popularity": 0.9354892127176382,
                  "price": 1
            },
            {
                  "distance": 721,
                  "location": {
                        "address": "6926 Sherbrooke Rue O",
                        "address_extended": "Suite 1",
                        "country": "CA",
                        "cross_street": "",
                        "formatted_address": "6926 Sherbrooke Rue O, Montr\u00e9al QC H4B 1P9",
                        "locality": "Montreal",
                        "postcode": "H4B 1P9",
                        "region": "QC"
                  },
                  "name": "MIA Caf\u00e9 Club",
                  "popularity": 0.8483156699470098,
                  "price": 1
            },
            {
                  "distance": 731,
                  "location": {
                        "address": "5312 Patricia Ave",
                        "country": "CA",
                        "cross_street": "",
                        "formatted_address": "5312 Patricia Ave, Montr\u00e9al QC H4V 1Z2",
                        "locality": "Montreal",
                        "postcode": "H4V 1Z2",
                        "region": "QC"
                  },
                  "name": "Mr Patty",
                  "popularity": 0.9874503217259651,
                  "price": 2
            },
            {
                  "distance": 733,
                  "location": {
                        "address": "51 Westminster Ave N",
                        "country": "CA",
                        "cross_street": "",
                        "formatted_address": "51 Westminster Ave N, Montreal-Ouest QC H4X 1Y8",
                        "locality": "Montreal West",
                        "postcode": "H4X 1Y8",
                        "region": "QC"
                  },
                  "name": "Les D\u00e9lices Lafrenaie Montr\u00e9al-Ouest",
                  "popularity": 0.9337016574585635,
                  "price": 1
            },
            {
                  "distance": 739,
                  "location": {
                        "address": "48 Westminster Ave N",
                        "country": "CA",
                        "cross_street": "Milner",
                        "formatted_address": "48 Westminster Ave N (Milner), Montreal-Ouest QC H4X 1Z2",
                        "locality": "Montreal West",
                        "postcode": "H4X 1Z2",
                        "region": "QC"
                  },
                  "name": "Sushi Shop Westminster",
                  "popularity": 0.3259668508287293,
                  "price": 2
            },
            {
                  "distance": 771,
                  "location": {
                        "address": "37 Westminster Ave N",
                        "country": "CA",
                        "cross_street": "",
                        "formatted_address": "37 Westminster Ave N, Montreal-Ouest QC H4X 1Y8",
                        "locality": "Montreal West",
                        "postcode": "H4X 1Y8",
                        "region": "QC"
                  },
                  "name": "Montreal Chinese Crepes & Dumplings",
                  "popularity": 0.8895027624309392,
                  "price": 1
            },
            {
                  "distance": 903,
                  "location": {
                        "address": "6592 Somerled Ave",
                        "country": "CA",
                        "cross_street": "",
                        "formatted_address": "6592 Somerled Ave, Montr\u00e9al QC H4V 1S9",
                        "locality": "Montreal",
                        "postcode": "H4V 1S9",
                        "region": "QC"
                  },
                  "name": "Ai Dumpling",
                  "popularity": 0.9825889477668432,
                  "price": 1
            },
            {
                  "distance": 931,
                  "location": {
                        "address": "6573 Somerled Ave",
                        "country": "CA",
                        "cross_street": "",
                        "formatted_address": "6573 Somerled Ave, Montr\u00e9al QC H4V 1T1",
                        "locality": "Montreal",
                        "postcode": "H4V 1T1",
                        "region": "QC"
                  },
                  "name": "Sushi Hoshimi",
                  "popularity": 0.8775903671461014,
                  "price": 2
            },
            {
                  "distance": 931,
                  "location": {
                        "address": "6563 Somerled Ave",
                        "country": "CA",
                        "cross_street": "",
                        "formatted_address": "6563 Somerled Ave, Montr\u00e9al QC H4V 1T1",
                        "locality": "Montreal",
                        "postcode": "H4V 1T1",
                        "region": "QC"
                  },
                  "name": "Olivia\u2019s Poulet Authentique",
                  "popularity": 0.9211061695685087,
                  "price": 1
            },
            {
                  "distance": 933,
                  "location": {
                        "address": "6565 Somerled Ave",
                        "country": "CA",
                        "cross_street": "Cumberland",
                        "formatted_address": "6565 Somerled Ave (Cumberland), Montr\u00e9al QC H4V 1T1",
                        "locality": "Montreal",
                        "postcode": "H4V 1T1",
                        "region": "QC"
                  },
                  "name": "\u00c9l\u00e9mentaire Caf\u00e9",
                  "popularity": 0.368317089326268,
                  "price": 1
            },
            {
                  "distance": 933,
                  "location": {
                        "address": "7425 Saint-Jacques Rue",
                        "country": "CA",
                        "cross_street": "",
                        "formatted_address": "7425 Saint-Jacques Rue, Montr\u00e9al QC H4B 1W6",
                        "locality": "Montreal",
                        "postcode": "H4B 1W6",
                        "region": "QC"
                  },
                  "name": "Goldie'S Resto Bar",
                  "popularity": 0.7141488455715367,
                  "price": 2
            },
            {
                  "distance": 971,
                  "location": {
                        "address": "5423 Robert-Burns Rue",
                        "country": "CA",
                        "cross_street": "",
                        "formatted_address": "5423 Robert-Burns Rue, Montr\u00e9al QC H4W 2B4",
                        "locality": "Montreal",
                        "postcode": "H4W 2B4",
                        "region": "QC"
                  },
                  "name": "Robert Burns Pub",
                  "popularity": 0.9721328538985617,
                  "price": 1
            },
            {
                  "distance": 976,
                  "location": {
                        "address": "7020 Ch de la Cote-Saint-Luc",
                        "country": "CA",
                        "cross_street": "",
                        "formatted_address": "7020 Ch de la Cote-Saint-Luc, Montreal QC H4V 1J3",
                        "locality": "Montreal",
                        "postcode": "H4V 1J3",
                        "region": "QC"
                  },
                  "name": "Restaurant Fay Wong",
                  "popularity": 0.8565400843881856,
                  "price": 2
            },
            {
                  "distance": 987,
                  "location": {
                        "address": "7360 Saint Jacques Rue",
                        "country": "CA",
                        "cross_street": "Patricia",
                        "formatted_address": "7360 Saint Jacques Rue (Patricia), Montr\u00e9al QC H4B 1W3",
                        "locality": "Montreal",
                        "postcode": "H4B 1W3",
                        "region": "QC"
                  },
                  "name": "Spurs Country Bar",
                  "popularity": 0.8373273088569265,
                  "price": 3
            },
            {
                  "distance": 992,
                  "location": {
                        "address": "6543A Somerled Ave",
                        "country": "CA",
                        "cross_street": "Cavendish",
                        "formatted_address": "6543A Somerled Ave (Cavendish), Montr\u00e9al QC H4V 1S7",
                        "locality": "Montreal",
                        "postcode": "H4V 1S7",
                        "region": "QC"
                  },
                  "name": "Le Caf\u00e9 Bomnal",
                  "popularity": 0.8393380961392884,
                  "price": 1
            },
            {
                  "distance": 1002,
                  "location": {
                        "address": "6543 Somerled Ave",
                        "country": "CA",
                        "cross_street": "",
                        "formatted_address": "6543 Somerled Ave, Montr\u00e9al QC H4V 1S7",
                        "locality": "Montreal",
                        "postcode": "H4V 1S7",
                        "region": "QC"
                  },
                  "name": "Patisserie Churro",
                  "popularity": 0.9092898372445117,
                  "price": 1
            },
            {
                  "distance": 1007,
                  "location": {
                        "address": "6535 Somerled Ave",
                        "country": "CA",
                        "cross_street": "",
                        "formatted_address": "6535 Somerled Ave, Montr\u00e9al QC H4V 1S7",
                        "locality": "Montreal",
                        "postcode": "H4V 1S7",
                        "region": "QC"
                  },
                  "name": "Oregano's Grill",
                  "popularity": 0.07191521574564724,
                  "price": 2
            },
            {
                  "distance": 1014,
                  "location": {
                        "address": "6538A Somerled Ave",
                        "country": "CA",
                        "cross_street": "",
                        "formatted_address": "6538A Somerled Ave, Montr\u00e9al QC H4V 1S8",
                        "locality": "Montreal",
                        "postcode": "H4V 1S8",
                        "region": "QC"
                  },
                  "name": "Mirama",
                  "popularity": 0.4366247161241484,
                  "price": 1
            },
            {
                  "distance": 1076,
                  "location": {
                        "address": "6563 Somerled Ave",
                        "country": "CA",
                        "cross_street": "Cavendish",
                        "formatted_address": "6563 Somerled Ave (Cavendish), Montr\u00e9al QC H4V 1T1",
                        "locality": "Montreal",
                        "postcode": "H4V 1T1",
                        "region": "QC"
                  },
                  "name": "Le K'Bob",
                  "popularity": 0.7208908970476912,
                  "price": 2
            },
            {
                  "distance": 184,
                  "location": {
                        "address": "292 Saint-Catherine Rue W",
                        "country": "CA",
                        "formatted_address": "292 Saint-Catherine Rue W, Montreal QC H2X 2A1",
                        "locality": "Montreal",
                        "postcode": "H2X 2A1",
                        "region": "QC"
                  },
                  "name": "AL&Jo"
            },
            {
                  "distance": 467,
                  "location": {
                        "address": "7141 Sherbrooke Rue O",
                        "country": "CA",
                        "formatted_address": "7141 Sherbrooke Rue O, Montreal QC",
                        "locality": "Montreal",
                        "region": "QC"
                  },
                  "name": "The G-Lounge"
            },
            {
                  "distance": 608,
                  "location": {
                        "address": "6995 Ave de Monkland",
                        "country": "CA",
                        "formatted_address": "6995 Ave de Monkland, Montreal QC H4B 1J8",
                        "locality": "Montreal",
                        "postcode": "H4B 1J8",
                        "region": "QC"
                  },
                  "name": "Souvlaki Georges"
            },
            {
                  "distance": 729,
                  "location": {
                        "address": "98 Westminster Ave N",
                        "country": "CA",
                        "formatted_address": "98 Westminster Ave N, Montreal-Ouest QC H4X 1Z2",
                        "locality": "Montreal-Ouest",
                        "postcode": "H4X 1Z2",
                        "region": "QC"
                  },
                  "name": "Emmagination"
            },
            {
                  "distance": 744,
                  "location": {
                        "address": "5316 Patricia Ave",
                        "country": "CA",
                        "formatted_address": "5316 Patricia Ave, Montreal QC H4V 1Z2",
                        "locality": "Montreal",
                        "postcode": "H4V 1Z2",
                        "region": "QC"
                  },
                  "name": "Chateau Euro"
            },
            {
                  "distance": 747,
                  "location": {
                        "address": "30 Westminster Ave N",
                        "country": "CA",
                        "formatted_address": "30 Westminster Ave N, Montreal-Ouest QC H4X 1Z2",
                        "locality": "Montreal-Ouest",
                        "postcode": "H4X 1Z2",
                        "region": "QC"
                  },
                  "name": "Les Aliments Carne Inc"
            },
            {
                  "distance": 774,
                  "location": {
                        "address": "30 Westminster Ave N",
                        "country": "CA",
                        "formatted_address": "30 Westminster Ave N, Montreal-Ouest QC H4X 1Z2",
                        "locality": "Montreal-Ouest",
                        "postcode": "H4X 1Z2",
                        "region": "QC"
                  },
                  "name": "Kammys"
            }
      ],
      "context": {
            "geo_bounds": {
                  "circle": {
                        "center": {
                              "latitude": 45.45976108,
                              "longitude": -73.64477456
                        },
                        "radius": 1000
                  }
            }
      }
}