{
      "results": [
            {
                  "distance": 594,
                  "location": {
                        "address": "215 Blvd de la C\u00f4te-Vertu",
                        "country": "CA",
                        "cross_street": "",
                        "formatted_address": "215 Blvd de la C\u00f4te-Vertu, Montr\u00e9al QC H4N 1C8",
                        "locality": "Montreal",
                        "postcode": "H4N 1C8",
                        "region": "QC"
                  },
                  "name": "Cafe Jounieh",
                  "popularity": 0.9907740348221045,
                  "price": 1,
                  "rating": 7.5
            },
            {
                  "distance": 452,
                  "location": {
                        "address": "740 Blvd de la cote-Vertu",
                        "address_extended": "Suite 159D",
                        "country": "CA",
                        "formatted_address": "740 Blvd de la cote-Vertu, Saint-Laurent QC H4L 5C8",
                        "locality": "Saint-Laurent",
                        "postcode": "H4L 5C8",
                        "region": "QC"
                  },
                  "name": "Subway",
                  "popularity": 0.9444667865253595,
                  "price": 1,
                  "rating": 6.4
            },
            {
                  "distance": 468,
                  "location": {
                        "address": "740 C\u00f4te-Vertu",
                        "country": "CA",
                        "cross_street": "",
                        "formatted_address": "740 C\u00f4te-Vertu, Saint-Laurent QC H4L 5C8",
                        "locality": "Saint-Laurent",
                        "postcode": "H4L 5C8",
                        "region": "QC"
                  },
                  "name": "Pho Thanh Nam Quan",
                  "popularity": 0.9864449280847842,
                  "price": 2,
                  "rating": 5.9
            },
            {
                  "distance": 164,
                  "location": {
                        "address": "595 Blvd de la cote-Vertu",
                        "country": "CA",
                        "formatted_address": "595 Blvd de la cote-Vertu, Saint-Laurent QC H4L 1X8",
                        "locality": "Saint-Laurent",
                        "postcode": "H4L 1X8",
                        "region": "QC"
                  },
                  "name": "Caf\u00e9 Restaurant Jounieh",
                  "popularity": 0.30064818319454956
            },
            {
                  "distance": 299,
                  "location": {
                        "address": "1470 Blvd de la C\u00f4te-Vertu",
                        "country": "CA",
                        "cross_street": "Montpellier",
                        "formatted_address": "1470 Blvd de la C\u00f4te-Vertu (Montpellier), Saint-Laurent QC H4L 1Z7",
                        "locality": "Saint-Laurent",
                        "postcode": "H4L 1Z7",
                        "region": "QC"
                  },
                  "name": "Caf\u00e9 Beyrouth",
                  "popularity": 0.9762727100681302,
                  "price": 1
            },
            {
                  "distance": 403,
                  "location": {
                        "address": "740 Blvd de la C\u00f4te-Vertu O",
                        "country": "CA",
                        "cross_street": "",
                        "formatted_address": "740 Blvd de la C\u00f4te-Vertu O, Montr\u00e9al QC H4L 5C8",
                        "locality": "Montreal",
                        "postcode": "H4L 5C8",
                        "region": "QC"
                  },
                  "name": "Patisserie Al Shahroura",
                  "popularity": 0.3167226532929599
            },
            {
                  "distance": 2183,
                  "location": {
                        "address": "597 Blvd de la C\u00f4te-Vertu",
                        "country": "CA",
                        "cross_street": "",
                        "formatted_address": "597 Blvd de la C\u00f4te-Vertu, Montr\u00e9al QC H4L 1X8",
                        "locality": "Montreal",
                        "postcode": "H4L 1X8",
                        "region": "QC"
                  },
                  "name": "Chez Wafi",
                  "popularity": 0.6317183951551855,
                  "price": 1
            },
            {
                  "distance": 375,
                  "location": {
                        "address": "740 Blvd de la Cote Vertu",
                        "country": "CA",
                        "formatted_address": "740 Blvd de la Cote Vertu, Saint-Laurent QC H4L 5C8",
                        "locality": "Saint-Laurent",
                        "postcode": "H4L 5C8",
                        "region": "QC"
                  },
                  "name": "Bon Appetit"
            },
            {
                  "distance": 398,
                  "location": {
                        "address": "740 Cote Vertu Blvd O",
                        "country": "CA",
                        "formatted_address": "740 Cote Vertu Blvd O, Saint-Laurent QC H4L 5C8",
                        "locality": "Saint-Laurent",
                        "postcode": "H4L 5C8",
                        "region": "QC"
                  },
                  "name": "Poulet Syriana"
            },
            {
                  "distance": 401,
                  "location": {
                        "address": "740 Blvd de la cote-Vertu",
                        "country": "CA",
                        "formatted_address": "740 Blvd de la cote-Vertu, Saint-Laurent QC H4L 5C8",
                        "locality": "Saint-Laurent",
                        "postcode": "H4L 5C8",
                        "region": "QC"
                  },
                  "name": "Thanh Tien Nguyen"
            },
            {
                  "distance": 408,
                  "location": {
                        "address": "740 Blvd de la Cote-Vertu",
                        "country": "CA",
                        "formatted_address": "740 Blvd de la Cote-Vertu, Saint-Laurent QC",
                        "locality": "Saint-Laurent",
                        "region": "QC"
                  },
                  "name": "Cafe Bistro Arly Tera"
            },
            {
                  "distance": 429,
                  "location": {
                        "address": "751 Blvd de la C\u00f4te-Vertu",
                        "country": "CA",
                        "formatted_address": "751 Blvd de la C\u00f4te-Vertu, Saint-Laurent QC H4L 1Y6",
                        "locality": "Saint-Laurent",
                        "postcode": "H4L 1Y6",
                        "region": "QC"
                  },
                  "name": "Sailor's"
            },
            {
                  "distance": 449,
                  "location": {
                        "address": "740 Cote Vertu Blvd O",
                        "country": "CA",
                        "formatted_address": "740 Cote Vertu Blvd O, Saint-Laurent QC",
                        "locality": "Saint-Laurent",
                        "region": "QC"
                  },
                  "name": "Ph\u1edf Th\u00e0nh Nam Quang"
            },
            {
                  "distance": 514,
                  "location": {
                        "address": "825 Blvd de la Cote-Vertu",
                        "country": "CA",
                        "formatted_address": "825 Blvd de la Cote-Vertu, Saint-Laurent QC H4L 1Y6",
                        "locality": "Saint-Laurent",
                        "postcode": "H4L 1Y6",
                        "region": "QC"
                  },
                  "name": "Restaurant Siwar"
            },
            {
                  "distance": 556,
                  "location": {
                        "address": "720 Montpellier Blvd",
                        "country": "CA",
                        "formatted_address": "720 Montpellier Blvd, Saint-Laurent QC H4L 5B5",
                        "locality": "Saint-Laurent",
                        "postcode": "H4L 5B5",
                        "region": "QC"
                  },
                  "name": "Cuisine Syrienne"
            },
            {
                  "distance": 566,
                  "location": {
                        "address": "217 Blvd de la C\u00f4te-Vertu",
                        "country": "CA",
                        "formatted_address": "217 Blvd de la C\u00f4te-Vertu, Saint-Laurent QC H4N 1C8",
                        "locality": "Saint-Laurent",
                        "postcode": "H4N 1C8",
                        "region": "QC"
                  },
                  "name": "Sahtein Cuisine Authentique"
            },
            {
                  "distance": 929,
                  "location": {
                        "address": "9220 Pie Ix Blvd",
                        "country": "CA",
                        "formatted_address": "9220 Pie Ix Blvd, Montreal QC H1Z 4H7",
                        "locality": "Montreal",
                        "postcode": "H1Z 4H7",
                        "region": "QC"
                  },
                  "name": "Roma les Aliments Lt\u00e9e"
            },
            {
                  "distance": 931,
                  "location": {
                        "address": "250 Deslauriers Rue",
                        "country": "CA",
                        "formatted_address": "250 Deslauriers Rue, Saint-Laurent QC H4N 1V8",
                        "locality": "Saint-Laurent",
                        "postcode": "H4N 1V8",
                        "region": "QC"
                  },
                  "name": "LEA Aliments Papco Inc"
            },
            {
                  "distance": 999,
                  "location": {
                        "address": "500 Hodge Rue",
                        "country": "CA",
                        "formatted_address": "500 Hodge Rue, Saint-Laurent QC H4N 2A4",
                        "locality": "Saint-Laurent",
                        "postcode": "H4N 2A4",
                        "region": "QC"
                  },
                  "name": "Mad Science Montreal"
            }
      ],
      "context": {
            "geo_bounds": {
                  "circle": {
                        "center": {
                              "latitude": 45.52374047,
                              "longitude": -73.67169924
                        },
                        "radius": 1000
                  }
            }
      }
}