{
      "results": [
            {
                  "distance": 351,
                  "location": {
                        "address": "2110 Belanger Rue",
                        "country": "CA",
                        "cross_street": "",
                        "formatted_address": "2110 Belanger Rue, Montr\u00e9al QC H2G 1C2",
                        "locality": "Montreal",
                        "postcode": "H2G 1C2",
                        "region": "QC"
                  },
                  "name": "Paquebot",
                  "popularity": 0.9647520817562453,
                  "price": 1,
                  "rating": 9.2
            },
            {
                  "distance": 910,
                  "location": {
                        "address": "1309 Saint-Zotique Rue E",
                        "country": "CA",
                        "cross_street": "coin Chambord",
                        "formatted_address": "1309 Saint-Zotique Rue E (coin Chambord), Montr\u00e9al QC H2G 1G6",
                        "locality": "Montreal",
                        "postcode": "H2G 1G6",
                        "region": "QC"
                  },
                  "name": "Bar le Jockey",
                  "popularity": 0.9420538417865254,
                  "price": 2,
                  "rating": 8.2
            },
            {
                  "distance": 76,
                  "location": {
                        "address": "1950 Jean-Talon Rue E",
                        "country": "CA",
                        "cross_street": "Chabot",
                        "formatted_address": "1950 Jean-Talon Rue E (Chabot), Montr\u00e9al QC H2E 1T8",
                        "locality": "Montreal",
                        "postcode": "H2E 1T8",
                        "region": "QC"
                  },
                  "name": "Boulangerie & Charcuterie San Pietro",
                  "popularity": 0.953763720666162,
                  "price": 1,
                  "rating": 8.2
            },
            {
                  "distance": 845,
                  "location": {
                        "address": "1812 Tillemont Rue",
                        "country": "CA",
                        "cross_street": "Papineau",
                        "formatted_address": "1812 Tillemont Rue (Papineau), Montr\u00e9al QC H2E 1C5",
                        "locality": "Montreal",
                        "postcode": "H2E 1C5",
                        "region": "QC"
                  },
                  "name": "Boulangerie & P\u00e2tisserie Tillemont Inc",
                  "popularity": 0.9615466502649508,
                  "price": 1,
                  "rating": 7.3
            },
            {
                  "distance": 965,
                  "location": {
                        "address": "1991 Beaubien Rue E",
                        "country": "CA",
                        "cross_street": "Bordeaux",
                        "formatted_address": "1991 Beaubien Rue E (Bordeaux), Montr\u00e9al QC H2G 1M2",
                        "locality": "Montreal",
                        "postcode": "H2G 1M2",
                        "region": "QC"
                  },
                  "name": "Caf\u00e9 l'\u00c9tincelle",
                  "popularity": 0.9640660484481454,
                  "price": 1,
                  "rating": 6.9
            },
            {
                  "distance": 705,
                  "location": {
                        "address": "7690 Papineau Ave",
                        "country": "CA",
                        "formatted_address": "7690 Papineau Ave, Montreal QC H2E 2H2",
                        "locality": "Montreal",
                        "postcode": "H2E 2H2",
                        "region": "QC"
                  },
                  "name": "Restaurant Deli-Plus",
                  "popularity": 0.9771243376230129,
                  "price": 1,
                  "rating": 6.6
            },
            {
                  "distance": 216,
                  "location": {
                        "address": "1840 Jean Talon Rue E",
                        "country": "CA",
                        "cross_street": "Papineau",
                        "formatted_address": "1840 Jean Talon Rue E (Papineau), Montr\u00e9al QC H2E 1T5",
                        "locality": "Montreal",
                        "postcode": "H2E 1T5",
                        "region": "QC"
                  },
                  "name": "Dilallo Burger et Bar",
                  "popularity": 0.9578207797123391,
                  "price": 2
            },
            {
                  "distance": 352,
                  "location": {
                        "address": "1879 Belanger St",
                        "country": "CA",
                        "cross_street": "",
                        "formatted_address": "1879 Belanger St, Montr\u00e9al QC H2G 1B6",
                        "locality": "Montreal",
                        "postcode": "H2G 1B6",
                        "region": "QC"
                  },
                  "name": "Mastard",
                  "popularity": 0.9528647804693414,
                  "price": 2
            },
            {
                  "distance": 446,
                  "location": {
                        "country": "CA",
                        "cross_street": "",
                        "formatted_address": ""
                  },
                  "name": "Le Roi de Taco",
                  "popularity": 0.8624621498864496,
                  "price": 1
            },
            {
                  "distance": 539,
                  "location": {
                        "address": "2517 Jean-Talon Rue E",
                        "country": "CA",
                        "cross_street": "Iberville",
                        "formatted_address": "2517 Jean-Talon Rue E (Iberville), Montr\u00e9al QC H2A 1T6",
                        "locality": "Montreal",
                        "postcode": "H2A 1T6",
                        "region": "QC"
                  },
                  "name": "Casse-Cro\u00fbte Sissi & Paul",
                  "popularity": 0.9293030847842544,
                  "price": 2
            },
            {
                  "distance": 550,
                  "location": {
                        "address": "2524 Jean-Talon Rue E",
                        "country": "CA",
                        "cross_street": "D' Iberville",
                        "formatted_address": "2524 Jean-Talon Rue E (D' Iberville), Montr\u00e9al QC H2A 1T7",
                        "locality": "Montreal",
                        "postcode": "H2A 1T7",
                        "region": "QC"
                  },
                  "name": "Mexico Restaurant",
                  "popularity": 0.8773301476154428,
                  "price": 1
            },
            {
                  "distance": 622,
                  "location": {
                        "address": "2566 Jean Talon Rue E",
                        "country": "CA",
                        "cross_street": "",
                        "formatted_address": "2566 Jean Talon Rue E, Montr\u00e9al QC H2A 1T9",
                        "locality": "Montreal",
                        "postcode": "H2A 1T9",
                        "region": "QC"
                  },
                  "name": "Kokoriko",
                  "popularity": 0.6628737698713096,
                  "price": 2
            },
            {
                  "distance": 631,
                  "location": {
                        "address": "2548 Belanger Rue",
                        "country": "CA",
                        "cross_street": "Belanger",
                        "formatted_address": "2548 Belanger Rue (Belanger), Montr\u00e9al QC H1Y 1A1",
                        "locality": "Montreal",
                        "postcode": "H1Y 1A1",
                        "region": "QC"
                  },
                  "name": "Bar Excel",
                  "popularity": 0.9128974261922785,
                  "price": 3
            },
            {
                  "distance": 631,
                  "location": {
                        "address": "1667 Villeray Rue",
                        "country": "CA",
                        "cross_street": "coin Marquette",
                        "formatted_address": "1667 Villeray Rue (coin Marquette), Montr\u00e9al QC H2E 1H5",
                        "locality": "Montreal",
                        "postcode": "H2E 1H5",
                        "region": "QC"
                  },
                  "name": "Cafe Roma",
                  "popularity": 0.9140920704012112,
                  "price": 1
            },
            {
                  "distance": 660,
                  "location": {
                        "address": "1336 Jean-Talon Rue E",
                        "country": "CA",
                        "formatted_address": "1336 Jean-Talon Rue E, Montr\u00e9al QC H2E 1S1",
                        "locality": "Montreal",
                        "postcode": "H2E 1S1",
                        "region": "QC"
                  },
                  "name": "Cafe Terrasse Montebello Inc",
                  "popularity": 0.8784656510219531,
                  "price": 1
            },
            {
                  "distance": 661,
                  "location": {
                        "address": "1951 Beaubien Rue E",
                        "country": "CA",
                        "cross_street": "Chabot",
                        "formatted_address": "1951 Beaubien Rue E (Chabot), Montr\u00e9al QC H2G 1M2",
                        "locality": "Montreal",
                        "postcode": "H2G 1M2",
                        "region": "QC"
                  },
                  "name": "Du Pain et des Roses",
                  "popularity": 0.8573050719152158,
                  "price": 1
            },
            {
                  "distance": 743,
                  "location": {
                        "address": "1600 Villeray Rue",
                        "country": "CA",
                        "cross_street": "",
                        "formatted_address": "1600 Villeray Rue, Montr\u00e9al QC H2E 1H3",
                        "locality": "Montreal",
                        "postcode": "H2E 1H3",
                        "region": "QC"
                  },
                  "name": "Le Pro",
                  "popularity": 0.8249668811506434,
                  "price": 1
            },
            {
                  "distance": 792,
                  "location": {
                        "address": "1235 Jean Talon Rue E",
                        "country": "CA",
                        "cross_street": "",
                        "formatted_address": "1235 Jean Talon Rue E, Montr\u00e9al QC H2R 1W1",
                        "locality": "Montreal",
                        "postcode": "H2R 1W1",
                        "region": "QC"
                  },
                  "name": "Da Giuseppe e Pasquale",
                  "popularity": 0.25086345571536717,
                  "price": 2
            },
            {
                  "distance": 824,
                  "location": {
                        "address": "1251 Belanger Rue",
                        "country": "CA",
                        "cross_street": "Normanville",
                        "formatted_address": "1251 Belanger Rue (Normanville), Montr\u00e9al QC H2S 1J1",
                        "locality": "Montreal",
                        "postcode": "H2S 1J1",
                        "region": "QC"
                  },
                  "name": "Sushi Futago",
                  "popularity": 0.8934755866767601,
                  "price": 2
            },
            {
                  "distance": 838,
                  "location": {
                        "address": "2613 Jean Talon Rue E",
                        "country": "CA",
                        "cross_street": "",
                        "formatted_address": "2613 Jean Talon Rue E, Montr\u00e9al QC",
                        "locality": "Montreal",
                        "region": "QC"
                  },
                  "name": "Resto Cafe Tamaris",
                  "popularity": 0.09826835730507191,
                  "price": 2
            },
            {
                  "distance": 849,
                  "location": {
                        "address": "1240 Belanger Rue",
                        "country": "CA",
                        "cross_street": "",
                        "formatted_address": "1240 Belanger Rue, Montr\u00e9al QC H2S 1H8",
                        "locality": "Montreal",
                        "postcode": "H2S 1H8",
                        "region": "QC"
                  },
                  "name": "Caf\u00e9 N\u00e9lia",
                  "popularity": 0.023230507191521574,
                  "price": 1
            },
            {
                  "distance": 877,
                  "location": {
                        "address": "1370 Villeray Rue",
                        "country": "CA",
                        "cross_street": "",
                        "formatted_address": "1370 Villeray Rue, Montr\u00e9al QC H2E 1G6",
                        "locality": "Montreal",
                        "postcode": "H2E 1G6",
                        "region": "QC"
                  },
                  "name": "Tabac",
                  "popularity": 0.9707489591218774,
                  "price": 1
            },
            {
                  "distance": 933,
                  "location": {
                        "address": "1190 Belanger Rue",
                        "country": "CA",
                        "cross_street": "",
                        "formatted_address": "1190 Belanger Rue, Montr\u00e9al QC H2S 1H4",
                        "locality": "Montreal",
                        "postcode": "H2S 1H4",
                        "region": "QC"
                  },
                  "name": "Restaurant Larimar",
                  "popularity": 0.17660626419379258,
                  "price": 2
            },
            {
                  "distance": 940,
                  "location": {
                        "address": "1127 Belanger Rue",
                        "country": "CA",
                        "cross_street": "",
                        "formatted_address": "1127 Belanger Rue, Montr\u00e9al QC H2S 1H6",
                        "locality": "Montreal",
                        "postcode": "H2S 1H6",
                        "region": "QC"
                  },
                  "name": "Le Far Breton",
                  "popularity": 0.6438540878122634,
                  "price": 1
            },
            {
                  "distance": 976,
                  "location": {
                        "address": "1952 Beaubien Rue E",
                        "country": "CA",
                        "cross_street": "Chabot",
                        "formatted_address": "1952 Beaubien Rue E (Chabot), Montr\u00e9al QC H2G 1M1",
                        "locality": "Montreal",
                        "postcode": "H2G 1M1",
                        "region": "QC"
                  },
                  "name": "Cafe Colibri",
                  "popularity": 0.5001301097653293,
                  "price": 1
            },
            {
                  "distance": 996,
                  "location": {
                        "address": "2040 Beaubien Rue E",
                        "country": "CA",
                        "cross_street": "",
                        "formatted_address": "2040 Beaubien Rue E, Montr\u00e9al QC H2G 1M4",
                        "locality": "Montreal",
                        "postcode": "H2G 1M4",
                        "region": "QC"
                  },
                  "name": "Calaveras",
                  "popularity": 0.9169071725965178,
                  "price": 1
            },
            {
                  "distance": 250,
                  "location": {
                        "address": "7203 Papineau Ave",
                        "country": "CA",
                        "formatted_address": "7203 Papineau Ave, Montreal QC H2E 2G7",
                        "locality": "Montreal",
                        "postcode": "H2E 2G7",
                        "region": "QC"
                  },
                  "name": "El Chasqui Latino"
            },
            {
                  "distance": 390,
                  "location": {
                        "address": "1834 Belanger Rue",
                        "country": "CA",
                        "formatted_address": "1834 Belanger Rue, Montreal QC H2G 1B4",
                        "locality": "Montreal",
                        "postcode": "H2G 1B4",
                        "region": "QC"
                  },
                  "name": "Cafe Umberto"
            },
            {
                  "distance": 393,
                  "location": {
                        "address": "1828 Belanger Rue",
                        "country": "CA",
                        "formatted_address": "1828 Belanger Rue, Montreal QC H2G 1B4",
                        "locality": "Montreal",
                        "postcode": "H2G 1B4",
                        "region": "QC"
                  },
                  "name": "Restaurant Chez Flore"
            },
            {
                  "distance": 454,
                  "location": {
                        "address": "7481 Ave de Lorimier",
                        "country": "CA",
                        "formatted_address": "7481 Ave de Lorimier, Montreal QC H2E 2P4",
                        "locality": "Montreal",
                        "postcode": "H2E 2P4",
                        "region": "QC"
                  },
                  "name": "Restaurant Pizza & Pasta"
            },
            {
                  "distance": 473,
                  "location": {
                        "address": "2464 Jean-Talon Rue E",
                        "country": "CA",
                        "formatted_address": "2464 Jean-Talon Rue E, Montreal QC H2E 1W2",
                        "locality": "Montreal",
                        "postcode": "H2E 1W2",
                        "region": "QC"
                  },
                  "name": "Cafe Depot"
            },
            {
                  "distance": 606,
                  "location": {
                        "address": "2490 Belanger Rue",
                        "country": "CA",
                        "formatted_address": "2490 Belanger Rue, Montreal QC H2G 1E5",
                        "locality": "Montreal",
                        "postcode": "H2G 1E5",
                        "region": "QC"
                  },
                  "name": "Restaurant Grill Tasqueria la Sharade"
            },
            {
                  "distance": 685,
                  "location": {
                        "address": "2583 Jean-Talon Rue E",
                        "country": "CA",
                        "formatted_address": "2583 Jean-Talon Rue E, Montreal QC H2A 1V1",
                        "locality": "Montreal",
                        "postcode": "H2A 1V1",
                        "region": "QC"
                  },
                  "name": "Pamela Sue"
            },
            {
                  "distance": 709,
                  "location": {
                        "address": "2555 Belanger Rue",
                        "country": "CA",
                        "formatted_address": "2555 Belanger Rue, Montreal QC H1Y 1A3",
                        "locality": "Montreal",
                        "postcode": "H1Y 1A3",
                        "region": "QC"
                  },
                  "name": "Pura Felicita Caf\u00e9 Traiteur"
            },
            {
                  "distance": 807,
                  "location": {
                        "address": "1268 rue B\u00e9langer",
                        "country": "CA",
                        "formatted_address": "1268 rue B\u00e9langer, Montreal QC H2S 1H9",
                        "locality": "Montreal",
                        "postcode": "H2S 1H9",
                        "region": "QC"
                  },
                  "name": "Le Cake Studio"
            }
      ],
      "context": {
            "geo_bounds": {
                  "circle": {
                        "center": {
                              "latitude": 45.54975479,
                              "longitude": -73.60556602
                        },
                        "radius": 1000
                  }
            }
      }
}