{
      "results": [
            {
                  "distance": 832,
                  "location": {
                        "address": "4060 Ch de la Cote-De-Liesse",
                        "address_extended": "Vmr Lucerne",
                        "country": "CA",
                        "formatted_address": "4060 Ch de la Cote-De-Liesse, Mont-Royal QC H4N 2P7",
                        "locality": "Mont-Royal",
                        "postcode": "H4N 2P7",
                        "region": "QC"
                  },
                  "name": "Starbucks",
                  "popularity": 0.9924536336109009,
                  "price": 3,
                  "rating": 8.1,
                  "store_id": "10315-184764"
            },
            {
                  "distance": 881,
                  "location": {
                        "address": "953 Decarie Blvd",
                        "country": "CA",
                        "cross_street": "cote-vertu",
                        "formatted_address": "953 Decarie Blvd (cote-vertu), Montr\u00e9al QC H4L 3M3",
                        "locality": "Montreal",
                        "postcode": "H4L 3M3",
                        "region": "QC"
                  },
                  "name": "Decarie Hot Dog",
                  "popularity": 0.9809921461014383,
                  "price": 1,
                  "rating": 7.7
            },
            {
                  "distance": 981,
                  "location": {
                        "address": "1494 Blvd de la Cote-Vertu",
                        "country": "CA",
                        "cross_street": "",
                        "formatted_address": "1494 Blvd de la Cote-Vertu, Montr\u00e9al QC H4L 1Z8",
                        "locality": "Montreal",
                        "postcode": "H4L 1Z8",
                        "region": "QC"
                  },
                  "name": "A&W Restaurant",
                  "popularity": 0.9899815480696442,
                  "price": 1,
                  "rating": 7.5,
                  "store_id": "5555"
            },
            {
                  "distance": 356,
                  "location": {
                        "address": "735 Decarie Blvd",
                        "country": "CA",
                        "cross_street": "btwn Du College & Eglise",
                        "formatted_address": "735 Decarie Blvd (btwn Du College & Eglise), Montr\u00e9al QC H4L 3L3",
                        "locality": "Montreal",
                        "postcode": "H4L 3L3",
                        "region": "QC"
                  },
                  "name": "Restaurant Yi Pin Xiang",
                  "popularity": 0.29537282361847084,
                  "rating": 7.2
            },
            {
                  "distance": 932,
                  "location": {
                        "address": "3201 Graham Blvd",
                        "country": "CA",
                        "cross_street": "",
                        "formatted_address": "3201 Graham Blvd, Mont-Royal QC H3R 1K1",
                        "locality": "Mont-Royal",
                        "postcode": "H3R 1K1",
                        "region": "QC"
                  },
                  "name": "Villa Armando",
                  "popularity": 0.9368731074943225,
                  "price": 2,
                  "rating": 7.0
            },
            {
                  "distance": 992,
                  "location": {
                        "address": "993 Blvd D\u00e9carie",
                        "country": "CA",
                        "cross_street": "",
                        "formatted_address": "993 Blvd D\u00e9carie, Montr\u00e9al QC H4L 3M7",
                        "locality": "Montreal",
                        "postcode": "H4L 3M7",
                        "region": "QC"
                  },
                  "name": "Subway",
                  "popularity": 0.8939723694171082,
                  "price": 1,
                  "rating": 6.4,
                  "store_id": "15203"
            },
            {
                  "distance": 872,
                  "location": {
                        "address": "2330 Lucerne Ch",
                        "address_extended": "Centre D&Apos;Achats Vmr",
                        "country": "CA",
                        "cross_street": "",
                        "formatted_address": "2330 Lucerne Ch, Mont-Royal QC H3R 2J8",
                        "locality": "Mont-Royal",
                        "postcode": "H3R 2J8",
                        "region": "QC"
                  },
                  "name": "Subway",
                  "popularity": 0.8710139099167298,
                  "price": 1,
                  "rating": 6.4,
                  "store_id": "48942"
            },
            {
                  "distance": 987,
                  "location": {
                        "address": "1000 Decarie Blvd",
                        "country": "CA",
                        "cross_street": "",
                        "formatted_address": "1000 Decarie Blvd, Saint-Laurent QC H4L 3M5",
                        "locality": "Saint-Laurent",
                        "postcode": "H4L 3M5",
                        "region": "QC"
                  },
                  "name": "Pizza Pizza",
                  "popularity": 0.9467969341408025,
                  "price": 1,
                  "rating": 6.3,
                  "store_id": "308"
            },
            {
                  "distance": 544,
                  "location": {
                        "address": "1408 Rue de l'\u00c9glise",
                        "country": "CA",
                        "cross_street": "Saint Germain",
                        "formatted_address": "1408 Rue de l'\u00c9glise (Saint Germain), Saint-Laurent QC H4L 2H3",
                        "locality": "Saint-Laurent",
                        "postcode": "H4L 2H3",
                        "region": "QC"
                  },
                  "name": "Boccalini",
                  "popularity": 0.9165168433005298,
                  "price": 2,
                  "rating": 6.1
            },
            {
                  "distance": 607,
                  "location": {
                        "address": "400 Marcel-Laurin Blvd",
                        "country": "CA",
                        "cross_street": "Rue Saint-Louis",
                        "formatted_address": "400 Marcel-Laurin Blvd (Rue Saint-Louis), Saint-Laurent QC H4M 2L4",
                        "locality": "Saint-Laurent",
                        "postcode": "H4M 2L4",
                        "region": "QC"
                  },
                  "name": "Tim Hortons",
                  "popularity": 0.9977881339894019,
                  "price": 1,
                  "rating": 5.9
            },
            {
                  "distance": 263,
                  "location": {
                        "address": "625 Decarie Blvd",
                        "country": "CA",
                        "cross_street": "Lafontaine",
                        "formatted_address": "625 Decarie Blvd (Lafontaine), Montr\u00e9al QC H4L 3L2",
                        "locality": "Montreal",
                        "postcode": "H4L 3L2",
                        "region": "QC"
                  },
                  "name": "\u00d4 Th\u00e9 Tea Shop",
                  "popularity": 0.9048661052233157
            },
            {
                  "distance": 479,
                  "location": {
                        "address": "753 Decarie Blvd",
                        "country": "CA",
                        "cross_street": "",
                        "formatted_address": "753 Decarie Blvd, Montr\u00e9al QC H4L 3L3",
                        "locality": "Montreal",
                        "postcode": "H4L 3L3",
                        "region": "QC"
                  },
                  "name": "Caf\u00e9 le VSL",
                  "popularity": 0.7458838001514004,
                  "price": 1
            },
            {
                  "distance": 512,
                  "location": {
                        "address": "747 Decarie Blvd",
                        "country": "CA",
                        "cross_street": "",
                        "formatted_address": "747 Decarie Blvd, Montr\u00e9al QC H4L 3L3",
                        "locality": "Montreal",
                        "postcode": "H4L 3L3",
                        "region": "QC"
                  },
                  "name": "Mon Ami",
                  "popularity": 0.9755038796366389,
                  "price": 2
            },
            {
                  "distance": 542,
                  "location": {
                        "address": "1430 rue de l'\u00c9glise",
                        "country": "CA",
                        "cross_street": "",
                        "formatted_address": "1430 rue de l'\u00c9glise, Montr\u00e9al QC H4L 2H3",
                        "locality": "Montreal",
                        "postcode": "H4L 2H3",
                        "region": "QC"
                  },
                  "name": "Maison Samosa Express",
                  "popularity": 0.13836582134746403,
                  "price": 2
            },
            {
                  "distance": 557,
                  "location": {
                        "address": "1455 Rue de l'\u00c3\u2030glise",
                        "country": "CA",
                        "cross_street": "",
                        "formatted_address": "1455 Rue de l'\u00c3\u2030glise, Saint-Laurent QC H4L 2H5",
                        "locality": "Saint-Laurent",
                        "postcode": "H4L 2H5",
                        "region": "QC"
                  },
                  "name": "Domino's Pizza",
                  "popularity": 0.9375118281604845,
                  "price": 1
            },
            {
                  "distance": 710,
                  "location": {
                        "address": "886 Decarie Blvd",
                        "country": "CA",
                        "cross_street": "",
                        "formatted_address": "886 Decarie Blvd, Montr\u00e9al QC H4L 3L9",
                        "locality": "Montreal",
                        "postcode": "H4L 3L9",
                        "region": "QC"
                  },
                  "name": "Pho Moderne",
                  "popularity": 0.9669521196063589,
                  "price": 2
            },
            {
                  "distance": 891,
                  "location": {
                        "address": "2069 Saint Louis Rue",
                        "address_extended": "Ville saint laurent",
                        "country": "CA",
                        "cross_street": "",
                        "formatted_address": "2069 Saint Louis Rue, Montr\u00e9al QC H4M 1P1",
                        "locality": "Montreal",
                        "postcode": "H4M 1P1",
                        "region": "QC"
                  },
                  "name": "Mimimelon",
                  "popularity": 0.9860427706283119,
                  "price": 1
            },
            {
                  "distance": 892,
                  "location": {
                        "address": "959 Decarie Blvd",
                        "country": "CA",
                        "cross_street": "",
                        "formatted_address": "959 Decarie Blvd, Saint-Laurent QC H4L 3M3",
                        "locality": "Saint-Laurent",
                        "postcode": "H4L 3M3",
                        "region": "QC"
                  },
                  "name": "La Diperie",
                  "popularity": 0.9373462339137018,
                  "price": 1
            },
            {
                  "distance": 942,
                  "location": {
                        "address": "1001 Decarie Blvd",
                        "country": "CA",
                        "cross_street": "at boul. de la C\u00f4te-Vertu",
                        "formatted_address": "1001 Decarie Blvd (at boul. de la C\u00f4te-Vertu), Saint-Laurent QC H4L 3M6",
                        "locality": "Saint-Laurent",
                        "postcode": "H4L 3M6",
                        "region": "QC"
                  },
                  "name": "Restaurant Kam Do",
                  "popularity": 0.9516228236184708,
                  "price": 1
            },
            {
                  "distance": 973,
                  "location": {
                        "address": "996 Decarie Blvd",
                        "country": "CA",
                        "cross_street": "",
                        "formatted_address": "996 Decarie Blvd, Saint-Laurent QC H4L 3M5",
                        "locality": "Saint-Laurent",
                        "postcode": "H4L 3M5",
                        "region": "QC"
                  },
                  "name": "Caf\u00e9 Van Houtte",
                  "popularity": 0.9931751514004542,
                  "price": 1
            },
            {
                  "distance": 974,
                  "location": {
                        "address": "1470 Blvd de la Cote Vertu",
                        "country": "CA",
                        "cross_street": "Boul. de la C\u00f4te-Vertu",
                        "formatted_address": "1470 Blvd de la Cote Vertu (Boul. de la C\u00f4te-Vertu), Saint-Laurent QC H4L 1Z7",
                        "locality": "Saint-Laurent",
                        "postcode": "H4L 1Z7",
                        "region": "QC"
                  },
                  "name": "Caf\u00e9 Tea Tac Toe",
                  "popularity": 0.928285862982589,
                  "price": 1
            },
            {
                  "distance": 1362,
                  "location": {
                        "address": "1470 Blvd de la C\u00f4te-Vertu",
                        "country": "CA",
                        "cross_street": "",
                        "formatted_address": "1470 Blvd de la C\u00f4te-Vertu, Saint-Laurent QC H4L 1Z7",
                        "locality": "Saint-Laurent",
                        "postcode": "H4L 1Z7",
                        "region": "QC"
                  },
                  "name": "123 Caf\u00e9",
                  "popularity": 0.30211487509462526,
                  "price": 1
            },
            {
                  "distance": 4474,
                  "location": {
                        "address": "2069 Saint-Louis Rue",
                        "country": "CA",
                        "cross_street": "Gratton",
                        "formatted_address": "2069 Saint-Louis Rue (Gratton), Saint-Laurent QC H4M 1P1",
                        "locality": "Saint-Laurent",
                        "postcode": "H4M 1P1",
                        "region": "QC"
                  },
                  "name": "Euro Cach\u00e8re",
                  "popularity": 0.43964089704769116
            },
            {
                  "distance": 556,
                  "location": {
                        "address": "455 Marcel-Laurin Blvd",
                        "address_extended": "# 312",
                        "country": "CA",
                        "formatted_address": "455 Marcel-Laurin Blvd, Saint-Laurent QC H4M 2L8",
                        "locality": "Saint-Laurent",
                        "postcode": "H4M 2L8",
                        "region": "QC"
                  },
                  "name": "Delicious Dream"
            },
            {
                  "distance": 631,
                  "location": {
                        "address": "625 Sainte-Croix Ave",
                        "country": "CA",
                        "formatted_address": "625 Sainte-Croix Ave, Saint-Laurent QC H4L 3X7",
                        "locality": "Saint-Laurent",
                        "postcode": "H4L 3X7",
                        "region": "QC"
                  },
                  "name": "Buffet Larry"
            },
            {
                  "distance": 670,
                  "location": {
                        "address": "855 Decarie Blvd",
                        "country": "CA",
                        "formatted_address": "855 Decarie Blvd, Saint-Laurent QC H4L 3L7",
                        "locality": "Saint-Laurent",
                        "postcode": "H4L 3L7",
                        "region": "QC"
                  },
                  "name": "Brasserie Internet Inc"
            },
            {
                  "distance": 670,
                  "location": {
                        "address": "855 Decarie Blvd",
                        "country": "CA",
                        "formatted_address": "855 Decarie Blvd, Saint-Laurent QC H4L 3L7",
                        "locality": "Saint-Laurent",
                        "postcode": "H4L 3L7",
                        "region": "QC"
                  },
                  "name": "Rasa Resto Lounge & Reception"
            },
            {
                  "distance": 701,
                  "location": {
                        "address": "821 Sainte-Croix Ave",
                        "address_extended": "The N Building",
                        "country": "CA",
                        "formatted_address": "821 Sainte-Croix Ave, Saint-Laurent QC H4L 3X9",
                        "locality": "Saint-Laurent",
                        "postcode": "H4L 3X9",
                        "region": "QC"
                  },
                  "name": "Subway",
                  "store_id": "19723"
            },
            {
                  "distance": 960,
                  "location": {
                        "address": "3201 Graham Blvd",
                        "country": "CA",
                        "formatted_address": "3201 Graham Blvd, Mont-Royal QC H3R 1K1",
                        "locality": "Mont-Royal",
                        "postcode": "H3R 1K1",
                        "region": "QC"
                  },
                  "name": "La Dolce Vita TMR"
            },
            {
                  "distance": 972,
                  "location": {
                        "address": "2075 Saint-Louis Rue",
                        "country": "CA",
                        "formatted_address": "2075 Saint-Louis Rue, Saint-Laurent QC H4M 1P1",
                        "locality": "Saint-Laurent",
                        "postcode": "H4M 1P1",
                        "region": "QC"
                  },
                  "name": "Pizza Benny"
            }
      ],
      "context": {
            "geo_bounds": {
                  "circle": {
                        "center": {
                              "latitude": 45.50843905,
                              "longitude": -73.67296457
                        },
                        "radius": 1000
                  }
            }
      }
}