{
      "results": [
            {
                  "distance": 967,
                  "location": {
                        "address": "6128 Ave de Monkland",
                        "country": "CA",
                        "cross_street": "Beaconsfield",
                        "formatted_address": "6128 Ave de Monkland (Beaconsfield), Montr\u00e9al QC H4A 1H4",
                        "locality": "Montreal",
                        "postcode": "H4A 1H4",
                        "region": "QC"
                  },
                  "name": "Caf\u00e9 de' Mercanti",
                  "popularity": 0.9613573996971991,
                  "price": 1,
                  "rating": 9.1
            },
            {
                  "distance": 940,
                  "location": {
                        "address": "6151 Ave de Monkland",
                        "country": "CA",
                        "cross_street": "",
                        "formatted_address": "6151 Ave de Monkland, Montr\u00e9al QC H4B 1G3",
                        "locality": "Montreal",
                        "postcode": "H4B 1G3",
                        "region": "QC"
                  },
                  "name": "La Meunerie Urbaine",
                  "popularity": 0.9667155563966692,
                  "price": 1,
                  "rating": 7.8
            },
            {
                  "distance": 958,
                  "location": {
                        "address": "6127 Ave de Monkland",
                        "country": "CA",
                        "cross_street": "",
                        "formatted_address": "6127 Ave de Monkland, Montr\u00e9al QC H4A 1H5",
                        "locality": "Montreal",
                        "postcode": "H4A 1H5",
                        "region": "QC"
                  },
                  "name": "Bistro Amerigo",
                  "popularity": 0.9265944360333082,
                  "rating": 7.3
            },
            {
                  "distance": 387,
                  "location": {
                        "address": "6170 Ch de la C\u00f4te-Saint-Luc",
                        "country": "CA",
                        "cross_street": "Grand Blvd.",
                        "formatted_address": "6170 Ch de la C\u00f4te-Saint-Luc (Grand Blvd.), Montr\u00e9al QC H3X 2H1",
                        "locality": "Montreal",
                        "postcode": "H3X 2H1",
                        "region": "QC"
                  },
                  "name": "Baskin-Robbins",
                  "popularity": 0.9883492619227857,
                  "price": 1,
                  "rating": 7.2
            },
            {
                  "distance": 372,
                  "location": {
                        "address": "6290 Somerled Ave",
                        "country": "CA",
                        "cross_street": "",
                        "formatted_address": "6290 Somerled Ave, Montr\u00e9al QC H3X 2B6",
                        "locality": "Montreal",
                        "postcode": "H3X 2B6",
                        "region": "QC"
                  },
                  "name": "Mon Ami",
                  "popularity": 0.9605767411052233,
                  "price": 2,
                  "rating": 7.1
            },
            {
                  "distance": 425,
                  "location": {
                        "address": "6200 Somerled Ave",
                        "country": "CA",
                        "cross_street": "",
                        "formatted_address": "6200 Somerled Ave, Montr\u00e9al QC H3X 2B3",
                        "locality": "Montreal",
                        "postcode": "H3X 2B3",
                        "region": "QC"
                  },
                  "name": "Restaurant B & M",
                  "popularity": 0.9727479182437547,
                  "price": 3,
                  "rating": 7.0
            },
            {
                  "distance": 607,
                  "location": {
                        "address": "6500 Cote St-Luc",
                        "country": "CA",
                        "cross_street": "",
                        "formatted_address": "6500 Cote St-Luc, Montr\u00e9al QC H4V 1G2",
                        "locality": "Montreal",
                        "postcode": "H4V 1G2",
                        "region": "QC"
                  },
                  "name": "Tim Hortons",
                  "popularity": 0.8684117146101439,
                  "price": 1,
                  "rating": 6.4
            },
            {
                  "distance": 371,
                  "location": {
                        "address": "6295 Somerled Ave",
                        "country": "CA",
                        "cross_street": "",
                        "formatted_address": "6295 Somerled Ave, Montr\u00e9al QC H3X 2B7",
                        "locality": "Montreal",
                        "postcode": "H3X 2B7",
                        "region": "QC"
                  },
                  "name": "Subway",
                  "popularity": 0.9035531794095383,
                  "price": 1,
                  "rating": 6.3,
                  "store_id": "44889"
            },
            {
                  "distance": 375,
                  "location": {
                        "address": "6280 Somerled Ave",
                        "country": "CA",
                        "cross_street": "",
                        "formatted_address": "6280 Somerled Ave, Montr\u00e9al QC H3X 2B6",
                        "locality": "Montreal",
                        "postcode": "H3X 2B6",
                        "region": "QC"
                  },
                  "name": "Bar Sora",
                  "popularity": 0.8962552043906131,
                  "price": 2
            },
            {
                  "distance": 386,
                  "location": {
                        "address": "6254 Somerled Ave",
                        "country": "CA",
                        "cross_street": "",
                        "formatted_address": "6254 Somerled Ave, Montr\u00e9al QC H3X 2B6",
                        "locality": "Montreal",
                        "postcode": "H3X 2B6",
                        "region": "QC"
                  },
                  "name": "Billy Geez",
                  "popularity": 0.8221754352763059,
                  "price": 1
            },
            {
                  "distance": 404,
                  "location": {
                        "address": "6160 Ch de la C\u00f4te-Saint-Luc",
                        "country": "CA",
                        "cross_street": "",
                        "formatted_address": "6160 Ch de la C\u00f4te-Saint-Luc, Montr\u00e9al QC H3X 2H1",
                        "locality": "Montreal",
                        "postcode": "H3X 2H1",
                        "region": "QC"
                  },
                  "name": "Dizz's Bagel & Deli",
                  "popularity": 0.956342259651779,
                  "price": 1
            },
            {
                  "distance": 423,
                  "location": {
                        "address": "6216 Somerled Ave",
                        "country": "CA",
                        "cross_street": "Grand Boulevard",
                        "formatted_address": "6216 Somerled Ave (Grand Boulevard), Montr\u00e9al QC H3X 2B3",
                        "locality": "Montreal",
                        "postcode": "H3X 2B3",
                        "region": "QC"
                  },
                  "name": "La Maison des Cinqs",
                  "popularity": 0.3765494890234671,
                  "price": 1
            },
            {
                  "distance": 431,
                  "location": {
                        "address": "6142 C\u00f4te Saint Luc Rd",
                        "country": "CA",
                        "cross_street": "Hingston",
                        "formatted_address": "6142 C\u00f4te Saint Luc Rd (Hingston), Montreal QC H3X 2G9",
                        "locality": "Montreal",
                        "postcode": "H3X 2G9",
                        "region": "QC"
                  },
                  "name": "TCBY",
                  "popularity": 0.9794663133989402,
                  "price": 1,
                  "store_id": "152"
            },
            {
                  "distance": 452,
                  "location": {
                        "address": "6563 Somerled Ave",
                        "country": "CA",
                        "cross_street": "Cavendish",
                        "formatted_address": "6563 Somerled Ave (Cavendish), Montr\u00e9al QC H4V 1T1",
                        "locality": "Montreal",
                        "postcode": "H4V 1T1",
                        "region": "QC"
                  },
                  "name": "Le K'Bob",
                  "popularity": 0.7208908970476912,
                  "price": 2
            },
            {
                  "distance": 462,
                  "location": {
                        "address": "6521 Somerled Ave",
                        "country": "CA",
                        "cross_street": "",
                        "formatted_address": "6521 Somerled Ave, Montr\u00e9al QC H4V 1S7",
                        "locality": "Montreal",
                        "postcode": "H4V 1S7",
                        "region": "QC"
                  },
                  "name": "Mon Ami Korean BBQ",
                  "popularity": 0.9133587244511734,
                  "price": 2
            },
            {
                  "distance": 475,
                  "location": {
                        "address": "6521 Somerled Ave",
                        "country": "CA",
                        "cross_street": "",
                        "formatted_address": "6521 Somerled Ave, Montr\u00e9al QC H4V 1S7",
                        "locality": "Montreal",
                        "postcode": "H4V 1S7",
                        "region": "QC"
                  },
                  "name": "Hoho Korean Bbq",
                  "popularity": 0.969684424678274,
                  "price": 2
            },
            {
                  "distance": 481,
                  "location": {
                        "address": "6535 Somerled Ave",
                        "country": "CA",
                        "cross_street": "",
                        "formatted_address": "6535 Somerled Ave, Montr\u00e9al QC H4V 1S7",
                        "locality": "Montreal",
                        "postcode": "H4V 1S7",
                        "region": "QC"
                  },
                  "name": "Oregano's Grill",
                  "popularity": 0.07191521574564724,
                  "price": 2
            },
            {
                  "distance": 488,
                  "location": {
                        "address": "6543 Somerled Ave",
                        "country": "CA",
                        "cross_street": "",
                        "formatted_address": "6543 Somerled Ave, Montr\u00e9al QC H4V 1S7",
                        "locality": "Montreal",
                        "postcode": "H4V 1S7",
                        "region": "QC"
                  },
                  "name": "Patisserie Churro",
                  "popularity": 0.9092898372445117,
                  "price": 1
            },
            {
                  "distance": 490,
                  "location": {
                        "address": "6543A Somerled Ave",
                        "country": "CA",
                        "cross_street": "Cavendish",
                        "formatted_address": "6543A Somerled Ave (Cavendish), Montr\u00e9al QC H4V 1S7",
                        "locality": "Montreal",
                        "postcode": "H4V 1S7",
                        "region": "QC"
                  },
                  "name": "Le Caf\u00e9 Bomnal",
                  "popularity": 0.8393380961392884,
                  "price": 1
            },
            {
                  "distance": 494,
                  "location": {
                        "address": "6509 Somerled Ave",
                        "country": "CA",
                        "cross_street": "Cavendish",
                        "formatted_address": "6509 Somerled Ave (Cavendish), Montr\u00e9al QC H4V 1S7",
                        "locality": "Montreal",
                        "postcode": "H4V 1S7",
                        "region": "QC"
                  },
                  "name": "Velat Pizza",
                  "popularity": 0.9283923164269493,
                  "price": 1
            },
            {
                  "distance": 535,
                  "location": {
                        "address": "6563 Somerled Ave",
                        "country": "CA",
                        "cross_street": "",
                        "formatted_address": "6563 Somerled Ave, Montr\u00e9al QC H4V 1T1",
                        "locality": "Montreal",
                        "postcode": "H4V 1T1",
                        "region": "QC"
                  },
                  "name": "Olivia\u2019s Poulet Authentique",
                  "popularity": 0.9211061695685087,
                  "price": 1
            },
            {
                  "distance": 542,
                  "location": {
                        "address": "6573 Somerled Ave",
                        "country": "CA",
                        "cross_street": "",
                        "formatted_address": "6573 Somerled Ave, Montr\u00e9al QC H4V 1T1",
                        "locality": "Montreal",
                        "postcode": "H4V 1T1",
                        "region": "QC"
                  },
                  "name": "Sushi Hoshimi",
                  "popularity": 0.8775903671461014,
                  "price": 2
            },
            {
                  "distance": 574,
                  "location": {
                        "address": "6592 Somerled Ave",
                        "country": "CA",
                        "cross_street": "",
                        "formatted_address": "6592 Somerled Ave, Montr\u00e9al QC H4V 1S9",
                        "locality": "Montreal",
                        "postcode": "H4V 1S9",
                        "region": "QC"
                  },
                  "name": "Ai Dumpling",
                  "popularity": 0.9825889477668432,
                  "price": 1
            },
            {
                  "distance": 988,
                  "location": {
                        "address": "6112 Ave de Monkland",
                        "country": "CA",
                        "cross_street": "",
                        "formatted_address": "6112 Ave de Monkland, Montr\u00e9al QC H4A 1H4",
                        "locality": "Montreal",
                        "postcode": "H4A 1H4",
                        "region": "QC"
                  },
                  "name": "Gyro Boutique",
                  "popularity": 0.099179125662377,
                  "price": 2
            },
            {
                  "distance": 372,
                  "location": {
                        "address": "5077 Cumberland Ave",
                        "country": "CA",
                        "formatted_address": "5077 Cumberland Ave, Montreal QC H4V 2N5",
                        "locality": "Montreal",
                        "postcode": "H4V 2N5",
                        "region": "QC"
                  },
                  "name": "Bake It Easy"
            },
            {
                  "distance": 405,
                  "location": {
                        "address": "4775 Borden Ave",
                        "country": "CA",
                        "formatted_address": "4775 Borden Ave, Montreal QC H4B 2P4",
                        "locality": "Montreal",
                        "postcode": "H4B 2P4",
                        "region": "QC"
                  },
                  "name": "Placements Sergakis Inc"
            },
            {
                  "distance": 424,
                  "location": {
                        "address": "6447 Somerled Ave",
                        "country": "CA",
                        "formatted_address": "6447 Somerled Ave, Montreal QC H4V 1S4",
                        "locality": "Montreal",
                        "postcode": "H4V 1S4",
                        "region": "QC"
                  },
                  "name": "Monkland Grill"
            },
            {
                  "distance": 439,
                  "location": {
                        "address": "6114 Cote-St-Luc Rd",
                        "country": "CA",
                        "formatted_address": "6114 Cote-St-Luc Rd, Montreal QC H3X 2G9",
                        "locality": "Montreal",
                        "postcode": "H3X 2G9",
                        "region": "QC"
                  },
                  "name": "Paris Montreal"
            },
            {
                  "distance": 444,
                  "location": {
                        "address": "6450 Somerled Ave",
                        "country": "CA",
                        "formatted_address": "6450 Somerled Ave, Montreal QC H4V 1S5",
                        "locality": "Montreal",
                        "postcode": "H4V 1S5",
                        "region": "QC"
                  },
                  "name": "Restaurant Annabys"
            },
            {
                  "distance": 452,
                  "location": {
                        "address": "5022 Ave de Hampton",
                        "country": "CA",
                        "formatted_address": "5022 Ave de Hampton, Montreal QC H3X 3P7",
                        "locality": "Montreal",
                        "postcode": "H3X 3P7",
                        "region": "QC"
                  },
                  "name": "Ayahe Japanese Restaurant"
            },
            {
                  "distance": 479,
                  "location": {
                        "address": "6521 Somerled Ave",
                        "country": "CA",
                        "formatted_address": "6521 Somerled Ave, Montreal QC H4V 1S7",
                        "locality": "Montreal",
                        "postcode": "H4V 1S7",
                        "region": "QC"
                  },
                  "name": "Restaurant le Jardine de Chine"
            },
            {
                  "distance": 496,
                  "location": {
                        "address": "6070 Ch de la Cote-Saint-Luc",
                        "country": "CA",
                        "formatted_address": "6070 Ch de la Cote-Saint-Luc, Montreal QC H3X 2G8",
                        "locality": "Montreal",
                        "postcode": "H3X 2G8",
                        "region": "QC"
                  },
                  "name": "Restaurant Mamma Mia Pizzeria"
            },
            {
                  "distance": 508,
                  "location": {
                        "address": "6404 ch de la cote-Saint-Luc",
                        "country": "CA",
                        "formatted_address": "6404 ch de la cote-Saint-Luc, Montreal QC H4V 1E9",
                        "locality": "Montreal",
                        "postcode": "H4V 1E9",
                        "region": "QC"
                  },
                  "name": "Salon l'Exception"
            },
            {
                  "distance": 515,
                  "location": {
                        "address": "6530 Somerled Ave",
                        "country": "CA",
                        "formatted_address": "6530 Somerled Ave, Montreal QC H4V 1S8",
                        "locality": "Montreal",
                        "postcode": "H4V 1S8",
                        "region": "QC"
                  },
                  "name": "Freakin'"
            },
            {
                  "distance": 518,
                  "location": {
                        "address": "6555 Somerled Ave",
                        "country": "CA",
                        "formatted_address": "6555 Somerled Ave, Montreal QC H4V 1T1",
                        "locality": "Montreal",
                        "postcode": "H4V 1T1",
                        "region": "QC"
                  },
                  "name": "Atlas Pizza"
            }
      ],
      "context": {
            "geo_bounds": {
                  "circle": {
                        "center": {
                              "latitude": 45.47188199,
                              "longitude": -73.64002168
                        },
                        "radius": 1000
                  }
            }
      }
}