{
      "results": [
            {
                  "distance": 674,
                  "location": {
                        "address": "5033 Sherbrooke Rue O",
                        "country": "CA",
                        "cross_street": "Grey Street",
                        "formatted_address": "5033 Sherbrooke Rue O (Grey Street), Montr\u00e9al QC H4A 1S8",
                        "locality": "Montreal",
                        "postcode": "H4A 1S8",
                        "region": "QC"
                  },
                  "name": "Mandy's",
                  "popularity": 0.9639477668433005,
                  "price": 1,
                  "rating": 8.7
            },
            {
                  "distance": 872,
                  "location": {
                        "address": "5175A Sherbrooke Rue O",
                        "country": "CA",
                        "formatted_address": "5175A Sherbrooke Rue O, Montr\u00e9al QC H4A 1T5",
                        "locality": "Montreal",
                        "postcode": "H4A 1T5",
                        "region": "QC"
                  },
                  "name": "Nextdoor Pub & Grill",
                  "popularity": 0.9476840461771385,
                  "price": 1,
                  "rating": 8.4
            },
            {
                  "distance": 950,
                  "location": {
                        "address": "5227 Sherbrooke Rue O",
                        "country": "CA",
                        "cross_street": "Northcliffe",
                        "formatted_address": "5227 Sherbrooke Rue O (Northcliffe), Montr\u00e9al QC H4A 1T7",
                        "locality": "Montreal",
                        "postcode": "H4A 1T7",
                        "region": "QC"
                  },
                  "name": "Soba et Sushi Bar",
                  "popularity": 0.9569691521574565,
                  "price": 2,
                  "rating": 8.1
            },
            {
                  "distance": 349,
                  "location": {
                        "address": "378 Victoria Ave",
                        "country": "CA",
                        "formatted_address": "378 Victoria Ave, Westmount QC H3Z 2N4",
                        "locality": "Westmount",
                        "postcode": "H3Z 2N4",
                        "region": "QC"
                  },
                  "name": "Park Restaurant",
                  "popularity": 0.9417234965902046,
                  "price": 2,
                  "rating": 8.1
            },
            {
                  "distance": 938,
                  "location": {
                        "address": "5221 Blvd de Maisonneuve Ouest",
                        "country": "CA",
                        "cross_street": "Northcliffe",
                        "formatted_address": "5221 Blvd de Maisonneuve Ouest (Northcliffe), Montr\u00e9al QC H4A 0A4",
                        "locality": "Montreal",
                        "postcode": "H4A 0A4",
                        "region": "QC"
                  },
                  "name": "Pick Thai",
                  "popularity": 0.9863266464799394,
                  "price": 2,
                  "rating": 7.6
            },
            {
                  "distance": 575,
                  "location": {
                        "address": "4943 Sherbrooke St W",
                        "country": "CA",
                        "formatted_address": "4943 Sherbrooke St W, Montr\u00e9al QC H2Z 1H2",
                        "locality": "Montreal",
                        "postcode": "H2Z 1H2",
                        "region": "QC"
                  },
                  "name": "Starbucks",
                  "popularity": 0.972101673899566,
                  "price": 1,
                  "rating": 7.4,
                  "store_id": "831"
            },
            {
                  "distance": 795,
                  "location": {
                        "address": "5127 Sherbrooke Rue O",
                        "country": "CA",
                        "cross_street": "",
                        "formatted_address": "5127 Sherbrooke Rue O, Montr\u00e9al QC H4A 1T3",
                        "locality": "Montreal",
                        "postcode": "H4A 1T3",
                        "region": "QC"
                  },
                  "name": "The Standard",
                  "popularity": 0.9194620552611658,
                  "price": 1,
                  "rating": 7.4
            },
            {
                  "distance": 644,
                  "location": {
                        "address": "4435 Sainte-Catherine Rue O",
                        "country": "CA",
                        "cross_street": "",
                        "formatted_address": "4435 Sainte-Catherine Rue O, Westmount QC H3Z 1R5",
                        "locality": "Westmount",
                        "postcode": "H3Z 1R5",
                        "region": "QC"
                  },
                  "name": "Nagoya Sushi",
                  "popularity": 0.9423434593924365,
                  "price": 2,
                  "rating": 6.7
            },
            {
                  "distance": 980,
                  "location": {
                        "address": "5259 Sherbrooke Rue O",
                        "country": "CA",
                        "cross_street": "",
                        "formatted_address": "5259 Sherbrooke Rue O, Montr\u00e9al QC H4A 1V1",
                        "locality": "Montreal",
                        "postcode": "H4A 1V1",
                        "region": "QC"
                  },
                  "name": "Thai Express",
                  "popularity": 0.9259675435276306,
                  "price": 2,
                  "rating": 6.6,
                  "store_id": "1939"
            },
            {
                  "distance": 344,
                  "location": {
                        "address": "357 Victoria Ave",
                        "country": "CA",
                        "cross_street": "Sommerville",
                        "formatted_address": "357 Victoria Ave (Sommerville), Westmount QC H3Z 2N1",
                        "locality": "Westmount",
                        "postcode": "H3Z 2N1",
                        "region": "QC"
                  },
                  "name": "Importations Cafe Creme",
                  "popularity": 0.8642281463112214,
                  "price": 1,
                  "rating": 6.0
            },
            {
                  "distance": 818,
                  "location": {
                        "address": "5181 Blvd de Maisonneuve Ouest",
                        "country": "CA",
                        "cross_street": "Station Vend\u00f4me",
                        "formatted_address": "5181 Blvd de Maisonneuve Ouest (Station Vend\u00f4me), Montr\u00e9al QC H4A 1Z3",
                        "locality": "Montreal",
                        "postcode": "H4A 1Z3",
                        "region": "QC"
                  },
                  "name": "Restaurant Copoli",
                  "popularity": 0.5637892694928085,
                  "price": 1,
                  "rating": 5.9
            },
            {
                  "distance": 726,
                  "location": {
                        "address": "5065 Blvd de Maisonneuve Ouest",
                        "country": "CA",
                        "formatted_address": "5065 Blvd de Maisonneuve Ouest, Montr\u00e9al QC H4A 1Y9",
                        "locality": "Montreal",
                        "postcode": "H4A 1Y9",
                        "region": "QC"
                  },
                  "name": "Teheran Restaurant",
                  "popularity": 0.9074328160484482,
                  "price": 2,
                  "rating": 5.4
            },
            {
                  "distance": 628,
                  "location": {
                        "address": "5011 Sherbrooke Rue O",
                        "country": "CA",
                        "formatted_address": "5011 Sherbrooke Rue O, Westmount QC H3Z 1H5",
                        "locality": "Westmount",
                        "postcode": "H3Z 1H5",
                        "region": "QC"
                  },
                  "name": "McDonald's",
                  "popularity": 0.9869807811531308,
                  "price": 1,
                  "rating": 5.0,
                  "store_id": "40002"
            },
            {
                  "distance": 351,
                  "location": {
                        "address": "4675 Sainte-Catherine Rue O",
                        "country": "CA",
                        "cross_street": "",
                        "formatted_address": "4675 Sainte-Catherine Rue O, Westmount QC H3Z 1S4",
                        "locality": "Westmount",
                        "postcode": "H3Z 1S4",
                        "region": "QC"
                  },
                  "name": "Mouton Noir Traiteur & Cafe",
                  "popularity": 0.9404835709857409,
                  "price": 1
            },
            {
                  "distance": 351,
                  "location": {
                        "address": "347 Victoria Ave",
                        "country": "CA",
                        "cross_street": "Somerville",
                        "formatted_address": "347 Victoria Ave (Somerville), Westmount QC H3Z 2N1",
                        "locality": "Westmount",
                        "postcode": "H3Z 2N1",
                        "region": "QC"
                  },
                  "name": "Caf\u00e9 Myriade",
                  "popularity": 0.9485430874147551,
                  "price": 1
            },
            {
                  "distance": 357,
                  "location": {
                        "address": "364 Victoria Ave",
                        "country": "CA",
                        "cross_street": "",
                        "formatted_address": "364 Victoria Ave, Westmount QC H3Z 2N4",
                        "locality": "Westmount",
                        "postcode": "H3Z 2N4",
                        "region": "QC"
                  },
                  "name": "Pizzeria No. 900",
                  "popularity": 0.7513949163050218,
                  "price": 1
            },
            {
                  "distance": 365,
                  "location": {
                        "address": "380 Victoria Ave",
                        "country": "CA",
                        "cross_street": "",
                        "formatted_address": "380 Victoria Ave, Westmount QC H3Z 2N4",
                        "locality": "Westmount",
                        "postcode": "H3Z 2N4",
                        "region": "QC"
                  },
                  "name": "Caf\u00e9 Bazin",
                  "popularity": 0.8871667699938004
            },
            {
                  "distance": 377,
                  "location": {
                        "address": "374 Victoria Ave",
                        "country": "CA",
                        "cross_street": "",
                        "formatted_address": "374 Victoria Ave, Westmount QC H3Z 2N4",
                        "locality": "Westmount",
                        "postcode": "H3Z 2N4",
                        "region": "QC"
                  },
                  "name": "Bistro la Franquette",
                  "popularity": 0.4066955982641042
            },
            {
                  "distance": 395,
                  "location": {
                        "address": "11674 Salaberry",
                        "country": "CA",
                        "cross_street": "",
                        "formatted_address": "11674 Salaberry, Pierrefonds QC H9H 2R8",
                        "locality": "Pierrefonds",
                        "postcode": "H9H 2R8",
                        "region": "QC"
                  },
                  "name": "Pizz' Aroma",
                  "popularity": 0.3087414755114693,
                  "price": 1
            },
            {
                  "distance": 407,
                  "location": {
                        "address": "318 Victoria Ave",
                        "country": "CA",
                        "cross_street": "Victoria Ave",
                        "formatted_address": "318 Victoria Ave (Victoria Ave), Westmount QC H3Z 2M8",
                        "locality": "Westmount",
                        "postcode": "H3Z 2M8",
                        "region": "QC"
                  },
                  "name": "Leonidas Chocolate Culture",
                  "popularity": 0.87042777433354,
                  "price": 1
            },
            {
                  "distance": 416,
                  "location": {
                        "address": "4865 Sherbrooke Rue O",
                        "country": "CA",
                        "cross_street": "",
                        "formatted_address": "4865 Sherbrooke Rue O, Westmount QC H3Z 1G9",
                        "locality": "Westmount",
                        "postcode": "H3Z 1G9",
                        "region": "QC"
                  },
                  "name": "C\u00f4t\u00e9 cuisine",
                  "popularity": 0.6683199008059516,
                  "price": 3
            },
            {
                  "distance": 444,
                  "location": {
                        "address": "351 Prince Albert Ave",
                        "country": "CA",
                        "cross_street": "",
                        "formatted_address": "351 Prince Albert Ave, Westmount QC H3Z 2N9",
                        "locality": "Westmount",
                        "postcode": "H3Z 2N9",
                        "region": "QC"
                  },
                  "name": "Toucheh",
                  "popularity": 0.9355238685678859,
                  "price": 2
            },
            {
                  "distance": 447,
                  "location": {
                        "address": "4896 Sherbrooke Rue O",
                        "country": "CA",
                        "cross_street": "",
                        "formatted_address": "4896 Sherbrooke Rue O, Westmount QC H3Z 1H1",
                        "locality": "Westmount",
                        "postcode": "H3Z 1H1",
                        "region": "QC"
                  },
                  "name": "Aux Vivres Westmount",
                  "popularity": 0.9392436453812771,
                  "price": 2
            },
            {
                  "distance": 498,
                  "location": {
                        "address": "4922 Sherbrooke Rue O",
                        "country": "CA",
                        "cross_street": "",
                        "formatted_address": "4922 Sherbrooke Rue O, Westmount QC H3Z 1H3",
                        "locality": "Westmount",
                        "postcode": "H3Z 1H3",
                        "region": "QC"
                  },
                  "name": "La Sobremesa",
                  "popularity": 0.8735275883446993,
                  "price": 2
            },
            {
                  "distance": 625,
                  "location": {
                        "address": "4419 Sainte-Catherine Rue O",
                        "country": "CA",
                        "cross_street": "Kensington",
                        "formatted_address": "4419 Sainte-Catherine Rue O (Kensington), Westmount QC H3Z 1R5",
                        "locality": "Westmount",
                        "postcode": "H3Z 1R5",
                        "region": "QC"
                  },
                  "name": "Copparoma Cafe",
                  "popularity": 0.8667079975201488,
                  "price": 1
            },
            {
                  "distance": 638,
                  "location": {
                        "address": "5003 Sherbrooke Rue O",
                        "country": "CA",
                        "cross_street": "",
                        "formatted_address": "5003 Sherbrooke Rue O, Westmount QC H3Z 1H5",
                        "locality": "Westmount",
                        "postcode": "H3Z 1H5",
                        "region": "QC"
                  },
                  "name": "Copper Branch",
                  "popularity": 0.8146311221326721,
                  "price": 2
            },
            {
                  "distance": 702,
                  "location": {
                        "address": "1025 Lenoir Rue",
                        "country": "CA",
                        "cross_street": "",
                        "formatted_address": "1025 Lenoir Rue, Montr\u00e9al QC H4C 2Z6",
                        "locality": "Montreal",
                        "postcode": "H4C 2Z6",
                        "region": "QC"
                  },
                  "name": "Gia vin & grill",
                  "popularity": 0.9663961960635882,
                  "price": 2
            },
            {
                  "distance": 727,
                  "location": {
                        "address": "5100 Sherbrooke Rue O",
                        "country": "CA",
                        "cross_street": "",
                        "formatted_address": "5100 Sherbrooke Rue O, Montr\u00e9al QC H4A 1T1",
                        "locality": "Montreal",
                        "postcode": "H4A 1T1",
                        "region": "QC"
                  },
                  "name": "MeiWei Dumplings Restaurant",
                  "popularity": 0.8265755109765329,
                  "price": 1
            },
            {
                  "distance": 770,
                  "location": {
                        "address": "5128 Sherbrooke Rue O",
                        "country": "CA",
                        "cross_street": "",
                        "formatted_address": "5128 Sherbrooke Rue O, Montr\u00e9al QC",
                        "locality": "Montreal",
                        "region": "QC"
                  },
                  "name": "Rejuice Nutrition",
                  "popularity": 0.8773774602573807,
                  "price": 1
            },
            {
                  "distance": 898,
                  "location": {
                        "address": "4843 Sherbrooke Rue W",
                        "country": "CA",
                        "cross_street": "",
                        "formatted_address": "4843 Sherbrooke Rue W, Westmount QC H3Z 1G6",
                        "locality": "Westmount",
                        "postcode": "H3Z 1G6",
                        "region": "QC"
                  },
                  "name": "Depanneur",
                  "popularity": 0.48824280847842544,
                  "price": 1
            },
            {
                  "distance": 934,
                  "location": {
                        "address": "5223 Sherbrooke Rue O",
                        "country": "CA",
                        "cross_street": "",
                        "formatted_address": "5223 Sherbrooke Rue O, Montr\u00e9al QC H4A 1T7",
                        "locality": "Montreal",
                        "postcode": "H4A 1T7",
                        "region": "QC"
                  },
                  "name": "Labothery",
                  "popularity": 0.8519114307342922
            },
            {
                  "distance": 982,
                  "location": {
                        "address": "1386 Greene Ave",
                        "country": "CA",
                        "cross_street": "Sherbrooke",
                        "formatted_address": "1386 Greene Ave (Sherbrooke), Westmount QC H3Z 2B1",
                        "locality": "Westmount",
                        "postcode": "H3Z 2B1",
                        "region": "QC"
                  },
                  "name": "Avenue G",
                  "popularity": 0.9057656540607564,
                  "price": 1
            },
            {
                  "distance": 243,
                  "location": {
                        "address": "4785 Sherbrooke Rue O",
                        "country": "CA",
                        "formatted_address": "4785 Sherbrooke Rue O, Westmount QC H3Z 1G5",
                        "locality": "Westmount",
                        "postcode": "H3Z 1G5",
                        "region": "QC"
                  },
                  "name": "Pizza Restaurant"
            },
            {
                  "distance": 364,
                  "location": {
                        "address": "392 Victoria Ave",
                        "country": "CA",
                        "formatted_address": "392 Victoria Ave, Westmount QC H3Z 2N4",
                        "locality": "Westmount",
                        "postcode": "H3Z 2N4",
                        "region": "QC"
                  },
                  "name": "Spirulina"
            },
            {
                  "distance": 383,
                  "location": {
                        "address": "4024 Sainte Catherine Rue O",
                        "country": "CA",
                        "formatted_address": "4024 Sainte Catherine Rue O, Westmount QC H3Z 1P2",
                        "locality": "Westmount",
                        "postcode": "H3Z 1P2",
                        "region": "QC"
                  },
                  "name": "Tutti Frutti D\u00e9jeuner Westmount"
            }
      ],
      "context": {
            "geo_bounds": {
                  "circle": {
                        "center": {
                              "latitude": 45.48129147,
                              "longitude": -73.60033035
                        },
                        "radius": 1000
                  }
            }
      }
}