{
      "results": [
            {
                  "distance": 860,
                  "location": {
                        "address": "1911 Keller Blvd",
                        "country": "CA",
                        "cross_street": "",
                        "formatted_address": "1911 Keller Blvd, Montr\u00e9al QC H4K 2V6",
                        "locality": "Montreal",
                        "postcode": "H4K 2V6",
                        "region": "QC"
                  },
                  "name": "Restaurant Kuljit India",
                  "popularity": 0.9449517411052233,
                  "price": 2,
                  "rating": 8.5
            },
            {
                  "distance": 352,
                  "location": {
                        "address": "5501 Gouin Blvd O",
                        "country": "CA",
                        "cross_street": "at Fr\u00e9chette",
                        "formatted_address": "5501 Gouin Blvd O (at Fr\u00e9chette), Montr\u00e9al QC H4J 1C8",
                        "locality": "Montreal",
                        "postcode": "H4J 1C8",
                        "region": "QC"
                  },
                  "name": "Restaurante Paulo & Suzanne",
                  "popularity": 0.9927729939439819,
                  "price": 1,
                  "rating": 7.5
            },
            {
                  "distance": 557,
                  "location": {
                        "address": "5771 Gouin Blvd O",
                        "country": "CA",
                        "cross_street": "coin Genet",
                        "formatted_address": "5771 Gouin Blvd O (coin Genet), Montr\u00e9al QC H4J 1E3",
                        "locality": "Montreal",
                        "postcode": "H4J 1E3",
                        "region": "QC"
                  },
                  "name": "Fourchette Antillaise",
                  "popularity": 0.11221375851627555,
                  "price": 2,
                  "rating": 7.5
            },
            {
                  "distance": 651,
                  "location": {
                        "address": "11990 Lachapelle St",
                        "country": "CA",
                        "cross_street": "",
                        "formatted_address": "11990 Lachapelle St, Montr\u00e9al QC H4J 2M3",
                        "locality": "Montreal",
                        "postcode": "H4J 2M3",
                        "region": "QC"
                  },
                  "name": "Dairy Queen",
                  "popularity": 0.9874384935654807,
                  "price": 1,
                  "rating": 7.0
            },
            {
                  "distance": 479,
                  "location": {
                        "address": "5780 Gouin Blvd O",
                        "country": "CA",
                        "cross_street": "",
                        "formatted_address": "5780 Gouin Blvd O, Montr\u00e9al QC H4J 1E1",
                        "locality": "Montreal",
                        "postcode": "H4J 1E1",
                        "region": "QC"
                  },
                  "name": "Tim Hortons",
                  "popularity": 0.9970429598788796,
                  "price": 1,
                  "rating": 6.8
            },
            {
                  "distance": 705,
                  "location": {
                        "address": "12208 Laurentien Blvd",
                        "country": "CA",
                        "cross_street": "",
                        "formatted_address": "12208 Laurentien Blvd, Montr\u00e9al QC H4K 1M9",
                        "locality": "Montreal",
                        "postcode": "H4K 1M9",
                        "region": "QC"
                  },
                  "name": "Nuit de Beyrouth",
                  "popularity": 0.9128855980317941,
                  "price": 2,
                  "rating": 6.8
            },
            {
                  "distance": 726,
                  "location": {
                        "address": "12242 Laurentien Blvd",
                        "country": "CA",
                        "cross_street": "at Gouin",
                        "formatted_address": "12242 Laurentien Blvd (at Gouin), Montr\u00e9al QC H4K 1M9",
                        "locality": "Montreal",
                        "postcode": "H4K 1M9",
                        "region": "QC"
                  },
                  "name": "Restaurant Tong Por St-Laurent",
                  "popularity": 0.991992335352006,
                  "price": 2,
                  "rating": 6.6
            },
            {
                  "distance": 862,
                  "location": {
                        "address": "11880 Laurentien Blvd",
                        "country": "CA",
                        "cross_street": "Keller",
                        "formatted_address": "11880 Laurentien Blvd (Keller), Saint-Laurent QC H4K 2G1",
                        "locality": "Saint-Laurent",
                        "postcode": "H4K 2G1",
                        "region": "QC"
                  },
                  "name": "Tim Hortons",
                  "popularity": 0.9968418811506434,
                  "price": 1,
                  "rating": 6.5
            },
            {
                  "distance": 669,
                  "location": {
                        "address": "11960 Lachapelle St",
                        "country": "CA",
                        "cross_street": "",
                        "formatted_address": "11960 Lachapelle St, Montr\u00e9al QC H4J 2M3",
                        "locality": "Montreal",
                        "postcode": "H4J 2M3",
                        "region": "QC"
                  },
                  "name": "Subway",
                  "popularity": 0.8828775548826646,
                  "price": 1,
                  "rating": 6.4,
                  "store_id": "30574"
            },
            {
                  "distance": 339,
                  "location": {
                        "address": "5393 Gouin Blvd O",
                        "country": "CA",
                        "cross_street": "Fr\u00e9chette",
                        "formatted_address": "5393 Gouin Blvd O (Fr\u00e9chette), Montr\u00e9al QC H4J 1C7",
                        "locality": "Montreal",
                        "postcode": "H4J 1C7",
                        "region": "QC"
                  },
                  "name": "Poulet et Salade Restaurant",
                  "popularity": 0.7909490915972748
            },
            {
                  "distance": 361,
                  "location": {
                        "address": "5595 Gouin Blvd O",
                        "country": "CA",
                        "cross_street": "Avenue de la Mis\u00e9ricorde",
                        "formatted_address": "5595 Gouin Blvd O (Avenue de la Mis\u00e9ricorde), Montr\u00e9al QC H4J 1C8",
                        "locality": "Montreal",
                        "postcode": "H4J 1C8",
                        "region": "QC"
                  },
                  "name": "Moka Plus",
                  "popularity": 0.2548613739591219,
                  "price": 1
            },
            {
                  "distance": 452,
                  "location": {
                        "address": "5751 Gouin Blvd O",
                        "country": "CA",
                        "cross_street": "",
                        "formatted_address": "5751 Gouin Blvd O, Montr\u00e9al QC H4J 1E2",
                        "locality": "Montreal",
                        "postcode": "H4J 1E2",
                        "region": "QC"
                  },
                  "name": "Zenbu Sushi",
                  "popularity": 0.8745978425435277,
                  "price": 2
            },
            {
                  "distance": 589,
                  "location": {
                        "address": "5745 Gouin Blvd O",
                        "country": "CA",
                        "cross_street": "",
                        "formatted_address": "5745 Gouin Blvd O, Montr\u00e9al QC H4J 1E2",
                        "locality": "Montreal",
                        "postcode": "H4J 1E2",
                        "region": "QC"
                  },
                  "name": "Nikos Pizza Deli",
                  "popularity": 0.20123249432248297,
                  "price": 1
            },
            {
                  "distance": 609,
                  "location": {
                        "address": "12065 Laurentien Blvd",
                        "country": "CA",
                        "formatted_address": "12065 Laurentien Blvd, Montr\u00e9al QC H4K 1N3",
                        "locality": "Montreal",
                        "postcode": "H4K 1N3",
                        "region": "QC"
                  },
                  "name": "Snookers Billiards",
                  "popularity": 0.9975279144587433,
                  "price": 1
            },
            {
                  "distance": 633,
                  "location": {
                        "address": "12055 Laurentien Blvd",
                        "country": "CA",
                        "cross_street": "",
                        "formatted_address": "12055 Laurentien Blvd, Montr\u00e9al QC H4K 1N3",
                        "locality": "Montreal",
                        "postcode": "H4K 1N3",
                        "region": "QC"
                  },
                  "name": "Caf\u00e9 Al Sahraa",
                  "popularity": 0.21144019682059045,
                  "price": 2
            },
            {
                  "distance": 712,
                  "location": {
                        "address": "6419 Gouin Blvd O",
                        "country": "CA",
                        "cross_street": "coin Cousineau",
                        "formatted_address": "6419 Gouin Blvd O (coin Cousineau), Montr\u00e9al QC H4K 1A9",
                        "locality": "Montreal",
                        "postcode": "H4K 1A9",
                        "region": "QC"
                  },
                  "name": "Ristorante Il Cenone",
                  "popularity": 0.8122161241483724
            },
            {
                  "distance": 723,
                  "location": {
                        "address": "12245 Laurentien Blvd",
                        "country": "CA",
                        "cross_street": "",
                        "formatted_address": "12245 Laurentien Blvd, Montr\u00e9al QC H4K 1N4",
                        "locality": "Montreal",
                        "postcode": "H4K 1N4",
                        "region": "QC"
                  },
                  "name": "Expresso Bar",
                  "popularity": 0.9970784443603331,
                  "price": 1
            },
            {
                  "distance": 733,
                  "location": {
                        "address": "12210 Laurentien Blvd",
                        "country": "CA",
                        "cross_street": "",
                        "formatted_address": "12210 Laurentien Blvd, Montr\u00e9al QC H4K 1M9",
                        "locality": "Montreal",
                        "postcode": "H4K 1M9",
                        "region": "QC"
                  },
                  "name": "La Reine Patissiere",
                  "popularity": 0.9451528198334594,
                  "price": 1
            },
            {
                  "distance": 734,
                  "location": {
                        "address": "12230 Laurentien Blvd",
                        "country": "CA",
                        "cross_street": "",
                        "formatted_address": "12230 Laurentien Blvd, Montreal QC H4K 1M9",
                        "locality": "Montreal",
                        "postcode": "H4K 1M9",
                        "region": "QC"
                  },
                  "name": "Le Cristal Chinois Bbq Express",
                  "popularity": 0.960174583648751
            },
            {
                  "distance": 773,
                  "location": {
                        "address": "2996 Marcel Laurin Blvd",
                        "country": "CA",
                        "cross_street": "Keller",
                        "formatted_address": "2996 Marcel Laurin Blvd (Keller), Saint-Laurent QC",
                        "locality": "Saint-Laurent",
                        "region": "QC"
                  },
                  "name": "Chez Lien",
                  "popularity": 0.11646006813020439,
                  "price": 2
            },
            {
                  "distance": 787,
                  "location": {
                        "address": "12 333 Blvd Laurentien",
                        "address_extended": "# 12",
                        "country": "CA",
                        "cross_street": "",
                        "formatted_address": "12 333 Blvd Laurentien, Montr\u00e9al QC H4K 2Z1",
                        "locality": "Montreal",
                        "postcode": "H4K 2Z1",
                        "region": "QC"
                  },
                  "name": "Benny&Co",
                  "popularity": 0.9936246214988645,
                  "price": 2,
                  "store_id": "BC_09"
            },
            {
                  "distance": 788,
                  "location": {
                        "address": "2980 Marcel Laurin",
                        "country": "CA",
                        "cross_street": "",
                        "formatted_address": "2980 Marcel Laurin, Saint-Laurent QC",
                        "locality": "Saint-Laurent",
                        "region": "QC"
                  },
                  "name": "Restaurant Marco",
                  "popularity": 0.3335422975018925,
                  "price": 2
            },
            {
                  "distance": 347,
                  "location": {
                        "address": "5393 Gouin Blvd O",
                        "country": "CA",
                        "formatted_address": "5393 Gouin Blvd O, Montreal QC H4J 1C7",
                        "locality": "Montreal",
                        "postcode": "H4J 1C7",
                        "region": "QC"
                  },
                  "name": "Station Pizza Moderne"
            },
            {
                  "distance": 352,
                  "location": {
                        "address": "5501 Gouin Blvd O",
                        "country": "CA",
                        "formatted_address": "5501 Gouin Blvd O, Montreal QC",
                        "locality": "Montreal",
                        "region": "QC"
                  },
                  "name": "Paulo et Suzanne - Fan Page Officielle"
            },
            {
                  "distance": 514,
                  "location": {
                        "address": "5777 Gouin Blvd O",
                        "country": "CA",
                        "formatted_address": "5777 Gouin Blvd O, Montreal QC",
                        "locality": "Montreal",
                        "region": "QC"
                  },
                  "name": "Restaurants Mamie Clafoutis"
            },
            {
                  "distance": 519,
                  "location": {
                        "address": "5810 Gouin Blvd O",
                        "country": "CA",
                        "formatted_address": "5810 Gouin Blvd O, Montreal QC H4J 1E4",
                        "locality": "Montreal",
                        "postcode": "H4J 1E4",
                        "region": "QC"
                  },
                  "name": "Morjane"
            },
            {
                  "distance": 533,
                  "location": {
                        "address": "5922 Salaberry St",
                        "country": "CA",
                        "formatted_address": "5922 Salaberry St, Montreal QC H4J 1J8",
                        "locality": "Montreal",
                        "postcode": "H4J 1J8",
                        "region": "QC"
                  },
                  "name": "Dhaybi"
            },
            {
                  "distance": 583,
                  "location": {
                        "address": "5904 Gouin Blvd W",
                        "country": "CA",
                        "formatted_address": "5904 Gouin Blvd W, Montreal QC H4J 1E6",
                        "locality": "Montreal",
                        "postcode": "H4J 1E6",
                        "region": "QC"
                  },
                  "name": "Kennedy fried chicken and pizza"
            },
            {
                  "distance": 620,
                  "location": {
                        "address": "5995 Gouin Blvd O",
                        "country": "CA",
                        "formatted_address": "5995 Gouin Blvd O, Montreal QC H4J 2P8",
                        "locality": "Montreal",
                        "postcode": "H4J 2P8",
                        "region": "QC"
                  },
                  "name": "Mai-Tai"
            },
            {
                  "distance": 645,
                  "location": {
                        "address": "12167 Laurentien Blvd",
                        "country": "CA",
                        "formatted_address": "12167 Laurentien Blvd, Montreal QC H4K 1N4",
                        "locality": "Montreal",
                        "postcode": "H4K 1N4",
                        "region": "QC"
                  },
                  "name": "Cafe Nationale Plus"
            },
            {
                  "distance": 659,
                  "location": {
                        "address": "5995 Gouin Blvd O",
                        "country": "CA",
                        "formatted_address": "5995 Gouin Blvd O, Montreal QC H4J 2P8",
                        "locality": "Montreal",
                        "postcode": "H4J 2P8",
                        "region": "QC"
                  },
                  "name": "P\u00e2tisserie Samadi et Fils Enr"
            },
            {
                  "distance": 663,
                  "location": {
                        "address": "12208 Laurentien Blvd",
                        "country": "CA",
                        "formatted_address": "12208 Laurentien Blvd, Montreal QC H4K 1M9",
                        "locality": "Montreal",
                        "postcode": "H4K 1M9",
                        "region": "QC"
                  },
                  "name": "Restaurant Pappagallo"
            },
            {
                  "distance": 666,
                  "location": {
                        "address": "6003 Gouin Blvd O",
                        "country": "CA",
                        "formatted_address": "6003 Gouin Blvd O, Montreal QC H4J 1E7",
                        "locality": "Montreal",
                        "postcode": "H4J 1E7",
                        "region": "QC"
                  },
                  "name": "Mon Petit Casse Croute"
            },
            {
                  "distance": 668,
                  "location": {
                        "address": "12242 Laurentien Blvd",
                        "country": "CA",
                        "formatted_address": "12242 Laurentien Blvd, Montreal QC H4K 1M9",
                        "locality": "Montreal",
                        "postcode": "H4K 1M9",
                        "region": "QC"
                  },
                  "name": "Tong Por Resto-Reception"
            },
            {
                  "distance": 675,
                  "location": {
                        "address": "12174 Laurentien Blvd",
                        "country": "CA",
                        "formatted_address": "12174 Laurentien Blvd, Montreal QC H4K 1M9",
                        "locality": "Montreal",
                        "postcode": "H4K 1M9",
                        "region": "QC"
                  },
                  "name": "Poulet Mankal"
            }
      ],
      "context": {
            "geo_bounds": {
                  "circle": {
                        "center": {
                              "latitude": 45.53194359,
                              "longitude": -73.7136054
                        },
                        "radius": 1000
                  }
            }
      }
}