{
      "results": [
            {
                  "distance": 461,
                  "location": {
                        "address": "510 Prom du Centropolis",
                        "country": "CA",
                        "cross_street": "at Daniel-Johnson",
                        "formatted_address": "510 Prom du Centropolis (at Daniel-Johnson), Laval QC H7T 3C2",
                        "locality": "Laval",
                        "postcode": "H7T 3C2",
                        "region": "QC"
                  },
                  "name": "La Belle et la Boeuf",
                  "popularity": 0.9310898866375078,
                  "price": 2,
                  "rating": 8.0
            },
            {
                  "distance": 467,
                  "location": {
                        "address": "525 Prom du Centropolis",
                        "country": "CA",
                        "cross_street": "",
                        "formatted_address": "525 Prom du Centropolis, Laval QC H7T 0A3",
                        "locality": "Laval",
                        "postcode": "H7T 0A3",
                        "region": "QC"
                  },
                  "name": "Juliette & Chocolat",
                  "popularity": 0.8844059626885655,
                  "price": 1,
                  "rating": 7.9
            },
            {
                  "distance": 666,
                  "location": {
                        "address": "2900 Pierre-Peladeau Ave",
                        "country": "CA",
                        "cross_street": "au Centropolis",
                        "formatted_address": "2900 Pierre-Peladeau Ave (au Centropolis), Laval QC H7T 3B3",
                        "locality": "Laval",
                        "postcode": "H7T 3B3",
                        "region": "QC"
                  },
                  "name": "Les 3 Brasseurs",
                  "popularity": 0.9557261447826475,
                  "price": 2,
                  "rating": 7.9
            },
            {
                  "distance": 365,
                  "location": {
                        "address": "3455 Saint-Martin Blvd W",
                        "country": "CA",
                        "cross_street": "Boulevard Chomedey",
                        "formatted_address": "3455 Saint-Martin Blvd W (Boulevard Chomedey), Laval QC H7T 1A2",
                        "locality": "Laval",
                        "postcode": "H7T 1A2",
                        "region": "QC"
                  },
                  "name": "Beroya",
                  "popularity": 0.9472462733196465,
                  "price": 2,
                  "rating": 7.8
            },
            {
                  "distance": 541,
                  "location": {
                        "address": "195 Promemade du Centropolis",
                        "country": "CA",
                        "cross_street": "at Daniel-Johnson",
                        "formatted_address": "195 Promemade du Centropolis (at Daniel-Johnson), Laval QC H7T 0B3",
                        "locality": "Laval",
                        "postcode": "H7T 0B3",
                        "region": "QC"
                  },
                  "name": "Le Balthazar",
                  "popularity": 0.9842006605373561,
                  "price": 1,
                  "rating": 7.6
            },
            {
                  "distance": 488,
                  "location": {
                        "address": "200 Prom du Centropolis",
                        "country": "CA",
                        "cross_street": "",
                        "formatted_address": "200 Prom du Centropolis, Laval QC H7T 2Z6",
                        "locality": "Laval",
                        "postcode": "H7T 2Z6",
                        "region": "QC"
                  },
                  "name": "Les Enfants Terribles",
                  "popularity": 0.9160046416138534,
                  "rating": 7.4
            },
            {
                  "distance": 584,
                  "location": {
                        "address": "1510 Chomedey Blvd",
                        "country": "CA",
                        "cross_street": "",
                        "formatted_address": "1510 Chomedey Blvd, Laval QC H7V 3N8",
                        "locality": "Laval",
                        "postcode": "H7V 3N8",
                        "region": "QC"
                  },
                  "name": "Restaurant Toyo Grillades a la Japonaise",
                  "popularity": 0.8994912077122199,
                  "price": 2,
                  "rating": 7.3
            },
            {
                  "distance": 571,
                  "location": {
                        "address": "165 Promenode du Centropolis",
                        "country": "CA",
                        "formatted_address": "165 Promenode du Centropolis, Laval QC H7T 0B3",
                        "locality": "Laval",
                        "postcode": "H7T 0B3",
                        "region": "QC"
                  },
                  "name": "Sterlings Restaurant",
                  "popularity": 0.870838168347764,
                  "price": 3,
                  "rating": 7.2
            },
            {
                  "distance": 370,
                  "location": {
                        "address": "1565 Daniel-Johnson Blvd",
                        "country": "CA",
                        "cross_street": "",
                        "formatted_address": "1565 Daniel-Johnson Blvd, Laval QC H7V 4C2",
                        "locality": "Laval",
                        "postcode": "H7V 4C2",
                        "region": "QC"
                  },
                  "name": "Casa Grecque",
                  "popularity": 0.8711059537623851,
                  "price": 2,
                  "rating": 7.1
            },
            {
                  "distance": 499,
                  "location": {
                        "address": "505 Prom du Centropolis",
                        "country": "CA",
                        "cross_street": "Avenue Pierre P\u00e9ladeau",
                        "formatted_address": "505 Prom du Centropolis (Avenue Pierre P\u00e9ladeau), Laval QC H7T 0A3",
                        "locality": "Laval",
                        "postcode": "H7T 0A3",
                        "region": "QC"
                  },
                  "name": "Enoteca Monza Pizzeria Moderna",
                  "popularity": 0.9159153798089797,
                  "price": 2,
                  "rating": 7.1
            },
            {
                  "distance": 611,
                  "location": {
                        "address": "1820 Pierre-Peladeau Ave",
                        "country": "CA",
                        "cross_street": "",
                        "formatted_address": "1820 Pierre-Peladeau Ave, Laval QC H7T 2Z1",
                        "locality": "Laval",
                        "postcode": "H7T 2Z1",
                        "region": "QC"
                  },
                  "name": "Jack Astor's Bar & Grill",
                  "popularity": 0.9591180933678479,
                  "price": 2,
                  "rating": 6.9
            },
            {
                  "distance": 944,
                  "location": {
                        "address": "3800 Saint-Martin Blvd O",
                        "country": "CA",
                        "formatted_address": "3800 Saint-Martin Blvd O, Laval QC H7T 1B3",
                        "locality": "Laval",
                        "postcode": "H7T 1B3",
                        "region": "QC"
                  },
                  "name": "Dunn's Famous",
                  "popularity": 0.9636704454164063,
                  "price": 1,
                  "rating": 6.9
            },
            {
                  "distance": 139,
                  "location": {
                        "address": "3325 Saint-Martin Blvd O",
                        "country": "CA",
                        "cross_street": "",
                        "formatted_address": "3325 Saint-Martin Blvd O, Laval QC H7T 1S2",
                        "locality": "Laval",
                        "postcode": "H7T 1S2",
                        "region": "QC"
                  },
                  "name": "R\u00f4tisserie St-Hubert",
                  "popularity": 0.9357315004909399,
                  "price": 2,
                  "rating": 6.8,
                  "store_id": "100092"
            },
            {
                  "distance": 537,
                  "location": {
                        "address": "2981 Saint-Martin Blvd O",
                        "country": "CA",
                        "cross_street": "Centropolis",
                        "formatted_address": "2981 Saint-Martin Blvd O (Centropolis), Laval QC H7T 2Y8",
                        "locality": "Laval",
                        "postcode": "H7T 2Y8",
                        "region": "QC"
                  },
                  "name": "Restaurant l'Aromate",
                  "popularity": 0.9060073194679996,
                  "price": 3,
                  "rating": 6.8
            },
            {
                  "distance": 517,
                  "location": {
                        "address": "245 Promemade du Centropolis",
                        "country": "CA",
                        "formatted_address": "245 Promemade du Centropolis, Laval QC H7T 0B3",
                        "locality": "Laval",
                        "postcode": "H7T 0B3",
                        "region": "QC"
                  },
                  "name": "Zibo",
                  "popularity": 0.9292153887351602,
                  "price": 3,
                  "rating": 6.8
            },
            {
                  "distance": 605,
                  "location": {
                        "address": "125 Prom du Centropolis",
                        "country": "CA",
                        "cross_street": "",
                        "formatted_address": "125 Prom du Centropolis, Laval QC H7T 0B3",
                        "locality": "Laval",
                        "postcode": "H7T 0B3",
                        "region": "QC"
                  },
                  "name": "Menchie's",
                  "popularity": 0.8610193698116576,
                  "price": 1,
                  "rating": 6.7
            },
            {
                  "distance": 342,
                  "location": {
                        "address": "3453 Saint-Martin Blvd O",
                        "country": "CA",
                        "formatted_address": "3453 Saint-Martin Blvd O, Laval QC H7T 1A2",
                        "locality": "Laval",
                        "postcode": "H7T 1A2",
                        "region": "QC"
                  },
                  "name": "Cafe Univers",
                  "popularity": 0.9045791305900205,
                  "price": 3,
                  "rating": 6.5
            },
            {
                  "distance": 598,
                  "location": {
                        "address": "1780 Pierre-Peladeau Ave",
                        "country": "CA",
                        "cross_street": "",
                        "formatted_address": "1780 Pierre-Peladeau Ave, Laval QC H7T 2Z1",
                        "locality": "Laval",
                        "postcode": "H7T 2Z1",
                        "region": "QC"
                  },
                  "name": "Miss Wong",
                  "popularity": 0.8922610015174507,
                  "price": 2,
                  "rating": 6.4
            },
            {
                  "distance": 423,
                  "location": {
                        "address": "2075 Chomedey Blvd",
                        "country": "CA",
                        "cross_street": "",
                        "formatted_address": "2075 Chomedey Blvd, Laval QC H7T 0G5",
                        "locality": "Laval",
                        "postcode": "H7T 0G5",
                        "region": "QC"
                  },
                  "name": "Tim Hortons",
                  "popularity": 0.8470945282513612,
                  "price": 2,
                  "rating": 6.4
            },
            {
                  "distance": 250,
                  "location": {
                        "address": "3370 Saint-Martin Blvd O",
                        "country": "CA",
                        "cross_street": "",
                        "formatted_address": "3370 Saint-Martin Blvd O, Laval QC H7T 1A1",
                        "locality": "Laval",
                        "postcode": "H7T 1A1",
                        "region": "QC"
                  },
                  "name": "R\u00f4tisserie Scores",
                  "popularity": 0.9376059983932875,
                  "price": 2,
                  "rating": 6.0,
                  "store_id": "SC_09"
            },
            {
                  "distance": 603,
                  "location": {
                        "address": "1730 Pierre-Peladeau Ave",
                        "country": "CA",
                        "cross_street": "au Centropolis",
                        "formatted_address": "1730 Pierre-Peladeau Ave (au Centropolis), Laval QC H7T 2Z1",
                        "locality": "Laval",
                        "postcode": "H7T 2Z1",
                        "region": "QC"
                  },
                  "name": "L'Academie Restaurant",
                  "popularity": 0.917879139516201,
                  "price": 3,
                  "rating": 5.4
            },
            {
                  "distance": 598,
                  "location": {
                        "address": "1794 Pierre-Peladeau Ave",
                        "country": "CA",
                        "cross_street": "Centropolis",
                        "formatted_address": "1794 Pierre-Peladeau Ave (Centropolis), Laval QC H7T 2Z1",
                        "locality": "Laval",
                        "postcode": "H7T 2Z1",
                        "region": "QC"
                  },
                  "name": "Presse Caf\u00e9",
                  "popularity": 0.9289476033205392,
                  "price": 1,
                  "rating": 5.3
            },
            {
                  "distance": 123,
                  "location": {
                        "address": "3236 Saint-Martin Blvd O",
                        "country": "CA",
                        "cross_street": "",
                        "formatted_address": "3236 Saint-Martin Blvd O, Laval QC H7T 1A1",
                        "locality": "Laval",
                        "postcode": "H7T 1A1",
                        "region": "QC"
                  },
                  "name": "Kojax Souflaki",
                  "popularity": 0.9369811657591717,
                  "price": 2
            },
            {
                  "distance": 161,
                  "location": {
                        "address": "3352 Saint-Martin Blvd O",
                        "country": "CA",
                        "cross_street": "",
                        "formatted_address": "3352 Saint-Martin Blvd O, Laval QC H7T 1A1",
                        "locality": "Laval",
                        "postcode": "H7T 1A1",
                        "region": "QC"
                  },
                  "name": "Cafe Milano",
                  "popularity": 0.9870570382933143,
                  "price": 1
            },
            {
                  "distance": 249,
                  "location": {
                        "address": "3010 Saint-Martin Blvd O",
                        "country": "CA",
                        "cross_street": "",
                        "formatted_address": "3010 Saint-Martin Blvd O, Laval QC H7T 2J2",
                        "locality": "Laval",
                        "postcode": "H7T 2J2",
                        "region": "QC"
                  },
                  "name": "Ocakbasi Mardin Palace",
                  "popularity": 0.9707221280014282,
                  "price": 2
            },
            {
                  "distance": 437,
                  "location": {
                        "address": "490 Prom du Centropolis",
                        "country": "CA",
                        "cross_street": "",
                        "formatted_address": "490 Prom du Centropolis, Laval QC H7T 3C2",
                        "locality": "Laval",
                        "postcode": "H7T 3C2",
                        "region": "QC"
                  },
                  "name": "Randolph Pub Ludique Centropolis",
                  "popularity": 0.937159689368919,
                  "price": 1
            },
            {
                  "distance": 473,
                  "location": {
                        "address": "540 Prom du Centropolis",
                        "country": "CA",
                        "cross_street": "",
                        "formatted_address": "540 Prom du Centropolis, Laval QC H7T 3C2",
                        "locality": "Laval",
                        "postcode": "H7T 3C2",
                        "region": "QC"
                  },
                  "name": "No 900",
                  "popularity": 0.9446576809783094,
                  "price": 1
            },
            {
                  "distance": 499,
                  "location": {
                        "address": "505 Prom du Centropolis",
                        "country": "CA",
                        "cross_street": "",
                        "formatted_address": "505 Prom du Centropolis, Laval QC H7T 0A3",
                        "locality": "Laval",
                        "postcode": "H7T 0A3",
                        "region": "QC"
                  },
                  "name": "Monza",
                  "popularity": 0.25680621262161923,
                  "price": 2
            },
            {
                  "distance": 535,
                  "location": {
                        "address": "150B du Centropolis Prom",
                        "country": "CA",
                        "cross_street": "",
                        "formatted_address": "150B du Centropolis Prom, Laval QC H7T 2Z6",
                        "locality": "Laval",
                        "postcode": "H7T 2Z6",
                        "region": "QC"
                  },
                  "name": "Caf\u00e9 Ricardo",
                  "popularity": 0.8523609747389093,
                  "price": 2
            },
            {
                  "distance": 548,
                  "location": {
                        "address": "2981 Saint-Martin Blvd O",
                        "country": "CA",
                        "cross_street": "",
                        "formatted_address": "2981 Saint-Martin Blvd O, Laval QC H7T 2Y8",
                        "locality": "Laval",
                        "postcode": "H7T 2Y8",
                        "region": "QC"
                  },
                  "name": "Restaurant Bistro l'Aromate",
                  "popularity": 0.5065607426582166,
                  "price": 2
            },
            {
                  "distance": 565,
                  "location": {
                        "address": "140 Prom du Centropolis",
                        "country": "CA",
                        "cross_street": "",
                        "formatted_address": "140 Prom du Centropolis, Laval QC H7T 2Z6",
                        "locality": "Laval",
                        "postcode": "H7T 2Z6",
                        "region": "QC"
                  },
                  "name": "Lov",
                  "popularity": 0.8920824779077033,
                  "price": 2
            },
            {
                  "distance": 566,
                  "location": {
                        "address": "142 Prom du Centropolis",
                        "country": "CA",
                        "cross_street": "",
                        "formatted_address": "142 Prom du Centropolis, Laval QC H7T 2Z6",
                        "locality": "Laval",
                        "postcode": "H7T 2Z6",
                        "region": "QC"
                  },
                  "name": "Mandy's",
                  "popularity": 0.9370704275640453,
                  "price": 1
            },
            {
                  "distance": 620,
                  "location": {
                        "address": "145 Prom du Centropolis",
                        "country": "CA",
                        "cross_street": "",
                        "formatted_address": "145 Prom du Centropolis, Laval QC H7T 0B3",
                        "locality": "Laval",
                        "postcode": "H7T 0B3",
                        "region": "QC"
                  },
                  "name": "Kiyomi",
                  "popularity": 0.7337320360617692,
                  "price": 2
            },
            {
                  "distance": 751,
                  "location": {
                        "address": "2888 Ave du Cosmod\u00f4me",
                        "country": "CA",
                        "cross_street": "",
                        "formatted_address": "2888 Ave du Cosmod\u00f4me, Laval QC H7T 2X1",
                        "locality": "Laval",
                        "postcode": "H7T 2X1",
                        "region": "QC"
                  },
                  "name": "Pizza Gourmande",
                  "popularity": 0.5411050611443363,
                  "price": 2
            },
            {
                  "distance": 971,
                  "location": {
                        "address": "3821 Saint-Martin Blvd O",
                        "country": "CA",
                        "cross_street": "",
                        "formatted_address": "3821 Saint-Martin Blvd O, Laval QC H7T 1B2",
                        "locality": "Laval",
                        "postcode": "H7T 1B2",
                        "region": "QC"
                  },
                  "name": "Bouza - Cr\u00e8me Glac\u00e9e Syrienne",
                  "popularity": 0.962867089172543,
                  "price": 1
            }
      ],
      "context": {
            "geo_bounds": {
                  "circle": {
                        "center": {
                              "latitude": 45.55742148,
                              "longitude": -73.74806039
                        },
                        "radius": 1000
                  }
            }
      }
}