{
      "results": [
            {
                  "distance": 732,
                  "location": {
                        "address": "3632 Ontario Rue E",
                        "address_extended": "coin De Chambly",
                        "country": "CA",
                        "cross_street": "coin De Chambly",
                        "formatted_address": "3632 Ontario Rue E (coin De Chambly), Montr\u00e9al QC H1W 1R7",
                        "locality": "Montreal",
                        "postcode": "H1W 1R7",
                        "region": "QC"
                  },
                  "name": "L'Espace Public-Brasseurs de Quartier",
                  "popularity": 0.9611799772899319,
                  "price": 2,
                  "rating": 8.8
            },
            {
                  "distance": 711,
                  "location": {
                        "address": "3606 Ontario Rue E",
                        "country": "CA",
                        "cross_street": "entre Joliette & De Chambly",
                        "formatted_address": "3606 Ontario Rue E (entre Joliette & De Chambly), Montr\u00e9al QC H1W 1R7",
                        "locality": "Montreal",
                        "postcode": "H1W 1R7",
                        "region": "QC"
                  },
                  "name": "Atomic Cafe",
                  "popularity": 0.9511733535200606,
                  "price": 1,
                  "rating": 8.5
            },
            {
                  "distance": 1015,
                  "location": {
                        "address": "3974 Pierre de Coubertin Ave",
                        "country": "CA",
                        "cross_street": "",
                        "formatted_address": "3974 Pierre de Coubertin Ave, Montr\u00e9al QC H1W 1E7",
                        "locality": "Montreal",
                        "postcode": "H1W 1E7",
                        "region": "QC"
                  },
                  "name": "Fusion Express",
                  "popularity": 0.9321300151400455,
                  "price": 2,
                  "rating": 8.0
            },
            {
                  "distance": 918,
                  "location": {
                        "address": "3971 Hochelaga Rue",
                        "country": "CA",
                        "cross_street": "",
                        "formatted_address": "3971 Hochelaga Rue, Montr\u00e9al QC H1W 1K2",
                        "locality": "Montreal",
                        "postcode": "H1W 1K2",
                        "region": "QC"
                  },
                  "name": "Poutine Centrale",
                  "popularity": 0.9448807721423165,
                  "price": 2,
                  "rating": 7.9
            },
            {
                  "distance": 810,
                  "location": {
                        "address": "4093 Molson Rue",
                        "country": "CA",
                        "cross_street": "Rue William-Tremblay",
                        "formatted_address": "4093 Molson Rue (Rue William-Tremblay), Montr\u00e9al QC H1Y 3L1",
                        "locality": "Montreal",
                        "postcode": "H1Y 3L1",
                        "region": "QC"
                  },
                  "name": "Mamie Clafoutis",
                  "popularity": 0.9076693792581377,
                  "price": 1,
                  "rating": 7.9
            },
            {
                  "distance": 869,
                  "location": {
                        "address": "25 Simon Valois Pl",
                        "country": "CA",
                        "cross_street": "coin Ontario",
                        "formatted_address": "25 Simon Valois Pl (coin Ontario), Montr\u00e9al QC H1W 0A6",
                        "locality": "Montreal",
                        "postcode": "H1W 0A6",
                        "region": "QC"
                  },
                  "name": "Le Valois",
                  "popularity": 0.8502436601059803,
                  "price": 2,
                  "rating": 7.4
            },
            {
                  "distance": 976,
                  "location": {
                        "address": "3882 Ontario Rue E",
                        "country": "CA",
                        "cross_street": "",
                        "formatted_address": "3882 Ontario Rue E, Montr\u00e9al QC H1W 1S6",
                        "locality": "Montreal",
                        "postcode": "H1W 1S6",
                        "region": "QC"
                  },
                  "name": "Le Blind Pig",
                  "popularity": 0.9555379447388342,
                  "price": 1,
                  "rating": 7.3
            },
            {
                  "distance": 956,
                  "location": {
                        "address": "3860 Ontario Rue E",
                        "country": "CA",
                        "cross_street": "Bourbonni\u00e8re",
                        "formatted_address": "3860 Ontario Rue E (Bourbonni\u00e8re), Montr\u00e9al QC H1W 1S4",
                        "locality": "Montreal",
                        "postcode": "H1W 1S4",
                        "region": "QC"
                  },
                  "name": "Restaurant la Pataterie Inc",
                  "popularity": 0.9558573050719152,
                  "price": 1,
                  "rating": 7.3
            },
            {
                  "distance": 206,
                  "location": {
                        "address": "3121 Hochelaga Rue",
                        "country": "CA",
                        "cross_street": "",
                        "formatted_address": "3121 Hochelaga Rue, Montr\u00e9al QC H1W 1G3",
                        "locality": "Montreal",
                        "postcode": "H1W 1G3",
                        "region": "QC"
                  },
                  "name": "Maneki Comptoir Asiat'",
                  "popularity": 0.8695235616956851,
                  "price": 2,
                  "rating": 7.2
            },
            {
                  "distance": 378,
                  "location": {
                        "address": "3090 Sherbrooke Rue E",
                        "country": "CA",
                        "cross_street": "coin Moreau",
                        "formatted_address": "3090 Sherbrooke Rue E (coin Moreau), Montr\u00e9al QC H1W 1B5",
                        "locality": "Montreal",
                        "postcode": "H1W 1B5",
                        "region": "QC"
                  },
                  "name": "Deli Miami",
                  "popularity": 0.9861492240726722,
                  "price": 1,
                  "rating": 6.9
            },
            {
                  "distance": 748,
                  "location": {
                        "address": "2765 Sherbrooke Rue E",
                        "country": "CA",
                        "cross_street": "Montgomery",
                        "formatted_address": "2765 Sherbrooke Rue E (Montgomery), Montr\u00e9al QC H2K 1G9",
                        "locality": "Montreal",
                        "postcode": "H2K 1G9",
                        "region": "QC"
                  },
                  "name": "Subway",
                  "popularity": 0.8906368281604845,
                  "price": 1,
                  "rating": 6.3,
                  "store_id": "27680"
            },
            {
                  "distance": 621,
                  "location": {
                        "address": "3501 Ontario Rue E",
                        "country": "CA",
                        "cross_street": "Aylwin",
                        "formatted_address": "3501 Ontario Rue E (Aylwin), Montr\u00e9al QC H1W 1R4",
                        "locality": "Montreal",
                        "postcode": "H1W 1R4",
                        "region": "QC"
                  },
                  "name": "Subway",
                  "popularity": 0.927008421650265,
                  "price": 1,
                  "rating": 6.2,
                  "store_id": "14811"
            },
            {
                  "distance": 943,
                  "location": {
                        "address": "3881 Sherbrooke Rue E",
                        "country": "CA",
                        "cross_street": "coin Av. Bourbonni\u00e8re",
                        "formatted_address": "3881 Sherbrooke Rue E (coin Av. Bourbonni\u00e8re), Montr\u00e9al QC H1X 2A5",
                        "locality": "Montreal",
                        "postcode": "H1X 2A5",
                        "region": "QC"
                  },
                  "name": "Tim Hortons",
                  "popularity": 0.9890116389099167,
                  "price": 1,
                  "rating": 6.2
            },
            {
                  "distance": 778,
                  "location": {
                        "address": "2800 Rachel St E",
                        "country": "CA",
                        "cross_street": "",
                        "formatted_address": "2800 Rachel St E, Montr\u00e9al QC H2H 1S8",
                        "locality": "Montreal",
                        "postcode": "H2H 1S8",
                        "region": "QC"
                  },
                  "name": "Pizza Hut",
                  "popularity": 0.9308289174867524,
                  "price": 1,
                  "rating": 6.1
            },
            {
                  "distance": 982,
                  "location": {
                        "address": "3905 Ontario Rue E",
                        "country": "CA",
                        "cross_street": "",
                        "formatted_address": "3905 Ontario Rue E, Montr\u00e9al QC H1W 1S7",
                        "locality": "Montreal",
                        "postcode": "H1W 1S7",
                        "region": "QC"
                  },
                  "name": "Burrito Revolucion",
                  "popularity": 0.5280800529901589,
                  "rating": 6.0
            },
            {
                  "distance": 742,
                  "location": {
                        "address": "3634 Ontario Rue E",
                        "country": "CA",
                        "cross_street": "coin Chambly",
                        "formatted_address": "3634 Ontario Rue E (coin Chambly), Montr\u00e9al QC H1W 1R7",
                        "locality": "Montreal",
                        "postcode": "H1W 1R7",
                        "region": "QC"
                  },
                  "name": "Tim Hortons",
                  "popularity": 0.958873485995458,
                  "price": 1,
                  "rating": 5.4
            },
            {
                  "distance": 596,
                  "location": {
                        "address": "2901 Sherbrooke St E",
                        "country": "CA",
                        "cross_street": "",
                        "formatted_address": "2901 Sherbrooke St E, Montr\u00e9al QC H1W 1B2",
                        "locality": "Montreal",
                        "postcode": "H1W 1B2",
                        "region": "QC"
                  },
                  "name": "McDonald's",
                  "popularity": 0.9885621688115064,
                  "price": 1,
                  "rating": 5.3,
                  "store_id": "40472"
            },
            {
                  "distance": 824,
                  "location": {
                        "address": "4091 Molson Rue",
                        "country": "CA",
                        "cross_street": "",
                        "formatted_address": "4091 Molson Rue, Montr\u00e9al QC H1Y 3L1",
                        "locality": "Montreal",
                        "postcode": "H1Y 3L1",
                        "region": "QC"
                  },
                  "name": "Pizzeria Caldo",
                  "popularity": 0.17878264572293717,
                  "price": 1,
                  "rating": 5.3
            },
            {
                  "distance": 539,
                  "location": {
                        "address": "3227 Ontario Rue E",
                        "country": "CA",
                        "cross_street": "",
                        "formatted_address": "3227 Ontario Rue E, Montr\u00e9al QC H1W 1P3",
                        "locality": "Montreal",
                        "postcode": "H1W 1P3",
                        "region": "QC"
                  },
                  "name": "3 Patapoufs",
                  "popularity": 0.961132664647994
            },
            {
                  "distance": 541,
                  "location": {
                        "address": "3213 Ontario Rue E",
                        "country": "CA",
                        "cross_street": "",
                        "formatted_address": "3213 Ontario Rue E, Montr\u00e9al QC H1W 1P3",
                        "locality": "Montreal",
                        "postcode": "H1W 1P3",
                        "region": "QC"
                  },
                  "name": "Coop\u00e9rative Rond-Point, caf\u00e9 autog\u00e9r\u00e9",
                  "popularity": 0.7255275359576079,
                  "price": 1
            },
            {
                  "distance": 562,
                  "location": {
                        "address": "3179 Ontario Rue E",
                        "country": "CA",
                        "cross_street": "D\u00e9zery",
                        "formatted_address": "3179 Ontario Rue E (D\u00e9zery), Montr\u00e9al QC H1W 1P1",
                        "locality": "Montreal",
                        "postcode": "H1W 1P1",
                        "region": "QC"
                  },
                  "name": "Chez Sandrine",
                  "popularity": 0.6639856169568509,
                  "price": 1
            },
            {
                  "distance": 568,
                  "location": {
                        "address": "3328 Ontario Rue E",
                        "country": "CA",
                        "cross_street": "",
                        "formatted_address": "3328 Ontario Rue E, Montr\u00e9al QC H1W 1P7",
                        "locality": "Montreal",
                        "postcode": "H1W 1P7",
                        "region": "QC"
                  },
                  "name": "Blockhaus",
                  "popularity": 0.9533142505677517,
                  "price": 3
            },
            {
                  "distance": 572,
                  "location": {
                        "address": "3417 Ontario Rue E",
                        "country": "CA",
                        "cross_street": "",
                        "formatted_address": "3417 Ontario Rue E, Montr\u00e9al QC H1W 1R1",
                        "locality": "Montreal",
                        "postcode": "H1W 1R1",
                        "region": "QC"
                  },
                  "name": "Boustan",
                  "popularity": 0.9085683194549584,
                  "price": 2
            },
            {
                  "distance": 575,
                  "location": {
                        "address": "3350 Ontario Rue E",
                        "country": "CA",
                        "cross_street": "Davidson",
                        "formatted_address": "3350 Ontario Rue E (Davidson), Montr\u00e9al QC H1W 1P7",
                        "locality": "Montreal",
                        "postcode": "H1W 1P7",
                        "region": "QC"
                  },
                  "name": "El Jumelgi",
                  "popularity": 0.6334216502649508
            },
            {
                  "distance": 577,
                  "location": {
                        "address": "3485 Ontario Rue E",
                        "country": "CA",
                        "cross_street": "",
                        "formatted_address": "3485 Ontario Rue E, Montr\u00e9al QC H1W 1R4",
                        "locality": "Montreal",
                        "postcode": "H1W 1R4",
                        "region": "QC"
                  },
                  "name": "La Canoise",
                  "popularity": 0.43404617713853144,
                  "price": 1
            },
            {
                  "distance": 595,
                  "location": {
                        "address": "3445 Ontario Rue E",
                        "country": "CA",
                        "formatted_address": "3445 Ontario Rue E, Montr\u00e9al QC H1W 1R1",
                        "locality": "Montreal",
                        "postcode": "H1W 1R1",
                        "region": "QC"
                  },
                  "name": "Pizza Piroz",
                  "popularity": 0.9594530658591975,
                  "price": 1
            },
            {
                  "distance": 701,
                  "location": {
                        "address": "3537 Rachel Rue E",
                        "country": "CA",
                        "cross_street": "",
                        "formatted_address": "3537 Rachel Rue E, Montr\u00e9al QC H1W 1A8",
                        "locality": "Montreal",
                        "postcode": "H1W 1A8",
                        "region": "QC"
                  },
                  "name": "Jardin des Delices",
                  "popularity": 0.9223599545798638,
                  "price": 2
            },
            {
                  "distance": 720,
                  "location": {
                        "address": "4090 Andre-Laurendeau Rue",
                        "country": "CA",
                        "cross_street": "",
                        "formatted_address": "4090 Andre-Laurendeau Rue, Montreal QC H1Y 3N6",
                        "locality": "Montreal",
                        "postcode": "H1Y 3N6",
                        "region": "QC"
                  },
                  "name": "La Caf\u00e9shop",
                  "popularity": 0.8607470666161998,
                  "price": 1
            },
            {
                  "distance": 767,
                  "location": {
                        "address": "3800 Sherbrooke Rue E",
                        "country": "CA",
                        "cross_street": "",
                        "formatted_address": "3800 Sherbrooke Rue E, Montr\u00e9al QC H1X 2A2",
                        "locality": "Montreal",
                        "postcode": "H1X 2A2",
                        "region": "QC"
                  },
                  "name": "Caf\u00e9 l'Escale",
                  "popularity": 0.9066403292959879,
                  "price": 1
            },
            {
                  "distance": 810,
                  "location": {
                        "address": "3739 Ontario Rue E",
                        "country": "CA",
                        "cross_street": "Nicolet",
                        "formatted_address": "3739 Ontario Rue E (Nicolet), Montr\u00e9al QC H1W 1S3",
                        "locality": "Montreal",
                        "postcode": "H1W 1S3",
                        "region": "QC"
                  },
                  "name": "Resto-Bar le Pick Up",
                  "popularity": 0.9295987887963664,
                  "price": 2
            },
            {
                  "distance": 821,
                  "location": {
                        "address": "2600 William-Tremblay Rue",
                        "country": "CA",
                        "cross_street": "",
                        "formatted_address": "2600 William-Tremblay Rue, Montr\u00e9al QC H1Y 3J2",
                        "locality": "Montreal",
                        "postcode": "H1Y 3J2",
                        "region": "QC"
                  },
                  "name": "Station W",
                  "popularity": 0.9345902725208176,
                  "price": 1
            },
            {
                  "distance": 840,
                  "location": {
                        "address": "5 Simon Valois Pl",
                        "country": "CA",
                        "cross_street": "Ontario",
                        "formatted_address": "5 Simon Valois Pl (Ontario), Montr\u00e9al QC H1W 0A6",
                        "locality": "Montreal",
                        "postcode": "H1W 0A6",
                        "region": "QC"
                  },
                  "name": "Bar Laitier",
                  "popularity": 0.4559637585162756,
                  "price": 1
            },
            {
                  "distance": 969,
                  "location": {
                        "address": "3905 Ontario Rue E",
                        "country": "CA",
                        "cross_street": "",
                        "formatted_address": "3905 Ontario Rue E, Montr\u00e9al QC H1W 1S7",
                        "locality": "Montreal",
                        "postcode": "H1W 1S7",
                        "region": "QC"
                  },
                  "name": "Pizza Fugazzi",
                  "popularity": 0.8975563020439061,
                  "price": 1
            },
            {
                  "distance": 175,
                  "location": {
                        "address": "3400 Hochelaga Rue",
                        "country": "CA",
                        "formatted_address": "3400 Hochelaga Rue, Montreal QC H1W 1H3",
                        "locality": "Montreal",
                        "postcode": "H1W 1H3",
                        "region": "QC"
                  },
                  "name": "Restaurant Yammi Yammi Pizza"
            },
            {
                  "distance": 334,
                  "location": {
                        "address": "3529 Hochelaga Rue",
                        "country": "CA",
                        "formatted_address": "3529 Hochelaga Rue, Montreal QC H1W 1H8",
                        "locality": "Montreal",
                        "postcode": "H1W 1H8",
                        "region": "QC"
                  },
                  "name": "Taverne Morelli"
            }
      ],
      "context": {
            "geo_bounds": {
                  "circle": {
                        "center": {
                              "latitude": 45.54365247,
                              "longitude": -73.55348257
                        },
                        "radius": 1000
                  }
            }
      }
}