{
      "results": [
            {
                  "distance": 320,
                  "location": {
                        "address": "5670 Sherbrooke Rue E",
                        "country": "CA",
                        "cross_street": "",
                        "formatted_address": "5670 Sherbrooke Rue E, Montr\u00e9al QC H1N 1A1",
                        "locality": "Montreal",
                        "postcode": "H1N 1A1",
                        "region": "QC"
                  },
                  "name": "Chez Cora",
                  "popularity": 0.9456732588947767,
                  "price": 1,
                  "rating": 7.2
            },
            {
                  "distance": 307,
                  "location": {
                        "address": "5666 Sherbrooke Rue E",
                        "country": "CA",
                        "cross_street": "",
                        "formatted_address": "5666 Sherbrooke Rue E, Montr\u00e9al QC H1N 1A1",
                        "locality": "Montreal",
                        "postcode": "H1N 1A1",
                        "region": "QC"
                  },
                  "name": "Beni Hana Cuisine Japonaise",
                  "popularity": 0.9583885314155942,
                  "price": 2,
                  "rating": 6.5
            },
            {
                  "distance": 536,
                  "location": {
                        "address": "5787 Sherbrooke Rue E",
                        "country": "CA",
                        "cross_street": "at rue Lacordaire",
                        "formatted_address": "5787 Sherbrooke Rue E (at rue Lacordaire), Montr\u00e9al QC H1N 3R5",
                        "locality": "Montreal",
                        "postcode": "H1N 3R5",
                        "region": "QC"
                  },
                  "name": "Casa Grecque",
                  "popularity": 0.9753146290688872,
                  "price": 2,
                  "rating": 6.5
            },
            {
                  "distance": 229,
                  "location": {
                        "address": "5460 Sherbrooke Rue O",
                        "country": "CA",
                        "cross_street": "L'Assomption",
                        "formatted_address": "5460 Sherbrooke Rue O (L'Assomption), Montr\u00e9al QC H4A 1V9",
                        "locality": "Montreal",
                        "postcode": "H4A 1V9",
                        "region": "QC"
                  },
                  "name": "Au Vieux Duluth",
                  "popularity": 0.8967519871309614,
                  "price": 2,
                  "rating": 5.9
            },
            {
                  "distance": 698,
                  "location": {
                        "address": "5900 Sherbrooke Rue E",
                        "country": "CA",
                        "cross_street": "coin Bossuet",
                        "formatted_address": "5900 Sherbrooke Rue E (coin Bossuet), Montr\u00e9al QC H1N 1B5",
                        "locality": "Montreal",
                        "postcode": "H1N 1B5",
                        "region": "QC"
                  },
                  "name": "Tim Hortons",
                  "popularity": 0.9798329863739591,
                  "price": 1,
                  "rating": 5.9
            },
            {
                  "distance": 643,
                  "location": {
                        "address": "5000 Sherbrooke Rue E",
                        "country": "CA",
                        "cross_street": "",
                        "formatted_address": "5000 Sherbrooke Rue E, Montr\u00e9al QC H1V 1A1",
                        "locality": "Montreal",
                        "postcode": "H1V 1A1",
                        "region": "QC"
                  },
                  "name": "Au Toit Rouge",
                  "popularity": 0.8107967448902347,
                  "price": 2,
                  "rating": 5.9
            },
            {
                  "distance": 369,
                  "location": {
                        "address": "5222 Sherbrooke Rue E",
                        "country": "CA",
                        "formatted_address": "5222 Sherbrooke Rue E, Montr\u00e9al QC H1V 1A1",
                        "locality": "Montreal",
                        "postcode": "H1V 1A1",
                        "region": "QC"
                  },
                  "name": "Madisons Restaurant & Bar",
                  "popularity": 0.966171461014383,
                  "price": 2,
                  "rating": 5.8
            },
            {
                  "distance": 297,
                  "location": {
                        "address": "5660 Sherbrooke Rue E",
                        "country": "CA",
                        "cross_street": "Dickson",
                        "formatted_address": "5660 Sherbrooke Rue E (Dickson), Montr\u00e9al QC H1N 1A1",
                        "locality": "Montreal",
                        "postcode": "H1N 1A1",
                        "region": "QC"
                  },
                  "name": "Enoteca Monza Pizzeria Moderna",
                  "popularity": 0.9203373391370174,
                  "price": 2
            },
            {
                  "distance": 595,
                  "location": {
                        "address": "3055 Viau Rue",
                        "country": "CA",
                        "formatted_address": "3055 Viau Rue, Montr\u00e9al QC H1V 3J5",
                        "locality": "Montreal",
                        "postcode": "H1V 3J5",
                        "region": "QC"
                  },
                  "name": "Mondelez Internationale",
                  "popularity": 0.9218395155185466
            },
            {
                  "distance": 617,
                  "location": {
                        "address": "5843 Sherbrooke Rue E",
                        "country": "CA",
                        "cross_street": "",
                        "formatted_address": "5843 Sherbrooke Rue E, Montreal QC H1N 1B3",
                        "locality": "Montreal",
                        "postcode": "H1N 1B3",
                        "region": "QC"
                  },
                  "name": "Sushi Chef",
                  "popularity": 0.9343891937925813,
                  "price": 2
            },
            {
                  "distance": 625,
                  "location": {
                        "address": "5849 Sherbrooke Rue E",
                        "country": "CA",
                        "cross_street": "",
                        "formatted_address": "5849 Sherbrooke Rue E, Montr\u00e9al QC H1N 1B6",
                        "locality": "Montreal",
                        "postcode": "H1N 1B6",
                        "region": "QC"
                  },
                  "name": "Restaurant Chez O",
                  "popularity": 0.9108866389099167,
                  "price": 2
            },
            {
                  "distance": 742,
                  "location": {
                        "address": "5960 Sherbrooke Rue E",
                        "country": "CA",
                        "cross_street": "",
                        "formatted_address": "5960 Sherbrooke Rue E, Montreal QC H1N 1B8",
                        "locality": "Montreal",
                        "postcode": "H1N 1B8",
                        "region": "QC"
                  },
                  "name": "Genki Sushi",
                  "popularity": 0.10825132475397427,
                  "price": 2
            },
            {
                  "distance": 822,
                  "location": {
                        "address": "6060 Sherbrooke Rue E",
                        "country": "CA",
                        "cross_street": "Duquesne",
                        "formatted_address": "6060 Sherbrooke Rue E (Duquesne), Montr\u00e9al QC H1N 1C1",
                        "locality": "Montreal",
                        "postcode": "H1N 1C1",
                        "region": "QC"
                  },
                  "name": "Globe Caf\u00e9 Bistro",
                  "popularity": 0.8291185654806964,
                  "price": 2
            },
            {
                  "distance": 914,
                  "location": {
                        "address": "6001 rue de Jumonville",
                        "country": "CA",
                        "cross_street": "",
                        "formatted_address": "6001 rue de Jumonville, Montr\u00e9al QC H1M 1R5",
                        "locality": "Montreal",
                        "postcode": "H1M 1R5",
                        "region": "QC"
                  },
                  "name": "Restaurant le Saint-Jacques",
                  "popularity": 0.8955573429220288,
                  "price": 2
            },
            {
                  "distance": 922,
                  "location": {
                        "address": "5865 Hochelaga Rue",
                        "country": "CA",
                        "cross_street": "Louis-Veuillot",
                        "formatted_address": "5865 Hochelaga Rue (Louis-Veuillot), Montr\u00e9al QC H1N 1X2",
                        "locality": "Montreal",
                        "postcode": "H1N 1X2",
                        "region": "QC"
                  },
                  "name": "Soupe and Roll",
                  "popularity": 0.9531841408024224,
                  "price": 2
            },
            {
                  "distance": 204,
                  "location": {
                        "address": "5460 Sherbrooke Rue O",
                        "country": "CA",
                        "formatted_address": "5460 Sherbrooke Rue O, Montreal QC H4A 1V9",
                        "locality": "Montreal",
                        "postcode": "H4A 1V9",
                        "region": "QC"
                  },
                  "name": "Nickels Restaurant"
            },
            {
                  "distance": 371,
                  "location": {
                        "address": "5222 Sherbrooke Rue E",
                        "country": "CA",
                        "formatted_address": "5222 Sherbrooke Rue E, Montreal QC H1V 1A1",
                        "locality": "Montreal",
                        "postcode": "H1V 1A1",
                        "region": "QC"
                  },
                  "name": "BRGR&MAC Village-Olympique"
            },
            {
                  "distance": 384,
                  "location": {
                        "address": "5222 Sherbrooke Rue E",
                        "country": "CA",
                        "formatted_address": "5222 Sherbrooke Rue E, Montreal QC H1V 1A1",
                        "locality": "Montreal",
                        "postcode": "H1V 1A1",
                        "region": "QC"
                  },
                  "name": "Madisons N Y Bar & Grill"
            },
            {
                  "distance": 477,
                  "location": {
                        "address": "5100 Sherbrooke Rue E",
                        "country": "CA",
                        "formatted_address": "5100 Sherbrooke Rue E, Montreal QC H1V 3R9",
                        "locality": "Montreal",
                        "postcode": "H1V 3R9",
                        "region": "QC"
                  },
                  "name": "Restaurant Au Vieux Duluth"
            },
            {
                  "distance": 486,
                  "location": {
                        "address": "5100 Sherbrooke Rue E",
                        "country": "CA",
                        "formatted_address": "5100 Sherbrooke Rue E, Montreal QC H1V 3R9",
                        "locality": "Montreal",
                        "postcode": "H1V 3R9",
                        "region": "QC"
                  },
                  "name": "Montcaf\u00e9"
            },
            {
                  "distance": 507,
                  "location": {
                        "address": "3055 Viau Rue",
                        "country": "CA",
                        "formatted_address": "3055 Viau Rue, Montreal QC H1V 3J5",
                        "locality": "Montreal",
                        "postcode": "H1V 3J5",
                        "region": "QC"
                  },
                  "name": "Compagnie Christie Brown"
            },
            {
                  "distance": 544,
                  "location": {
                        "address": "5100 Sherbrooke Rue E",
                        "country": "CA",
                        "formatted_address": "5100 Sherbrooke Rue E, Montreal QC H1V 3R9",
                        "locality": "Montreal",
                        "postcode": "H1V 3R9",
                        "region": "QC"
                  },
                  "name": "Corporation financi\u00e8re HSBC Centre de Service Canadien"
            },
            {
                  "distance": 593,
                  "location": {
                        "address": "2896 Louis Veuillot Rue",
                        "country": "CA",
                        "formatted_address": "2896 Louis Veuillot Rue, Montreal QC H1N 2P6",
                        "locality": "Montreal",
                        "postcode": "H1N 2P6",
                        "region": "QC"
                  },
                  "name": "Shakir Indian Cuisine"
            },
            {
                  "distance": 602,
                  "location": {
                        "address": "5000 Sherbrooke Rue E",
                        "country": "CA",
                        "formatted_address": "5000 Sherbrooke Rue E, Montreal QC H1V 1A1",
                        "locality": "Montreal",
                        "postcode": "H1V 1A1",
                        "region": "QC"
                  },
                  "name": "Resto Bar le Toit Rouge"
            },
            {
                  "distance": 647,
                  "location": {
                        "address": "5855 Sherbrooke Rue E",
                        "country": "CA",
                        "formatted_address": "5855 Sherbrooke Rue E, Montreal QC H1N 1B6",
                        "locality": "Montreal",
                        "postcode": "H1N 1B6",
                        "region": "QC"
                  },
                  "name": "Caf\u00e9 Lounge Cup of Life"
            },
            {
                  "distance": 659,
                  "location": {
                        "address": "5882 Sherbrooke Rue E",
                        "country": "CA",
                        "formatted_address": "5882 Sherbrooke Rue E, Montreal QC H1N 1B5",
                        "locality": "Montreal",
                        "postcode": "H1N 1B5",
                        "region": "QC"
                  },
                  "name": "La Belle Province 2000"
            },
            {
                  "distance": 660,
                  "location": {
                        "address": "Sherbrooke St W",
                        "country": "CA",
                        "formatted_address": "Sherbrooke St W, Montreal QC",
                        "locality": "Montreal",
                        "region": "QC"
                  },
                  "name": "Jean's Trinidad Foods"
            },
            {
                  "distance": 968,
                  "location": {
                        "address": "6086 Sherbrooke Rue E",
                        "country": "CA",
                        "formatted_address": "6086 Sherbrooke Rue E, Montreal QC H1N 1C1",
                        "locality": "Montreal",
                        "postcode": "H1N 1C1",
                        "region": "QC"
                  },
                  "name": "Buffet Antique"
            }
      ],
      "context": {
            "geo_bounds": {
                  "circle": {
                        "center": {
                              "latitude": 45.569789,
                              "longitude": -73.548081
                        },
                        "radius": 1000
                  }
            }
      }
}