{
      "results": [
            {
                  "distance": 663,
                  "location": {
                        "address": "5411 rue de Verdun",
                        "country": "CA",
                        "cross_street": "coin Argyle",
                        "formatted_address": "5411 rue de Verdun (coin Argyle), Verdun QC H4H 1K6",
                        "locality": "Verdun",
                        "postcode": "H4H 1K6",
                        "region": "QC"
                  },
                  "name": "Bagel St-Lo",
                  "popularity": 0.9861965367146102,
                  "price": 1,
                  "rating": 8.9
            },
            {
                  "distance": 424,
                  "location": {
                        "address": "5810 Rue de Verdun",
                        "country": "CA",
                        "cross_street": "Manning",
                        "formatted_address": "5810 Rue de Verdun (Manning), Verdun QC H4H 1L9",
                        "locality": "Verdun",
                        "postcode": "H4H 1L9",
                        "region": "QC"
                  },
                  "name": "Frejus St Raphael Cafe",
                  "popularity": 0.9233535200605602,
                  "price": 1,
                  "rating": 7.4
            },
            {
                  "distance": 584,
                  "location": {
                        "address": "5561 Rue de Verdun",
                        "country": "CA",
                        "cross_street": "Egan",
                        "formatted_address": "5561 Rue de Verdun (Egan), Verdun QC H4H 1L2",
                        "locality": "Verdun",
                        "postcode": "H4H 1L2",
                        "region": "QC"
                  },
                  "name": "Restaurant Bingo Regd",
                  "popularity": 0.9477313588190764,
                  "price": 1,
                  "rating": 7.3
            },
            {
                  "distance": 604,
                  "location": {
                        "address": "5531 Rue de Verdun",
                        "address_extended": "coin \u00c9gan",
                        "country": "CA",
                        "cross_street": "coin \u00c9gan",
                        "formatted_address": "5531 Rue de Verdun (coin \u00c9gan), Verdun QC H4H 1K9",
                        "locality": "Verdun",
                        "postcode": "H4H 1K9",
                        "region": "QC"
                  },
                  "name": "Au Coq",
                  "popularity": 0.9881245268735807,
                  "price": 2,
                  "rating": 6.7
            },
            {
                  "distance": 915,
                  "location": {
                        "address": "5443 Wellington Rue",
                        "country": "CA",
                        "cross_street": "coin Woodland",
                        "formatted_address": "5443 Wellington Rue (coin Woodland), Verdun QC H4H 1N4",
                        "locality": "Verdun",
                        "postcode": "H4H 1N4",
                        "region": "QC"
                  },
                  "name": "Woodland Restaurant",
                  "popularity": 0.911064061317184,
                  "price": 1,
                  "rating": 6.3
            },
            {
                  "distance": 997,
                  "location": {
                        "address": "5001 Rue de Verdun",
                        "country": "CA",
                        "cross_street": "5i\u00e8me Avenue",
                        "formatted_address": "5001 Rue de Verdun (5i\u00e8me Avenue), Verdun QC H4G 1N5",
                        "locality": "Verdun",
                        "postcode": "H4G 1N5",
                        "region": "QC"
                  },
                  "name": "Nouveau Verdun",
                  "popularity": 0.9652252081756245,
                  "price": 2,
                  "rating": 5.7
            },
            {
                  "distance": 567,
                  "location": {
                        "address": "5583 Rue de Verdun",
                        "country": "CA",
                        "cross_street": "",
                        "formatted_address": "5583 Rue de Verdun, Montr\u00e9al QC H4H 1L2",
                        "locality": "Montreal",
                        "postcode": "H4H 1L2",
                        "region": "QC"
                  },
                  "name": "Pizzeria Geppetto",
                  "popularity": 0.904333838001514,
                  "price": 2
            },
            {
                  "distance": 763,
                  "location": {
                        "address": "5300 rue de Verdun",
                        "country": "CA",
                        "cross_street": "rue Melrose",
                        "formatted_address": "5300 rue de Verdun (rue Melrose), Verdun QC H4H 1K4",
                        "locality": "Verdun",
                        "postcode": "H4H 1K4",
                        "region": "QC"
                  },
                  "name": "Le Roi du Hot Dog",
                  "popularity": 0.982139477668433,
                  "price": 1
            },
            {
                  "distance": 439,
                  "location": {
                        "address": "5810 rue de Verdun",
                        "country": "CA",
                        "formatted_address": "5810 rue de Verdun, Verdun QC H4H 1L9",
                        "locality": "Verdun",
                        "postcode": "H4H 1L9",
                        "region": "QC"
                  },
                  "name": "Cafe Frejus"
            },
            {
                  "distance": 512,
                  "location": {
                        "address": "6300 Beurling Rue",
                        "country": "CA",
                        "formatted_address": "6300 Beurling Rue, Verdun QC H4H 1C8",
                        "locality": "Verdun",
                        "postcode": "H4H 1C8",
                        "region": "QC"
                  },
                  "name": "Les Grands Burlesques"
            },
            {
                  "distance": 533,
                  "location": {
                        "address": "5433 Bannantyne Rue",
                        "country": "CA",
                        "formatted_address": "5433 Bannantyne Rue, Verdun QC H4H 1G1",
                        "locality": "Verdun",
                        "postcode": "H4H 1G1",
                        "region": "QC"
                  },
                  "name": "Frejus St Raphael Cafe"
            },
            {
                  "distance": 615,
                  "location": {
                        "address": "5511 rue de Verdun",
                        "country": "CA",
                        "formatted_address": "5511 rue de Verdun, Verdun QC H4H 1K9",
                        "locality": "Verdun",
                        "postcode": "H4H 1K9",
                        "region": "QC"
                  },
                  "name": "Restaurant Napolitana"
            },
            {
                  "distance": 615,
                  "location": {
                        "address": "5511 rue de Verdun",
                        "country": "CA",
                        "formatted_address": "5511 rue de Verdun, Verdun QC H4H 1K9",
                        "locality": "Verdun",
                        "postcode": "H4H 1K9",
                        "region": "QC"
                  },
                  "name": "Cafe Benetictins"
            },
            {
                  "distance": 756,
                  "location": {
                        "address": "5300 rue de Verdun",
                        "country": "CA",
                        "formatted_address": "5300 rue de Verdun, Verdun QC H4H 1K4",
                        "locality": "Verdun",
                        "postcode": "H4H 1K4",
                        "region": "QC"
                  },
                  "name": "Les Cremerie Dairy King Ltee"
            },
            {
                  "distance": 823,
                  "location": {
                        "address": "5077 Bannantyne Rue",
                        "country": "CA",
                        "formatted_address": "5077 Bannantyne Rue, Verdun QC H4G 1G2",
                        "locality": "Verdun",
                        "postcode": "H4G 1G2",
                        "region": "QC"
                  },
                  "name": "Terrasse Chez Laurette"
            },
            {
                  "distance": 926,
                  "location": {
                        "address": "7001 Blvd de la V\u00e9rendrye",
                        "country": "CA",
                        "formatted_address": "7001 Blvd de la V\u00e9rendrye, Montreal QC H4E 3R9",
                        "locality": "Montreal",
                        "postcode": "H4E 3R9",
                        "region": "QC"
                  },
                  "name": "Restaurant Pizzeria"
            },
            {
                  "distance": 929,
                  "location": {
                        "address": "7001 Blvd de la V\u00e9rendrye",
                        "country": "CA",
                        "formatted_address": "7001 Blvd de la V\u00e9rendrye, Montreal QC H4E 3R9",
                        "locality": "Montreal",
                        "postcode": "H4E 3R9",
                        "region": "QC"
                  },
                  "name": "La Verendrye"
            },
            {
                  "distance": 931,
                  "location": {
                        "address": "341 Desmarchais Ave",
                        "country": "CA",
                        "formatted_address": "341 Desmarchais Ave, Verdun QC H4H 1S5",
                        "locality": "Verdun",
                        "postcode": "H4H 1S5",
                        "region": "QC"
                  },
                  "name": "Toty Cupcakes"
            },
            {
                  "distance": 954,
                  "location": {
                        "address": "5317 Wellington Rue",
                        "address_extended": "# 5315",
                        "country": "CA",
                        "formatted_address": "5317 Wellington Rue, Verdun QC H4H 1N3",
                        "locality": "Verdun",
                        "postcode": "H4H 1N3",
                        "region": "QC"
                  },
                  "name": "Le Sing-Niors Lounge"
            },
            {
                  "distance": 984,
                  "location": {
                        "address": "5001 Rue de Verdun",
                        "country": "CA",
                        "formatted_address": "5001 Rue de Verdun, Verdun QC H4G 1N5",
                        "locality": "Verdun",
                        "postcode": "H4G 1N5",
                        "region": "QC"
                  },
                  "name": "New Verdun Restaurant"
            }
      ],
      "context": {
            "geo_bounds": {
                  "circle": {
                        "center": {
                              "latitude": 45.44826205,
                              "longitude": -73.57785612
                        },
                        "radius": 1000
                  }
            }
      }
}