{
      "results": [
            {
                  "distance": 746,
                  "location": {
                        "address": "953 Decarie Blvd",
                        "country": "CA",
                        "cross_street": "cote-vertu",
                        "formatted_address": "953 Decarie Blvd (cote-vertu), Montr\u00e9al QC H4L 3M3",
                        "locality": "Montreal",
                        "postcode": "H4L 3M3",
                        "region": "QC"
                  },
                  "name": "Decarie Hot Dog",
                  "popularity": 0.9809921461014383,
                  "price": 1,
                  "rating": 7.7
            },
            {
                  "distance": 790,
                  "location": {
                        "address": "1494 Blvd de la Cote-Vertu",
                        "country": "CA",
                        "cross_street": "",
                        "formatted_address": "1494 Blvd de la Cote-Vertu, Montr\u00e9al QC H4L 1Z8",
                        "locality": "Montreal",
                        "postcode": "H4L 1Z8",
                        "region": "QC"
                  },
                  "name": "A&W Restaurant",
                  "popularity": 0.9899815480696442,
                  "price": 1,
                  "rating": 7.5,
                  "store_id": "5555"
            },
            {
                  "distance": 595,
                  "location": {
                        "address": "735 Decarie Blvd",
                        "country": "CA",
                        "cross_street": "btwn Du College & Eglise",
                        "formatted_address": "735 Decarie Blvd (btwn Du College & Eglise), Montr\u00e9al QC H4L 3L3",
                        "locality": "Montreal",
                        "postcode": "H4L 3L3",
                        "region": "QC"
                  },
                  "name": "Restaurant Yi Pin Xiang",
                  "popularity": 0.29537282361847084,
                  "rating": 7.2
            },
            {
                  "distance": 550,
                  "location": {
                        "address": "1800 Blvd de la cote-Vertu",
                        "country": "CA",
                        "cross_street": "",
                        "formatted_address": "1800 Blvd de la cote-Vertu, Montr\u00e9al QC H4L 2A6",
                        "locality": "Montreal",
                        "postcode": "H4L 2A6",
                        "region": "QC"
                  },
                  "name": "Bistro Sawadika",
                  "popularity": 0.9861728803936411,
                  "price": 2,
                  "rating": 7.1
            },
            {
                  "distance": 813,
                  "location": {
                        "address": "993 Blvd D\u00e9carie",
                        "country": "CA",
                        "cross_street": "",
                        "formatted_address": "993 Blvd D\u00e9carie, Montr\u00e9al QC H4L 3M7",
                        "locality": "Montreal",
                        "postcode": "H4L 3M7",
                        "region": "QC"
                  },
                  "name": "Subway",
                  "popularity": 0.8939723694171082,
                  "price": 1,
                  "rating": 6.4,
                  "store_id": "15203"
            },
            {
                  "distance": 808,
                  "location": {
                        "address": "1000 Decarie Blvd",
                        "country": "CA",
                        "cross_street": "",
                        "formatted_address": "1000 Decarie Blvd, Saint-Laurent QC H4L 3M5",
                        "locality": "Saint-Laurent",
                        "postcode": "H4L 3M5",
                        "region": "QC"
                  },
                  "name": "Pizza Pizza",
                  "popularity": 0.9467969341408025,
                  "price": 1,
                  "rating": 6.3,
                  "store_id": "308"
            },
            {
                  "distance": 718,
                  "location": {
                        "address": "1408 Rue de l'\u00c9glise",
                        "country": "CA",
                        "cross_street": "Saint Germain",
                        "formatted_address": "1408 Rue de l'\u00c9glise (Saint Germain), Saint-Laurent QC H4L 2H3",
                        "locality": "Saint-Laurent",
                        "postcode": "H4L 2H3",
                        "region": "QC"
                  },
                  "name": "Boccalini",
                  "popularity": 0.9165168433005298,
                  "price": 2,
                  "rating": 6.1
            },
            {
                  "distance": 491,
                  "location": {
                        "address": "400 Marcel-Laurin Blvd",
                        "country": "CA",
                        "cross_street": "Rue Saint-Louis",
                        "formatted_address": "400 Marcel-Laurin Blvd (Rue Saint-Louis), Saint-Laurent QC H4M 2L4",
                        "locality": "Saint-Laurent",
                        "postcode": "H4M 2L4",
                        "region": "QC"
                  },
                  "name": "Tim Hortons",
                  "popularity": 0.9977881339894019,
                  "price": 1,
                  "rating": 5.9
            },
            {
                  "distance": 757,
                  "location": {
                        "address": "1565 Ch. de la Cote Vertu",
                        "country": "CA",
                        "formatted_address": "1565 Ch. de la Cote Vertu, Saint-Laurent QC H4L 2A1",
                        "locality": "Saint-Laurent",
                        "postcode": "H4L 2A1",
                        "region": "QC"
                  },
                  "name": "McDonald's",
                  "popularity": 0.9992075132475398,
                  "price": 1,
                  "rating": 5.5,
                  "store_id": "2314"
            },
            {
                  "distance": 539,
                  "location": {
                        "address": "2069 Saint Louis Rue",
                        "address_extended": "Ville saint laurent",
                        "country": "CA",
                        "cross_street": "",
                        "formatted_address": "2069 Saint Louis Rue, Montr\u00e9al QC H4M 1P1",
                        "locality": "Montreal",
                        "postcode": "H4M 1P1",
                        "region": "QC"
                  },
                  "name": "Mimimelon",
                  "popularity": 0.9860427706283119,
                  "price": 1
            },
            {
                  "distance": 582,
                  "location": {
                        "address": "625 Decarie Blvd",
                        "country": "CA",
                        "cross_street": "Lafontaine",
                        "formatted_address": "625 Decarie Blvd (Lafontaine), Montr\u00e9al QC H4L 3L2",
                        "locality": "Montreal",
                        "postcode": "H4L 3L2",
                        "region": "QC"
                  },
                  "name": "\u00d4 Th\u00e9 Tea Shop",
                  "popularity": 0.9048661052233157
            },
            {
                  "distance": 591,
                  "location": {
                        "address": "753 Decarie Blvd",
                        "country": "CA",
                        "cross_street": "",
                        "formatted_address": "753 Decarie Blvd, Montr\u00e9al QC H4L 3L3",
                        "locality": "Montreal",
                        "postcode": "H4L 3L3",
                        "region": "QC"
                  },
                  "name": "Caf\u00e9 le VSL",
                  "popularity": 0.7458838001514004,
                  "price": 1
            },
            {
                  "distance": 603,
                  "location": {
                        "address": "747 Decarie Blvd",
                        "country": "CA",
                        "cross_street": "",
                        "formatted_address": "747 Decarie Blvd, Montr\u00e9al QC H4L 3L3",
                        "locality": "Montreal",
                        "postcode": "H4L 3L3",
                        "region": "QC"
                  },
                  "name": "Mon Ami",
                  "popularity": 0.9755038796366389,
                  "price": 2
            },
            {
                  "distance": 634,
                  "location": {
                        "address": "2159 Saint-Louis Rue",
                        "country": "CA",
                        "cross_street": "",
                        "formatted_address": "2159 Saint-Louis Rue, Saint-Laurent QC H4M 1P1",
                        "locality": "Saint-Laurent",
                        "postcode": "H4M 1P1",
                        "region": "QC"
                  },
                  "name": "Benny Express",
                  "popularity": 0.2768499242997729,
                  "price": 2
            },
            {
                  "distance": 638,
                  "location": {
                        "address": "886 Decarie Blvd",
                        "country": "CA",
                        "cross_street": "",
                        "formatted_address": "886 Decarie Blvd, Montr\u00e9al QC H4L 3L9",
                        "locality": "Montreal",
                        "postcode": "H4L 3L9",
                        "region": "QC"
                  },
                  "name": "Pho Moderne",
                  "popularity": 0.9669521196063589,
                  "price": 2
            },
            {
                  "distance": 658,
                  "location": {
                        "address": "1110 Marcel-Laurin Blvd",
                        "country": "CA",
                        "cross_street": "",
                        "formatted_address": "1110 Marcel-Laurin Blvd, Saint-Laurent QC H4R 1J7",
                        "locality": "Saint-Laurent",
                        "postcode": "H4R 1J7",
                        "region": "QC"
                  },
                  "name": "La Slice",
                  "popularity": 0.20411856548069643,
                  "price": 1
            },
            {
                  "distance": 661,
                  "location": {
                        "address": "1455 Rue de l'\u00c3\u2030glise",
                        "country": "CA",
                        "cross_street": "",
                        "formatted_address": "1455 Rue de l'\u00c3\u2030glise, Saint-Laurent QC H4L 2H5",
                        "locality": "Saint-Laurent",
                        "postcode": "H4L 2H5",
                        "region": "QC"
                  },
                  "name": "Domino's Pizza",
                  "popularity": 0.9375118281604845,
                  "price": 1
            },
            {
                  "distance": 699,
                  "location": {
                        "address": "1430 rue de l'\u00c9glise",
                        "country": "CA",
                        "cross_street": "",
                        "formatted_address": "1430 rue de l'\u00c9glise, Montr\u00e9al QC H4L 2H3",
                        "locality": "Montreal",
                        "postcode": "H4L 2H3",
                        "region": "QC"
                  },
                  "name": "Maison Samosa Express",
                  "popularity": 0.13836582134746403,
                  "price": 2
            },
            {
                  "distance": 715,
                  "location": {
                        "address": "1146 Marcel-Laurin Blvd",
                        "country": "CA",
                        "cross_street": "Cote-vertu",
                        "formatted_address": "1146 Marcel-Laurin Blvd (Cote-vertu), Saint-Laurent QC H4R 1J7",
                        "locality": "Saint-Laurent",
                        "postcode": "H4R 1J7",
                        "region": "QC"
                  },
                  "name": "Double Pizza",
                  "popularity": 0.14413796366389098,
                  "price": 1
            },
            {
                  "distance": 764,
                  "location": {
                        "address": "959 Decarie Blvd",
                        "country": "CA",
                        "cross_street": "",
                        "formatted_address": "959 Decarie Blvd, Saint-Laurent QC H4L 3M3",
                        "locality": "Saint-Laurent",
                        "postcode": "H4L 3M3",
                        "region": "QC"
                  },
                  "name": "La Diperie",
                  "popularity": 0.9373462339137018,
                  "price": 1
            },
            {
                  "distance": 786,
                  "location": {
                        "address": "1001 Decarie Blvd",
                        "country": "CA",
                        "cross_street": "at boul. de la C\u00f4te-Vertu",
                        "formatted_address": "1001 Decarie Blvd (at boul. de la C\u00f4te-Vertu), Saint-Laurent QC H4L 3M6",
                        "locality": "Saint-Laurent",
                        "postcode": "H4L 3M6",
                        "region": "QC"
                  },
                  "name": "Restaurant Kam Do",
                  "popularity": 0.9516228236184708,
                  "price": 1
            },
            {
                  "distance": 794,
                  "location": {
                        "address": "996 Decarie Blvd",
                        "country": "CA",
                        "cross_street": "",
                        "formatted_address": "996 Decarie Blvd, Saint-Laurent QC H4L 3M5",
                        "locality": "Saint-Laurent",
                        "postcode": "H4L 3M5",
                        "region": "QC"
                  },
                  "name": "Caf\u00e9 Van Houtte",
                  "popularity": 0.9931751514004542,
                  "price": 1
            },
            {
                  "distance": 831,
                  "location": {
                        "address": "1470 Blvd de la Cote Vertu",
                        "country": "CA",
                        "cross_street": "Boul. de la C\u00f4te-Vertu",
                        "formatted_address": "1470 Blvd de la Cote Vertu (Boul. de la C\u00f4te-Vertu), Saint-Laurent QC H4L 1Z7",
                        "locality": "Saint-Laurent",
                        "postcode": "H4L 1Z7",
                        "region": "QC"
                  },
                  "name": "Caf\u00e9 Tea Tac Toe",
                  "popularity": 0.928285862982589,
                  "price": 1
            },
            {
                  "distance": 1025,
                  "location": {
                        "address": "1470 Blvd de la C\u00f4te-Vertu",
                        "country": "CA",
                        "cross_street": "",
                        "formatted_address": "1470 Blvd de la C\u00f4te-Vertu, Saint-Laurent QC H4L 1Z7",
                        "locality": "Saint-Laurent",
                        "postcode": "H4L 1Z7",
                        "region": "QC"
                  },
                  "name": "123 Caf\u00e9",
                  "popularity": 0.30211487509462526,
                  "price": 1
            },
            {
                  "distance": 3783,
                  "location": {
                        "address": "2069 Saint-Louis Rue",
                        "country": "CA",
                        "cross_street": "Gratton",
                        "formatted_address": "2069 Saint-Louis Rue (Gratton), Saint-Laurent QC H4M 1P1",
                        "locality": "Saint-Laurent",
                        "postcode": "H4M 1P1",
                        "region": "QC"
                  },
                  "name": "Euro Cach\u00e8re",
                  "popularity": 0.43964089704769116
            },
            {
                  "distance": 384,
                  "location": {
                        "address": "455 Marcel-Laurin Blvd",
                        "address_extended": "# 312",
                        "country": "CA",
                        "formatted_address": "455 Marcel-Laurin Blvd, Saint-Laurent QC H4M 2L8",
                        "locality": "Saint-Laurent",
                        "postcode": "H4M 2L8",
                        "region": "QC"
                  },
                  "name": "Delicious Dream"
            },
            {
                  "distance": 565,
                  "location": {
                        "address": "2075 Saint-Louis Rue",
                        "country": "CA",
                        "formatted_address": "2075 Saint-Louis Rue, Saint-Laurent QC H4M 1P1",
                        "locality": "Saint-Laurent",
                        "postcode": "H4M 1P1",
                        "region": "QC"
                  },
                  "name": "Pizza Benny"
            },
            {
                  "distance": 650,
                  "location": {
                        "address": "855 Decarie Blvd",
                        "country": "CA",
                        "formatted_address": "855 Decarie Blvd, Saint-Laurent QC H4L 3L7",
                        "locality": "Saint-Laurent",
                        "postcode": "H4L 3L7",
                        "region": "QC"
                  },
                  "name": "Brasserie Internet Inc"
            },
            {
                  "distance": 650,
                  "location": {
                        "address": "855 Decarie Blvd",
                        "country": "CA",
                        "formatted_address": "855 Decarie Blvd, Saint-Laurent QC H4L 3L7",
                        "locality": "Saint-Laurent",
                        "postcode": "H4L 3L7",
                        "region": "QC"
                  },
                  "name": "Rasa Resto Lounge & Reception"
            },
            {
                  "distance": 662,
                  "location": {
                        "address": "1146 Marcel-Laurin Blvd",
                        "country": "CA",
                        "formatted_address": "1146 Marcel-Laurin Blvd, Saint-Laurent QC H4R 1J7",
                        "locality": "Saint-Laurent",
                        "postcode": "H4R 1J7",
                        "region": "QC"
                  },
                  "name": "Palais du Poulet"
            },
            {
                  "distance": 674,
                  "location": {
                        "address": "1500 Morin Rue",
                        "country": "CA",
                        "formatted_address": "1500 Morin Rue, Saint-Laurent QC H4L 5M7",
                        "locality": "Saint-Laurent",
                        "postcode": "H4L 5M7",
                        "region": "QC"
                  },
                  "name": "Kyoto Sushi Restaurant Japanese Cuisine"
            },
            {
                  "distance": 696,
                  "location": {
                        "address": "1134 Marcel-Laurin Blvd",
                        "country": "CA",
                        "formatted_address": "1134 Marcel-Laurin Blvd, Saint-Laurent QC H4R 1J7",
                        "locality": "Saint-Laurent",
                        "postcode": "H4R 1J7",
                        "region": "QC"
                  },
                  "name": "Ottavio"
            },
            {
                  "distance": 696,
                  "location": {
                        "address": "1142 Marcel-Laurin Blvd",
                        "country": "CA",
                        "formatted_address": "1142 Marcel-Laurin Blvd, Saint-Laurent QC H4R 1J7",
                        "locality": "Saint-Laurent",
                        "postcode": "H4R 1J7",
                        "region": "QC"
                  },
                  "name": "Dagwoods Sandwiches & Salades"
            },
            {
                  "distance": 753,
                  "location": {
                        "address": "1595 Blvd de la C\u00f4te-Vertu",
                        "country": "CA",
                        "formatted_address": "1595 Blvd de la C\u00f4te-Vertu, Saint-Laurent QC H4L 2A1",
                        "locality": "Saint-Laurent",
                        "postcode": "H4L 2A1",
                        "region": "QC"
                  },
                  "name": "Restaurant PFK"
            },
            {
                  "distance": 809,
                  "location": {
                        "address": "2015 Marcel-Laurin Blvd",
                        "country": "CA",
                        "formatted_address": "2015 Marcel-Laurin Blvd, Saint-Laurent QC H4R 1K4",
                        "locality": "Saint-Laurent",
                        "postcode": "H4R 1K4",
                        "region": "QC"
                  },
                  "name": "Dagwoods"
            }
      ],
      "context": {
            "geo_bounds": {
                  "circle": {
                        "center": {
                              "latitude": 45.50682416,
                              "longitude": -73.68184805
                        },
                        "radius": 1000
                  }
            }
      }
}