{
      "results": [
            {
                  "distance": 526,
                  "location": {
                        "address": "1360 Rosemont Blvd",
                        "country": "CA",
                        "cross_street": "",
                        "formatted_address": "1360 Rosemont Blvd, Montr\u00e9al QC H2G 1V4",
                        "locality": "Montreal",
                        "postcode": "H2G 1V4",
                        "region": "QC"
                  },
                  "name": "Caf\u00e9 Dei Campi",
                  "popularity": 0.9428108440575321,
                  "price": 1,
                  "rating": 9.1
            },
            {
                  "distance": 524,
                  "location": {
                        "address": "1650 Laurier Ave E",
                        "country": "CA",
                        "cross_street": "Marquette",
                        "formatted_address": "1650 Laurier Ave E (Marquette), Montr\u00e9al QC H2J 1J2",
                        "locality": "Montreal",
                        "postcode": "H2J 1J2",
                        "region": "QC"
                  },
                  "name": "Sushi Tri Express",
                  "popularity": 0.8795656699470098,
                  "price": 2,
                  "rating": 8.5
            },
            {
                  "distance": 276,
                  "location": {
                        "address": "1995 Masson Rue",
                        "country": "CA",
                        "cross_street": "coin Bordeaux",
                        "formatted_address": "1995 Masson Rue (coin Bordeaux), Montr\u00e9al QC H2H 1A5",
                        "locality": "Montreal",
                        "postcode": "H2H 1A5",
                        "region": "QC"
                  },
                  "name": "L'Entre-Pots",
                  "popularity": 0.955679882664648,
                  "price": 1,
                  "rating": 8.5
            },
            {
                  "distance": 828,
                  "location": {
                        "address": "4720 Marquette Rue",
                        "country": "CA",
                        "cross_street": "coin Gilford",
                        "formatted_address": "4720 Marquette Rue (coin Gilford), Montr\u00e9al QC H2J 3Y6",
                        "locality": "Montreal",
                        "postcode": "H2J 3Y6",
                        "region": "QC"
                  },
                  "name": "Maison Publique",
                  "popularity": 0.9193674299772899,
                  "price": 3,
                  "rating": 8.4
            },
            {
                  "distance": 712,
                  "location": {
                        "address": "1300 Laurier Ave E",
                        "country": "CA",
                        "cross_street": "Chambord",
                        "formatted_address": "1300 Laurier Ave E (Chambord), Montr\u00e9al QC H2J 1H3",
                        "locality": "Montreal",
                        "postcode": "H2J 1H3",
                        "region": "QC"
                  },
                  "name": "Creme Glacee Bo-Bec",
                  "popularity": 0.9121522520817562,
                  "price": 1,
                  "rating": 8.3
            },
            {
                  "distance": 927,
                  "location": {
                        "address": "4710 rue de Lanaudi\u00e8re",
                        "country": "CA",
                        "cross_street": "coin Gilford",
                        "formatted_address": "4710 rue de Lanaudi\u00e8re (coin Gilford), Montr\u00e9al QC H2J 3P7",
                        "locality": "Montreal",
                        "postcode": "H2J 3P7",
                        "region": "QC"
                  },
                  "name": "Le Chien Fumant",
                  "popularity": 0.9083435844057532,
                  "price": 3,
                  "rating": 8.2
            },
            {
                  "distance": 728,
                  "location": {
                        "address": "2440 Rosemont Blvd",
                        "country": "CA",
                        "cross_street": "",
                        "formatted_address": "2440 Rosemont Blvd, Montr\u00e9al QC H2G 1V2",
                        "locality": "Montreal",
                        "postcode": "H2G 1V2",
                        "region": "QC"
                  },
                  "name": "Pub Rosemont",
                  "popularity": 0.9464539174867524,
                  "price": 3,
                  "rating": 8.2
            },
            {
                  "distance": 574,
                  "location": {
                        "address": "1546 Laurier Ave E",
                        "country": "CA",
                        "cross_street": "Rue Fabre",
                        "formatted_address": "1546 Laurier Ave E (Rue Fabre), Montr\u00e9al QC H2J 1H9",
                        "locality": "Montreal",
                        "postcode": "H2J 1H9",
                        "region": "QC"
                  },
                  "name": "Caf\u00e9 M\u00e9chants Pinsons",
                  "popularity": 0.9265707797123391,
                  "price": 1,
                  "rating": 8.1
            },
            {
                  "distance": 940,
                  "location": {
                        "address": "1898 Beaubien Rue E",
                        "country": "CA",
                        "cross_street": "Chabot",
                        "formatted_address": "1898 Beaubien Rue E (Chabot), Montr\u00e9al QC H2G 1L9",
                        "locality": "Montreal",
                        "postcode": "H2G 1L9",
                        "region": "QC"
                  },
                  "name": "Sushi Itamea",
                  "popularity": 0.9421366389099167,
                  "price": 2,
                  "rating": 8.0
            },
            {
                  "distance": 573,
                  "location": {
                        "address": "1499 Laurier Ave E",
                        "country": "CA",
                        "cross_street": "coin Fabre",
                        "formatted_address": "1499 Laurier Ave E (coin Fabre), Montr\u00e9al QC H2J 1H8",
                        "locality": "Montreal",
                        "postcode": "H2J 1H8",
                        "region": "QC"
                  },
                  "name": "Byblos le Petit Caf\u00e9",
                  "popularity": 0.8978046934140802,
                  "price": 2,
                  "rating": 7.8
            },
            {
                  "distance": 625,
                  "location": {
                        "address": "1389 Laurier Ave E",
                        "country": "CA",
                        "cross_street": "Garnier",
                        "formatted_address": "1389 Laurier Ave E (Garnier), Montr\u00e9al QC H2J 1H6",
                        "locality": "Montreal",
                        "postcode": "H2J 1H6",
                        "region": "QC"
                  },
                  "name": "Brulerie Saint-Denis",
                  "popularity": 0.9221115632096897,
                  "price": 1,
                  "rating": 7.7
            },
            {
                  "distance": 235,
                  "location": {
                        "address": "5368 Papineau Ave",
                        "country": "CA",
                        "cross_street": "",
                        "formatted_address": "5368 Papineau Ave, Montr\u00e9al QC H2H 1W2",
                        "locality": "Montreal",
                        "postcode": "H2H 1W2",
                        "region": "QC"
                  },
                  "name": "Caf\u00e9 Orr",
                  "popularity": 0.9599853330809992,
                  "price": 1,
                  "rating": 7.6
            },
            {
                  "distance": 969,
                  "location": {
                        "address": "1404 Beaubien Rue E",
                        "country": "CA",
                        "cross_street": "",
                        "formatted_address": "1404 Beaubien Rue E, Montr\u00e9al QC H2G 1K9",
                        "locality": "Montreal",
                        "postcode": "H2G 1K9",
                        "region": "QC"
                  },
                  "name": "Caf\u00e9 Chiado28",
                  "popularity": 0.9532551097653293,
                  "price": 1,
                  "rating": 7.5
            },
            {
                  "distance": 765,
                  "location": {
                        "address": "5800 rue de la Roche",
                        "country": "CA",
                        "cross_street": "coin Rosemont",
                        "formatted_address": "5800 rue de la Roche (coin Rosemont), Montr\u00e9al QC H2S 2C7",
                        "locality": "Montreal",
                        "postcode": "H2S 2C7",
                        "region": "QC"
                  },
                  "name": "Le North End",
                  "popularity": 0.8863077214231643,
                  "price": 3,
                  "rating": 7.2
            },
            {
                  "distance": 997,
                  "location": {
                        "address": "2200 Beaubien Rue E",
                        "country": "CA",
                        "cross_street": "At Des Erables",
                        "formatted_address": "2200 Beaubien Rue E (At Des Erables), Montr\u00e9al QC H2G 1M7",
                        "locality": "Montreal",
                        "postcode": "H2G 1M7",
                        "region": "QC"
                  },
                  "name": "Nouveau Canada",
                  "popularity": 0.9369677327781983,
                  "price": 1,
                  "rating": 7.1
            },
            {
                  "distance": 960,
                  "location": {
                        "address": "1991 Beaubien Rue E",
                        "country": "CA",
                        "cross_street": "Bordeaux",
                        "formatted_address": "1991 Beaubien Rue E (Bordeaux), Montr\u00e9al QC H2G 1M2",
                        "locality": "Montreal",
                        "postcode": "H2G 1M2",
                        "region": "QC"
                  },
                  "name": "Caf\u00e9 l'\u00c9tincelle",
                  "popularity": 0.9640660484481454,
                  "price": 1,
                  "rating": 6.9
            },
            {
                  "distance": 646,
                  "location": {
                        "address": "2460 Dandurand Rue",
                        "country": "CA",
                        "formatted_address": "2460 Dandurand Rue, Montr\u00e9al QC H2G 2A3",
                        "locality": "Montreal",
                        "postcode": "H2G 2A3",
                        "region": "QC"
                  },
                  "name": "Tim Hortons",
                  "popularity": 0.9830857305071915,
                  "price": 1,
                  "rating": 6.5
            },
            {
                  "distance": 896,
                  "location": {
                        "address": "5800 Christophe-Colomb Ave",
                        "country": "CA",
                        "cross_street": "Boulevard Rosemont",
                        "formatted_address": "5800 Christophe-Colomb Ave (Boulevard Rosemont), Montr\u00e9al QC H2S 2G2",
                        "locality": "Montreal",
                        "postcode": "H2S 2G2",
                        "region": "QC"
                  },
                  "name": "Tim Hortons",
                  "popularity": 0.8799559992429977,
                  "price": 1,
                  "rating": 6.3
            },
            {
                  "distance": 925,
                  "location": {
                        "address": "6448 Papineau Ave",
                        "country": "CA",
                        "cross_street": "coin Beaubien",
                        "formatted_address": "6448 Papineau Ave (coin Beaubien), Montr\u00e9al QC H2G 2W9",
                        "locality": "Montreal",
                        "postcode": "H2G 2W9",
                        "region": "QC"
                  },
                  "name": "Subway",
                  "popularity": 0.9240986941710825,
                  "price": 1,
                  "rating": 6.2,
                  "store_id": "27129"
            },
            {
                  "distance": 1615,
                  "location": {
                        "address": "5228 d'Iberville Rue",
                        "country": "CA",
                        "cross_street": "coin Masson",
                        "formatted_address": "5228 d'Iberville Rue (coin Masson), Montr\u00e9al QC H2G 2A8",
                        "locality": "Montreal",
                        "postcode": "H2G 2A8",
                        "region": "QC"
                  },
                  "name": "Bar Sel et Poivre",
                  "popularity": 0.9735758894776685,
                  "rating": 5.9
            },
            {
                  "distance": 666,
                  "location": {
                        "address": "1275 Rosemont Blvd",
                        "country": "CA",
                        "formatted_address": "1275 Rosemont Blvd, Montr\u00e9al QC H2S 3L9",
                        "locality": "Montreal",
                        "postcode": "H2S 3L9",
                        "region": "QC"
                  },
                  "name": "McDonald's",
                  "popularity": 0.9897449848599545,
                  "price": 1,
                  "rating": 5.4,
                  "store_id": "2964"
            },
            {
                  "distance": 798,
                  "location": {
                        "address": "2530 Masson Rue",
                        "country": "CA",
                        "cross_street": "coin Iberville",
                        "formatted_address": "2530 Masson Rue (coin Iberville), Montr\u00e9al QC H1Y 1V8",
                        "locality": "Montreal",
                        "postcode": "H1Y 1V8",
                        "region": "QC"
                  },
                  "name": "McDonald's",
                  "popularity": 0.9850965177895533,
                  "price": 1,
                  "rating": 5.1,
                  "store_id": "5336"
            },
            {
                  "distance": 121,
                  "location": {
                        "address": "5477 Chabot Rue",
                        "country": "CA",
                        "cross_street": "",
                        "formatted_address": "5477 Chabot Rue, Montr\u00e9al QC H2H 1Z1",
                        "locality": "Montreal",
                        "postcode": "H2H 1Z1",
                        "region": "QC"
                  },
                  "name": "Maison Chabot",
                  "popularity": 0.9506765707797123,
                  "price": 1
            },
            {
                  "distance": 503,
                  "location": {
                        "address": "5500 Fullum Rue",
                        "address_extended": "Suite 105",
                        "country": "CA",
                        "cross_street": "",
                        "formatted_address": "5500 Fullum Rue, Montr\u00e9al QC H2G 2H3",
                        "locality": "Montreal",
                        "postcode": "H2G 2H3",
                        "region": "QC"
                  },
                  "name": "Kittel Compagnie de Caf\u00e9",
                  "popularity": 0.044816900075700224,
                  "price": 1
            },
            {
                  "distance": 519,
                  "location": {
                        "address": "5161 Papineau Ave",
                        "country": "CA",
                        "cross_street": "",
                        "formatted_address": "5161 Papineau Ave, Montr\u00e9al QC H2H 1W1",
                        "locality": "Montreal",
                        "postcode": "H2H 1W1",
                        "region": "QC"
                  },
                  "name": "Chez Tomio",
                  "popularity": 0.8303723504920515,
                  "price": 2
            },
            {
                  "distance": 539,
                  "location": {
                        "address": "5885 Papineau Ave",
                        "country": "CA",
                        "cross_street": "De Lorimier",
                        "formatted_address": "5885 Papineau Ave (De Lorimier), Montr\u00e9al QC H2G 2W5",
                        "locality": "Montreal",
                        "postcode": "H2G 2W5",
                        "region": "QC"
                  },
                  "name": "Grozepa Brasserie Urbaine",
                  "popularity": 0.969708080999243,
                  "price": 2
            },
            {
                  "distance": 554,
                  "location": {
                        "address": "1815 Laurier Ave E",
                        "country": "CA",
                        "cross_street": "",
                        "formatted_address": "1815 Laurier Ave E, Montr\u00e9al QC H2H 1B3",
                        "locality": "Montreal",
                        "postcode": "H2H 1B3",
                        "region": "QC"
                  },
                  "name": "Bistro 1815",
                  "popularity": 0.8681514950794852,
                  "price": 2
            },
            {
                  "distance": 565,
                  "location": {
                        "address": "1556 Laurier Ave E",
                        "country": "CA",
                        "cross_street": "Rue Fabre",
                        "formatted_address": "1556 Laurier Ave E (Rue Fabre), Montr\u00e9al QC H2J 1H9",
                        "locality": "Montreal",
                        "postcode": "H2J 1H9",
                        "region": "QC"
                  },
                  "name": "Le Bibim - Pique-nique cor\u00e9en",
                  "popularity": 0.17541161998485996,
                  "price": 2
            },
            {
                  "distance": 617,
                  "location": {
                        "address": "2055 Laurier Ave E",
                        "country": "CA",
                        "cross_street": "De Lorimier",
                        "formatted_address": "2055 Laurier Ave E (De Lorimier), Montr\u00e9al QC H2H 1B8",
                        "locality": "Montreal",
                        "postcode": "H2H 1B8",
                        "region": "QC"
                  },
                  "name": "Dans la Gueule du Loup",
                  "popularity": 0.9511615253595761,
                  "price": 1
            },
            {
                  "distance": 729,
                  "location": {
                        "address": "5416 d'Iberville Rue",
                        "country": "CA",
                        "cross_street": "Masson",
                        "formatted_address": "5416 d'Iberville Rue (Masson), Montr\u00e9al QC",
                        "locality": "Montreal",
                        "region": "QC"
                  },
                  "name": "Kool Cafe Inc",
                  "popularity": 0.15313919379258137,
                  "price": 2
            },
            {
                  "distance": 752,
                  "location": {
                        "address": "1276 Laurier Ave E",
                        "country": "CA",
                        "cross_street": "",
                        "formatted_address": "1276 Laurier Ave E, Montr\u00e9al QC H2J 1H1",
                        "locality": "Montreal",
                        "postcode": "H2J 1H1",
                        "region": "QC"
                  },
                  "name": "La Grocerie",
                  "popularity": 0.36429551476154426,
                  "price": 2
            },
            {
                  "distance": 817,
                  "location": {
                        "address": "4780 Papineau Ave",
                        "country": "CA",
                        "cross_street": "Gilford",
                        "formatted_address": "4780 Papineau Ave (Gilford), Montr\u00e9al QC H2H 1V5",
                        "locality": "Montreal",
                        "postcode": "H2H 1V5",
                        "region": "QC"
                  },
                  "name": "Boulangerie Patisserie l'Artisan",
                  "popularity": 0.8731193224829674,
                  "price": 2
            },
            {
                  "distance": 922,
                  "location": {
                        "address": "6442 Papineau Ave",
                        "country": "CA",
                        "cross_street": "Beaubien",
                        "formatted_address": "6442 Papineau Ave (Beaubien), Montr\u00e9al QC H2G 2W9",
                        "locality": "Montreal",
                        "postcode": "H2G 2W9",
                        "region": "QC"
                  },
                  "name": "Bar Paspebiac",
                  "popularity": 0.8786549015897047,
                  "price": 2
            },
            {
                  "distance": 936,
                  "location": {
                        "address": "2581 Masson Rue",
                        "country": "CA",
                        "cross_street": "1\u00e8re avenue",
                        "formatted_address": "2581 Masson Rue (1\u00e8re avenue), Montr\u00e9al QC H1Y 1V7",
                        "locality": "Montreal",
                        "postcode": "H1Y 1V7",
                        "region": "QC"
                  },
                  "name": "Bar Chez Tzina",
                  "popularity": 0.9494227857683573,
                  "price": 1
            },
            {
                  "distance": 1015,
                  "location": {
                        "address": "2040 Beaubien Rue E",
                        "country": "CA",
                        "cross_street": "",
                        "formatted_address": "2040 Beaubien Rue E, Montr\u00e9al QC H2G 1M4",
                        "locality": "Montreal",
                        "postcode": "H2G 1M4",
                        "region": "QC"
                  },
                  "name": "Calaveras",
                  "popularity": 0.9169071725965178,
                  "price": 1
            }
      ],
      "context": {
            "geo_bounds": {
                  "circle": {
                        "center": {
                              "latitude": 45.53923559,
                              "longitude": -73.58594567
                        },
                        "radius": 1000
                  }
            }
      }
}