{
      "results": [
            {
                  "distance": 879,
                  "location": {
                        "address": "1400 Saint Jean Baptiste Blvd",
                        "address_extended": "# 1300",
                        "country": "CA",
                        "formatted_address": "1400 Saint Jean Baptiste Blvd, Pointe-Aux-Trembles QC H1B 4A4",
                        "locality": "Pointe-aux-Trembles",
                        "postcode": "H1B 4A4",
                        "region": "QC"
                  },
                  "name": "Subway",
                  "popularity": 0.9755275359576079,
                  "price": 1,
                  "rating": 6.3
            },
            {
                  "distance": 850,
                  "location": {
                        "address": "1220 St Jean Baptiste Blvd",
                        "country": "CA",
                        "cross_street": "",
                        "formatted_address": "1220 St Jean Baptiste Blvd, Montr\u00e9al QC H1B 4A2",
                        "locality": "Montreal",
                        "postcode": "H1B 4A2",
                        "region": "QC"
                  },
                  "name": "Tim Hortons",
                  "popularity": 0.9436624716124148,
                  "price": 1,
                  "rating": 5.9
            },
            {
                  "distance": 217,
                  "location": {
                        "address": "11906 Notre Dame Rue E",
                        "country": "CA",
                        "cross_street": "",
                        "formatted_address": "11906 Notre Dame Rue E, Pointe-Aux-Trembles QC H1B 2Y3",
                        "locality": "Pointe-Aux-Trembles",
                        "postcode": "H1B 2Y3",
                        "region": "QC"
                  },
                  "name": "Fuzion d'Asie",
                  "popularity": 0.025442373202119607,
                  "price": 2
            },
            {
                  "distance": 709,
                  "location": {
                        "address": "11563 Notre Dame E",
                        "country": "CA",
                        "formatted_address": "11563 Notre Dame E, Montr\u00e9al QC",
                        "locality": "Montreal",
                        "region": "QC"
                  },
                  "name": "Les Gateries",
                  "popularity": 0.8428983724451173,
                  "price": 1
            },
            {
                  "distance": 734,
                  "location": {
                        "address": "11561 Notre-Dame Rue E",
                        "country": "CA",
                        "cross_street": "coin 1re avenue",
                        "formatted_address": "11561 Notre-Dame Rue E (coin 1re avenue), Pointe-Aux-Trembles QC H1B 2X3",
                        "locality": "Pointe-Aux-Trembles",
                        "postcode": "H1B 2X3",
                        "region": "QC"
                  },
                  "name": "La Friterie du Coin",
                  "popularity": 0.9884320590461771,
                  "price": 1
            },
            {
                  "distance": 932,
                  "location": {
                        "address": "1300 Saint-Jean-Baptiste Blvd",
                        "country": "CA",
                        "formatted_address": "1300 Saint-Jean-Baptiste Blvd, Pointe-Aux-Trembles QC H1B 4A4",
                        "locality": "Pointe-aux-Trembles",
                        "postcode": "H1B 4A4",
                        "region": "QC"
                  },
                  "name": "Restaurant Sumo Sushi",
                  "popularity": 0.7712315480696442
            },
            {
                  "distance": 985,
                  "location": {
                        "address": "1305 Saint-Jean-Baptiste Blvd",
                        "country": "CA",
                        "cross_street": "",
                        "formatted_address": "1305 Saint-Jean-Baptiste Blvd, Montr\u00e9al QC H1B 4A2",
                        "locality": "Montreal",
                        "postcode": "H1B 4A2",
                        "region": "QC"
                  },
                  "name": "Restaurant Tha\u00ef Mix Inc",
                  "popularity": 0.8269066994700984,
                  "price": 2
            },
            {
                  "distance": 28293,
                  "location": {
                        "address": "1300 Saint-Jean-Baptiste Blvd",
                        "address_extended": "Local 122",
                        "country": "CA",
                        "cross_street": "",
                        "formatted_address": "1300 Saint-Jean-Baptiste Blvd, Pointe-Aux-Trembles QC H1B 4A4",
                        "locality": "Pointe-aux-Trembles",
                        "postcode": "H1B 4A4",
                        "region": "QC"
                  },
                  "name": "L le Cocotier Bbq & Grill",
                  "popularity": 0.3954248366013072,
                  "price": 2
            },
            {
                  "distance": 152,
                  "location": {
                        "address": "11934 Notre Dame Rue E",
                        "country": "CA",
                        "formatted_address": "11934 Notre Dame Rue E, Pointe-Aux-Trembles QC H1B 2Y3",
                        "locality": "Pointe-Aux-Trembles",
                        "postcode": "H1B 2Y3",
                        "region": "QC"
                  },
                  "name": "Champion 2 Pour 1 Pizza"
            },
            {
                  "distance": 192,
                  "location": {
                        "address": "11908 Notre-Dame Rue E",
                        "country": "CA",
                        "formatted_address": "11908 Notre-Dame Rue E, Pointe-Aux-Trembles QC H1B 2Y3",
                        "locality": "Pointe-Aux-Trembles",
                        "postcode": "H1B 2Y3",
                        "region": "QC"
                  },
                  "name": "Bar Sportif la 8"
            },
            {
                  "distance": 259,
                  "location": {
                        "address": "11859 Notre-Dame Rue E",
                        "country": "CA",
                        "formatted_address": "11859 Notre-Dame Rue E, Pointe-Aux-Trembles QC H1B 2Y2",
                        "locality": "Pointe-Aux-Trembles",
                        "postcode": "H1B 2Y2",
                        "region": "QC"
                  },
                  "name": "Studio Sexe"
            },
            {
                  "distance": 267,
                  "location": {
                        "address": "11851 Notre-Dame Rue E",
                        "country": "CA",
                        "formatted_address": "11851 Notre-Dame Rue E, Pointe-Aux-Trembles QC H1B 2Y2",
                        "locality": "Pointe-Aux-Trembles",
                        "postcode": "H1B 2Y2",
                        "region": "QC"
                  },
                  "name": "Vincent Sous-Marins"
            },
            {
                  "distance": 711,
                  "location": {
                        "address": "11595 Notre-Dame Rue E",
                        "country": "CA",
                        "formatted_address": "11595 Notre-Dame Rue E, Pointe-Aux-Trembles QC H1B 2X3",
                        "locality": "Pointe-Aux-Trembles",
                        "postcode": "H1B 2X3",
                        "region": "QC"
                  },
                  "name": "Cr\u00e8me-O-Bec Notredame"
            },
            {
                  "distance": 744,
                  "location": {
                        "address": "11561 Notre-Dame Rue E",
                        "country": "CA",
                        "formatted_address": "11561 Notre-Dame Rue E, Pointe-Aux-Trembles QC H1B 2X3",
                        "locality": "Pointe-Aux-Trembles",
                        "postcode": "H1B 2X3",
                        "region": "QC"
                  },
                  "name": "Friteries Montreal Inc"
            },
            {
                  "distance": 762,
                  "location": {
                        "address": "52-C Rue de la Gaucheti\u00e8re O",
                        "country": "CA",
                        "formatted_address": "52-C Rue de la Gaucheti\u00e8re O, Montreal QC H2Z 1C1",
                        "locality": "Montreal",
                        "postcode": "H2Z 1C1",
                        "region": "QC"
                  },
                  "name": "Chatime"
            },
            {
                  "distance": 902,
                  "location": {
                        "address": "1300 Saint-Jean-Baptiste Blvd",
                        "country": "CA",
                        "formatted_address": "1300 Saint-Jean-Baptiste Blvd, Pointe-Aux-Trembles QC H1B 4A4",
                        "locality": "Pointe-Aux-Trembles",
                        "postcode": "H1B 4A4",
                        "region": "QC"
                  },
                  "name": "Le Cocotier BBQ & Grill"
            },
            {
                  "distance": 974,
                  "location": {
                        "address": "1301 Saint-Jean-Baptiste Blvd",
                        "country": "CA",
                        "formatted_address": "1301 Saint-Jean-Baptiste Blvd, Pointe-Aux-Trembles QC H1B 4A2",
                        "locality": "Pointe-Aux-Trembles",
                        "postcode": "H1B 4A2",
                        "region": "QC"
                  },
                  "name": "Restaurant Tee Pee Enr"
            }
      ],
      "context": {
            "geo_bounds": {
                  "circle": {
                        "center": {
                              "latitude": 45.64000286,
                              "longitude": -73.49011302
                        },
                        "radius": 1000
                  }
            }
      }
}